~Version Information											
VERS.                       2.00: SCHLUMBERGER LAS - Version 2.00											
WRAP.                         NO: One line per depth step											
~Well Information											
STRT.FT                1135.0000: Start Depth											
STOP.FT                2399.0000: End Depth											
STEP.FT                   0.2000:  											
											
COMP.                    Bapetco: COMPANY											
WELL.                   BED-18 M: WELL											
FLD .                        BED: FLD											
SRVC.               Schlumberger: SERVICE COMPANY											
LOC .                           : LOCATION											
DATE.                  20-Oct-19: LOG DATE											
UWI .                  19EGP0341: API NUMBER											
~Curve Information											
DEPT.FT                         : MWD Tool Measurement Depth											
MTTVD.FT                         : MWD Tool Measurement TVD											
PSPD.M/MIN                      : Instantaneous Pipe Speed											
ROP .M/HR                       : Rate of Penetration (MWD Depth Ave.)											
KPOSI.M                          : Kelly Position (Raw)											
SSS_H.                           : Stick Slip Percentage from HDS1											
SSL_H.                           : Stick Slip Level from HDS1											
RPM_H.                           : Average RPM from HDS1											
VIBC.CPS                        : Vibration Count											
VIBXYH.                           : Vibration XY											
VIBZH.                           : Vibration Z											
SPP I.PSI                        : Standpipe Pressure (Raw)											
DEPT	MTTVD	PSPD	ROP	KPOSI	SSS_H	SSL_H	RPM_H	VIBC	VIBXYH	VIBZH	SPP
M	FT	M/MIN	M/HR	M				CPS			PSI
#											
# Relog Number     0         0         0         0         0         0         0         0         0         0         0											
#											
~ASCII Data											
# ...
2219	7278.34		16.34	25.16	233.46	3	72.71	56.52	2	2	2198.73
2219.2	7279		20.63	24.97	248.29	3	75.06	49.11	2	2	2236.8
2219.4	7279.65		16.02	24.76	233.72	3	77.41	48	2	2	2245.57
2219.6	7280.31		20.01	24.56	213.77	3	79.76	48	2	2	2200.82
2219.8	7280.96		15.95	24.36	218.94	3	81.31	40.61	2	2	2251.66
2220	7281.62		13.91	24.16	221	3	82.76	36	2	2	2188.14
2220.2	7282.27		11	23.96	227.51	3	84	40	2	2	2248.47
2220.4	7282.93		13.78	23.76	243	3	84	40	2	2	2217.69
2220.6	7283.58		17.08	23.56	243	3	84	43.11	2	2	2230.13
2220.8	7284.24		13.07	23.36	231.27	3	84	48	2	2	2255.46
2221	7284.9		16.41	23.17	223	3	84	48	2	2	2260.06
2221.2	7285.55		12.38	22.96	220.09	3	84.09	32.4	2	2	2211.78
2221.4	7286.21		20.69	22.77	200.72	3	84.69	24	2	2	2246.62
2221.6	7286.86		14.34	22.57	202.63	3	85.28	24	2	2	2196.55
2221.8	7287.52		15.66	22.36	222	3	85.88	32.23	2	2	2206.23
2222	7288.17		15.03	22.16	242	3	83.87	34	2	2	2253.2
2222.2	7288.83		12.65	21.96	243	3	81.2	37.2	2	2	2220.33
2222.4	7289.49		12.93	21.76	243	3	80.39	38.87	2	2	2275.13
2222.6	7290.14		15.46	21.56	243	3	81.11	42	2	2	2241.25
2222.8	7290.8		13.12	21.36	243	3	81.82	42	2	2	2261.38
2223	7291.45		17.64	21.16	239.39	3	81.09	40.25	2	2	2248.56
2223.2	7292.11		16.41	20.96	230.99	3	79.88	36	2	2	2249.27
2223.4	7292.76		17.62	20.77	210.99	3	78.67	36	2	2	2235.79
2223.6	7293.42		15.03	20.56	206.47	3	77.35	38	2	2	2240.43
2223.8	7294.07		16.6	20.36	209.88	3	75.89	44	2	2	2221.22
2224	7294.73		15.11	20.16	229.11	3	74.44	44	2	2	2231.44
2224.2	7295.39		12	19.97	232	3	75.33	44	2	2	2240.44
2224.4	7296.04		27.81	19.76	231.12	3	77.24	44	2	2	2243.48
2224.6	7296.7		15.35	19.56	213.79	3	79.14	41.33	2	2	2269.97
2224.8	7297.35		13.53	19.36	220.15	3	80.58	36	2	2	2260.52
2225	7298.01		17.08	19.16	200.88	3	81.63	36	2	2	2248.11
2225.2	7298.66		5.18	18.96	224.86	3	57.95	18	2	2	2263.29
2225.4	7299.32		28.5	18.76	198.47	3	64.53	18	2	2	2219.36
2225.6	7299.98		20.08	18.56	191.99	3	71.11	18	2	2	2288.54
2225.8	7300.63		15.71	18.37	231.99	3	77.69	35.38	2	2	2245.35
2226	7301.29		19.73	18.16	234	3	80	48	2	2	2252.91
2226.2	7301.94		14.52	17.97	228.59	3	80	45.6	2	2	2189.49
2226.4	7302.6		11.23	17.76	217.4	3	80.16	42	2	2	2237.2
2226.6	7303.25		17.64	17.56	205.4	3	81.8	32.87	2	2	2208.26
2226.8	7303.91		10.84	17.37	207.87	3	83.43	28	2	2	2255.25
2227	7304.56		15.8	17.16	210	3	82.3	28	2	2	2199.69
2227.2	7305.22		22.35	16.96	210	3	79.67	28	2	2	2230.96
2227.4	7305.88		14.12	16.76	222.24	3	77.05	28	2	2	2211.38
2227.6	7306.53		12.61	16.56	234.24	3	73.23	30.4	2	2	2297.52
2227.8	7307.19		12.19	16.36	241	3	68.62	34	2	2	2235.18
2228	7307.84		14.28	16.16	235.03	3	64	39.62	2	2	2265.09
2228.2	7308.5		13.28	15.96	217.97	3	68.36	40	2	2	2268.76
2228.4	7309.15		17.41	15.77	231.85	3	72.73	40	2	2	2256.24
2228.6	7309.81		9.3	15.56	234	3	76.85	36	2	2	2284.69
2228.8	7310.46		19.22	15.36	223.22	3	80.24	36	2	2	2126.75
2229	7311.12		17.82	15.17	205.36	3	83.63	33.45	2	2	2142.61
2229.2	7311.78		20.33	14.96	200	3	85.17	22	2	2	2218.88
2229.4	7312.43		17.01	14.76	200	3	82.41	22	2	2	2212.9
2229.6	7313.09		14.18	14.56	222.23	3	79.65	22	2	2	2262.29
2229.8	7313.74		20.56	14.37	240	3	79.91	34	2	2	2208.47
2230	7314.4		11.27	14.16	238.23	3	84.69	34	2	2	2221.16
2230.2	7315.05		21.94	13.97	226.44	3	89.46	30.39	2	2	2208.32
2230.4	7315.71		18.19	13.76	214.56	3	93.89	28	2	2	2213.57
2230.6	7316.37		19.69	13.57	202.33	3	91.73	32.41	2	2	2194.96
2230.8	7317.02		19.76	13.36	198.5	3	89.57	36	2	2	2225.24
2231	7317.68		18.25	13.16	207.25	3	87.4	36	2	2	2217.31
2231.2	7318.33		15.09	12.97	209	3	86	34.37	2	2	2235.28
2231.4	7318.99		20.54	12.76	209	3	86	32	2	2	2247.92
2231.6	7319.64		13.65	12.56	209	3	86	32	2	2	2215.34
2231.8	7320.3		16.22	12.36	209	3	85.77	32	2	2	2214.02
2232	7320.95		20.67	12.16	209	3	85.19	32	2	2	2231.86
2232.2	7321.61		21.79	11.96	202.15	3	84.61	32	2	2	2217.82
2232.4	7322.27		17.04	11.76	197	3	84.03	34	2	2	2213.62
2232.6	7322.92		10.57	11.57	197	3	84	34	2	2	2220
2232.8	7323.58		28.86	11.36	197	3	84	34	2	2	2211.44
2233	7324.23		20.94	11.16	197	3	84	34	2	2	2204.89
2233.2	7324.89		15.55	10.96	212	3	84.51	34	2	2	2248.25
2233.4	7325.54		18.3	10.77	221.25	3	85.14	34	2	2	2247.3
2233.6	7326.2		14.98	10.57	219.37	3	85.78	28.26	2	2	2244.13
2233.8	7326.86		19.45	10.36	219	3	86	22	2	2	2217.35
2234	7327.51		15.13	10.17	220.03	3	86	22	2	2	2190.61
2234.2	7328.17		22.37	9.96	226.88	3	86	22.42	2	2	2205.93
2234.4	7328.82		15.11	9.76	232.25	3	80.45	28.21	2	2	2239.96
2234.6	7329.48		4.95	9.56	235.37	3	78.4	22	2	2	2225.65
2234.8	7330.13		22.77	9.36	238.5	3	81.4	22	2	2	2216.72
2235	7330.79		23.53	9.16	235.61	3	84.4	28	2	2	2271.85
2235.2	7331.45		17.08	8.96	208.69	3	87.4	32	2	2	2215.08
2235.4	7332.1		14.34	8.76	215.29	3	85	32	2	2	2247.68
2235.6	7332.76		15.9	8.57	229.24	3	81.25	32	2	2	2227.73
2235.8	7333.41		16.68	8.36	249.92	3	77.5	32	2	2	2213.81
2236	7334.07		18.83	8.16	248.4	3	75.04	32.78	2	2	2209.31
2236.2	7334.72		9.93	7.96	238.35	3	73.44	34	2	2	2206.31
2236.4	7335.38		16.89	7.76	215.8	3	72.57	34.25	2	2	2182.11
2236.6	7336.04		15.03	7.57	219.8	3	78.29	39.25	2	2	2211.8
2236.8	7336.69		13.01	7.37	218.56	3	84	39.68	2	2	2205.81
2237	7337.35		18.67	7.16	220.55	3	88.2	35.54	2	2	2241.11
2237.2	7338		2.32	6.97	227	3	88.87	23.23	2	2	2228.05
2237.4	7338.66		22.29	6.76	227	3	89.53	22	2	2	2204.26
2237.6	7339.31		11.11	6.56	223.4	3	90	50	2	2	2202.49
2237.8	7339.97		13.94	6.36	218	3	90	50	2	2	2239.47
2238	7340.62		13.61	6.16	217.76	3	90	45.29	2	2	2222.89
2238.2	7341.28		16.06	5.96	212.93	3	90	42	2	2	2223.62
2238.4	7341.94		12.2	5.76	208.71	3	90	32.99	2	2	2222.25
2238.6	7342.59		12.66	5.57	213.87	3	90	32.33	2	2	2215.53
2238.8	7343.25		16.36	5.36	226.37	3	90	44	2	2	2189.45
2239	7343.9		16.66	5.16	221.89	3	90	44	2	2	2195.42
2239.2	7344.56		14.64	4.96	233.84	3	90	43.27	2	2	2238.42
2239.4	7345.21		13.84	4.76	253	3	90	40	2	2	2234.87
2239.6	7345.87		16.84	4.56	253	3	90	40	2	2	2227.15
2239.8	7346.53		19.5	4.36	239.66	3	90	38.28	2	2	2233
2240	7347.18		19.79	4.16	213.01	3	90	31.38	2	2	2210.86
2240.2	7347.84		13.89	3.96	229.22	3	90	30	2	2	2222.48
2240.4	7348.49		15	3.76	239.01	3	89.85	38	2	2	2213.85
2240.6	7349.15		13.39	3.57	217	3	89.11	38	2	2	2208.54
2240.8	7349.8		16.02	3.36	217	3	88.37	37.16	2	2	2212.52
2241	7350.46		13.64	3.16	214.88	3	87.42	34	2	2	2253.03
2241.2	7351.12		17.66	2.97	211.95	3	86.26	34	2	2	2220.84
2241.4	7351.77		34.88	2.76	210.89	3	85.1	34	2	2	2219.57
2241.6	7352.43		11.69	2.56	210.75	3	83.84	27.68	2	2	2179.45
2241.8	7353.08		29.85	2.37	215.75	3	80.61	26	2	2	2214.5
2242	7353.74		16.1	2.16	227.56	3	77.39	26	2	2	2197.14
2242.2	7354.39		18	1.96	252	3	74.16	30.8	2	2	2223.73
2242.4	7355.05		12.79	1.76	252	3	78.36	32	2	2	2224.21
2242.6	7355.7		24.51	1.56	251.28	3	82.95	32	2	2	2254.77
2242.8	7356.36		15.35	1.36	249.21	3	87.54	33.53	2	2	2249.33
2243	7357.02		12.92	1.16	224.19	3	86.76	25.11	2	2	2191.65
2243.2	7357.67		5.5	29.63	215.33	3	85.38	39.16	2	2	2290.14
2243.4	7358.33		16.15	29.43	226.69	3	84	56	2	2	2265.88
2243.6	7358.98		12.86	29.23	213.66	3	82.62	56	2	2	2284.93
2243.8	7359.64		22.59	29.02	213	3	83.52	51.15	2	2	2317.77
2244	7360.29		14.29	28.83	214.18	3	86.28	42	2	2	2329.54
2244.2	7360.95		11.43	28.63	218.33	3	89.03	42	2	2	2324.73
2244.4	7361.61		17.83	28.43	226.07	3	88.63	42	2	2	2339.47
2244.6	7362.26		12.35	28.23	212.24	3	86.53	42	2	2	2359.48
2244.8	7362.92		13.67	28.03	204.08	3	87	32	2	2	2356.23
2245	7363.57		14.17	27.83	200.19	3	88.33	32	2	2	2277.16
2245.2	7364.23		11.67	27.63	207.24	3	89.67	41.77	2	2	2253.53
2245.4	7364.88		15.35	27.43	208	3	91.05	48	2	2	2196.35
2245.6	7365.54		15.95	27.23	212	3	92.46	48	2	2	2192.1
2245.8	7366.2		12.99	27.03	217	3	93.86	51.25	2	2	2211.22
2246	7366.85		13.2	26.83	217	3	92.2	52	2	2	2232.61
2246.2	7367.51		15.67	26.63	210.04	3	90.2	52	2	2	2282.07
2246.4	7368.16		20.78	26.43	201.69	3	88.2	44	2	2	2275.22
2246.6	7368.82		14.41	26.23	200.44	3	88.69	44	2	2	2235.29
2246.8	7369.47		12.71	26.03	195.12	3	89.46	38	2	2	2246.05
2247	7370.13		15.24	25.83	199.65	3	90	38.5	2	2	2249.82
2247.2	7370.79		12.23	25.63	214.2	3	90	41.83	2	2	2260.46
2247.4	7371.44		14.85	25.43	210.2	3	90	42	2	2	2266.43
2247.6	7372.1		14.25	25.23	208.42	3	89.43	40	2	2	2257.26
