~Version Information											
VERS.                       2.00: SCHLUMBERGER LAS - Version 2.00											
WRAP.                         NO: One line per depth step											
~Well Information											
STRT.FT                1135.0000: Start Depth											
STOP.FT                2399.0000: End Depth											
STEP.FT                   0.2000:  											
											
COMP.                    Bapetco: COMPANY											
WELL.                   BED-18 M: WELL											
FLD .                        BED: FLD											
SRVC.               Schlumberger: SERVICE COMPANY											
LOC .                           : LOCATION											
DATE.                  20-Oct-19: LOG DATE											
UWI .                  19EGP0341: API NUMBER											
~Curve Information											
DEPT.FT                         : MWD Tool Measurement Depth											
MTTVD.FT                         : MWD Tool Measurement TVD											
PSPD.M/MIN                      : Instantaneous Pipe Speed											
ROP .M/HR                       : Rate of Penetration (MWD Depth Ave.)											
KPOSI.M                          : Kelly Position (Raw)											
SSS_H.                           : Stick Slip Percentage from HDS1											
SSL_H.                           : Stick Slip Level from HDS1											
RPM_H.                           : Average RPM from HDS1											
VIBC.CPS                        : Vibration Count											
VIBXYH.                           : Vibration XY											
VIBZH.                           : Vibration Z											
SPP I.PSI                        : Standpipe Pressure (Raw)											
DEPT	MTTVD	PSPD	ROP	KPOSI	SSS_H	SSL_H	RPM_H	VIBC	VIBXYH	VIBZH	SPP
M	FT	M/MIN	M/HR	M				CPS			PSI
#											
# Relog Number     0         0         0         0         0         0         0         0         0         0         0											
#											
~ASCII Data											
# ...
1986.8	6517.5		27.51	26.64	162.77	2.77	78.08	208.07	4	2.45	2123.51
1987	6518.15		21.87	26.44	112	2	76.74	224	4	3.36	2116.41
1987.2	6518.81		22.14	26.24	61.23	1.23	75.26	224	4	4	2074.08
1987.4	6519.46		18.9	26.04	122.99	2	73.78	224	4	4	2043.92
1987.6	6520.12		20.59	25.84	206.64	3	72.3	92.99	3.51	3.51	2017.82
1987.8	6520.77		16.91	25.64	228.81	3	73.3	42	2.43	2.43	2096.37
1988	6521.43		19.69	25.44	234.9	3	74.92	42	2	2	2120.31
1988.2	6522.08		20.71	25.24	221.35	3	76.54	40.22	2	2	2114.4
1988.4	6522.74		16.47	25.04	215.59	3	77.71	36	2.77	2.77	2147.09
1988.6	6523.4		23.69	24.84	210.69	3	74.82	36	3.62	3.62	2134.36
1988.8	6524.05		26.87	24.64	205.7	3	71.93	35.26	4	3.45	2102.5
1989	6524.71		19.49	24.44	200.58	3	69.04	34	4	2.45	2110.18
1989.2	6525.36		32.31	24.24	196.27	3	66.14	34	3.37	2	2132.24
1989.4	6526.02		15.92	24.04	193.83	3	68.2	29.67	2.23	2	2158.11
1989.6	6526.67		24.62	23.84	190.43	3	70.52	26	2	2	2073.87
1989.8	6527.33		23.12	23.64	184.14	3	72.84	26	2	2	2120.31
1990	6527.98		10.59	23.44	181	3	73.3	26	2	2	2129.48
1990.2	6528.64		34.91	23.24	181	3	71.91	28.67	2	2	2103.93
1990.4	6529.3		19.38	23.04	187.79	3	70.51	30	2	2	2124.27
1990.6	6529.95		25.22	22.84	200.15	3	69.12	30	2	2	2093.72
1990.8	6530.61		18.73	22.64	202.45	3	68.54	30.27	2	2	2109.91
1991	6531.26		26.63	22.44	202.97	3	71.24	31.6	2	2	2065.13
1991.2	6531.92		15.39	22.24	203	3	73.95	32	2	2	2096.48
1991.4	6532.57		20.86	22.04	202.88	3	76.65	29.83	2	2	2087.86
1991.6	6533.23		19.37	21.84	200.58	3	76.25	28	2	2	2148.4
1991.8	6533.88		26.58	21.64	198.27	3	72.75	28	2	2	2114.3
1992	6534.54		24.48	21.44	191	3	69.25	28	2	2	2066.76
1992.2	6535.19		18.67	21.24	177.67	3	65.75	26.91	2	2	2093.4
1992.4	6535.85		26.33	21.04	188	3	65.29	24	2	2	2137.52
1992.6	6536.51		18.28	20.84	204.25	3	67.87	24	2	2	2100.93
1992.8	6537.16		20.09	20.64	202.8	3	70.45	24	2	2	2114.81
1993	6537.82		13	20.44	184.76	3	72.35	26.5	2	2	2145.85
1993.2	6538.47		22.17	20.24	181.64	3	73.22	28	2	2	2085.93
1993.4	6539.13		24.33	20.04	180.78	3	74.09	28	2	2	2087.2
1993.6	6539.78		31.72	19.84	192.68	3	74.96	28	2	2	2099.25
1993.8	6540.44		19.95	19.64	202.53	3	75.83	28	2	2	2078.26
1994	6541.09		20.49	19.44	207.64	3	75.58	28	2	2	2115.8
1994.2	6541.75		22.97	19.24	212.75	3	75.06	28	2	2	2095.86
1994.4	6542.4		21.4	19.04	194.47	3	74.55	24	2	2	2084.67
1994.6	6543.06		28.4	18.84	174.97	3	74.03	20	2	2	2104.31
1994.8	6543.72		22.85	18.64	191.02	3	70.9	20	2	2	2122.63
1995	6544.37		15.84	18.44	208.94	3	67.63	20	2	2	2095.53
1995.2	6545.03		38.53	18.24	217	3	64.37	24.43	2	2	2112.91
1995.4	6545.68		25.44	18.04	217	3	61.1	26	2	2	2123.67
1995.6	6546.34		22.68	17.84	202.08	3	58.27	26.01	2	2	2085
1995.8	6546.99		21.04	17.64	168.92	3	63.68	133.49	2	2	2141.6
1996	6547.65		20.04	17.44	159.35	3	69.08	198	2	2	2102.49
1996.2	6548.3		17.84	17.24	169.08	3	74.49	198	2	2	2125.14
1996.4	6548.96		14.57	17.04	173.89	3	77.37	166.49	2	2	2143.55
1996.6	6549.61		32.14	16.84	176.59	3	75.58	61.51	2	2	2100.4
1996.8	6550.27		14.35	16.64	188.81	3	73.79	30	2	2	2113.61
1997	6550.93		17.44	16.44	195.48	2.9	72	44.31	2	2	2128.95
1997.2	6551.58		15.94	16.24	65.18	0.97	79.18	76	2	2	2095.34
1997.4	6552.24		6.24	16.04	186.13	3	85.81	106	2.45	2	2094.33
1997.6	6552.89		29.72	15.84	175.29	3	81.95	106	3.45	2	2098.21
1997.8	6553.55		20.3	15.64	165.34	3	78.1	106	4	2.39	2087.99
1998	6554.2		23.56	15.44	172.18	3	74.24	106	4	3.26	2139
1998.2	6554.86		16.55	15.24	179.26	3	70.38	59.86	3.87	3.87	2078.99
1998.4	6555.51		26.59	15.04	187.66	3	71.62	26	3.02	3.02	2139.33
1998.6	6556.17		28.14	14.84	196.06	3	73.42	26	2.17	2.17	2078.92
1998.8	6556.83		3.76	14.64	224.75	3	75.23	33	2.7	2.7	2097.83
1999	6557.48		41.07	14.44	207.25	3	77.03	34	3.57	3.57	2145.14
1999.2	6558.14		16.14	14.24	190.75	3	78.83	28	3.62	3.62	2144.36
1999.4	6558.79		30.76	14.04	176.58	3	79.68	24	2.85	2.85	2150.79
1999.6	6559.45		21.23	13.84	162.42	3	78.76	24	2.08	2.08	2112.38
1999.8	6560.1		19.22	13.64	161	3	77.84	22.13	2	2	2112.58
2000	6560.76		28.17	13.44	161	3	76.92	22	2	2	2136.81
2000.2	6561.41		29.02	13.24	172.05	3	76	22	2	2	2147.82
2000.4	6562.07		19.76	13.04	189.05	3	76	22	2	2	2144.67
2000.6	6562.72		16.12	12.83	195	3	76	22	2	2	2171.93
2000.8	6563.38		26.82	12.64	195	3	76	22	2	2	2150.04
2001	6564.03		15.28	12.44	198.8	3	76.06	22.19	2	2	2175.56
2001.2	6564.69		35.37	12.24	209.66	3	77.33	23.48	2	2	2142.78
2001.4	6565.35		12.97	12.04	207.65	3	78.6	24	2	2	2147.34
2001.6	6566		25.77	11.84	197.06	3	79.87	24	2	2	2154.41
2001.8	6566.66		11.79	11.64	210.67	3	81.64	28.08	2	2	2066.32
2002	6567.31		15.8	11.44	216.94	3	83.45	30	2	2	2107.89
2002.2	6567.97		21.16	11.24	215	3	85.27	35	2	2	2108.66
2002.4	6568.62		13.3	11.04	225.47	3	83.33	36	2	2	2096.83
2002.6	6569.28		9.94	10.84	222.35	3	78.89	38.78	2	2	2067.98
2002.8	6569.93		21.46	10.64	228.09	3	76	46	2	2	2147.36
2003	6570.59		14.81	10.44	239	3	76	46	2	2	2124.65
2003.2	6571.24		16.69	10.24	217	3	76	44.4	2	2	2121.4
2003.4	6571.9		16.68	10.04	208.57	3	76.12	30	2	2	2130.68
2003.6	6572.56		19.38	9.84	213.71	3	76.73	30	2	2	2103.77
2003.8	6573.21		16.35	9.64	206.56	3	77.33	30	2	2	2107.48
2004	6573.87		22.57	9.44	199	3	77.94	33.13	2	2	2133.9
2004.2	6574.52		17.49	9.24	212.34	3	75.75	34	2	2	2147.64
2004.4	6575.18		14.23	9.04	222.25	3	73.25	34	2	2	2134.83
2004.6	6575.83		17.23	8.84	225.82	3	70.75	28	2	2	2113.58
2004.8	6576.49		20.1	8.64	226	3	69.15	28	2	2	2170.73
2005	6577.14		17.57	8.44	225.65	3	67.94	58	2	2	2117.67
2005.2	6577.8		16.6	8.24	223.35	3	66.73	36	2	2	2159.23
2005.4	6578.45		12.2	8.04	223	3	66.29	30	2	2	2171.33
2005.6	6579.11		17.84	7.84	219.46	3	67	20	2	2	2147.61
2005.8	6579.77		16.35	7.64	195.89	3	67.71	20	2	2	2137.57
2006	6580.42		16.09	7.44	208.75	3	68	21.68	2	2	2178.9
2006.2	6581.08		16.03	7.24	228.82	3	68	26	2	2	2134.39
2006.4	6581.73		15.32	7.04	220.96	3	68	30	2	2	2132.59
2006.6	6582.39		4.74	6.84	207.64	3	63.91	86.46	2.97	2.97	2127.68
2006.8	6583.04		46.57	6.64	192.51	3	58.45	55.8	3.85	3.85	2144.61
2007	6583.7		25.9	6.44	191	3	58.15	42	3.08	3.08	2161.77
2007.2	6584.35		21.32	6.24	191	3	62.05	42	2.31	2.31	2157.51
2007.4	6585.01		32.33	6.04	192.11	3	65.95	42	2.35	2	2147.02
2007.6	6585.66		54.8	5.84	195.83	3	69.85	42	2.93	2	2153.76
2007.8	6586.32		45.24	5.64	199.54	3	73.76	42	3.51	2	2166.32
2008	6586.98		27.53	5.44	203.26	3	77.66	88.09	4	2.14	2160.33
2008.2	6587.63		15.12	5.24	204	3	80	114	4	3.1	2185.48
2008.4	6588.29		31.12	5.04	204	3	80	114	4	3.95	2163.69
2008.6	6588.94		27.13	4.84	130.84	1.86	80	114	4	2.98	2151.76
2008.8	6589.6		24.38	4.64	39.42	0.43	80	128.01	4	2	2183.98
2009	6590.25		23.52	4.44	12.82	0	78.84	156	3.2	2.8	2187.54
2009.2	6590.91		26.29	4.24	14	0	76.26	156	2.4	3.6	2174.24
2009.4	6591.56		23.57	4.04	28.79	0.24	73.68	158.95	2.53	4	2165.81
2009.6	6592.22		24.72	3.84	120.68	1.86	71.1	170	3.58	4	2137.9
2009.8	6592.87		19.16	3.64	185	3	68.52	170	3.52	3.52	2175.93
2010	6593.53		24.45	3.44	185	3	68.76	127.4	2.72	2.72	2146
2010.2	6594.18		24.86	3.24	185	3	69.71	56.41	2	2	2165.73
2010.4	6594.84		18.94	3.04	181.5	3	70.67	28	2	2	2162.92
2010.6	6595.5		21.34	2.84	180.13	3	71.62	28	2	2	2174.18
2010.8	6596.15		25.23	2.64	190.8	3	73.87	29.29	2	2	2145.7
2011	6596.81		10.02	2.44	190	3	77	30	2	2	2129.56
2011.2	6597.46		65.73	2.24	184.29	3	80.13	30	2	2	2151.61
2011.4	6598.12		15.77	2.04	194.94	3	80.4	31.5	2	2	2145.29
2011.6	6598.77		21.53	1.84	216.52	3	76.4	36.5	2	2	2173.5
2011.8	6599.43		17.37	1.64	220.13	3	72.4	38	2	2	2140.21
2012	6600.08		25.14	1.44	216.03	3	68.4	39.11	2	2	2138.92
2012.2	6600.74		22.94	1.24	215.56	3	66	39.32	2	2	2164.82
2012.4	6601.39		15.97	1.04	216.3	3	66	37.63	2	2	2159.86
2012.6	6602.05		9	29.46	217.04	3	66	35.94	2	2	2123.48
2012.8	6602.71		47.48	29.27	217.78	3	66	34.25	2	2	2099.16
2013	6603.36		12.33	29.07	218.52	3	66	34	2	2	2135.48
2013.2	6604.02		38.8	28.87	219.26	3	66	34	2	2	2086.92
2013.4	6604.67		22.57	28.67	220	3	66	34	2	2	2154.84
2013.6	6605.33		28.61	28.46	220.74	3	66	34	2	2	2130.4
2013.8	6605.98		30.12	28.26	214.28	3	66.19	33.38	2	2	2140.6
2014	6606.64		34.92	28.07	203.93	3	67.44	29.21	2	2	2122.31
2014.2	6607.29		22.71	27.86	193.59	3	68.69	25.04	2	2	2136.21
2014.4	6607.95		31.43	27.67	184.37	3	69.94	24	2	2	2103.09
