~Version Information											
VERS.                       2.00: SCHLUMBERGER LAS - Version 2.00											
WRAP.                         NO: One line per depth step											
~Well Information											
STRT.FT                1135.0000: Start Depth											
STOP.FT                2399.0000: End Depth											
STEP.FT                   0.2000:  											
											
COMP.                    Bapetco: COMPANY											
WELL.                   BED-18 M: WELL											
FLD .                        BED: FLD											
SRVC.               Schlumberger: SERVICE COMPANY											
LOC .                           : LOCATION											
DATE.                  20-Oct-19: LOG DATE											
UWI .                  19EGP0341: API NUMBER											
~Curve Information											
DEPT.FT                         : MWD Tool Measurement Depth											
MTTVD.FT                         : MWD Tool Measurement TVD											
PSPD.M/MIN                      : Instantaneous Pipe Speed											
ROP .M/HR                       : Rate of Penetration (MWD Depth Ave.)											
KPOSI.M                          : Kelly Position (Raw)											
SSS_H.                           : Stick Slip Percentage from HDS1											
SSL_H.                           : Stick Slip Level from HDS1											
RPM_H.                           : Average RPM from HDS1											
VIBC.CPS                        : Vibration Count											
VIBXYH.                           : Vibration XY											
VIBZH.                           : Vibration Z											
SPP I.PSI                        : Standpipe Pressure (Raw)											
DEPT	MTTVD	PSPD	ROP	KPOSI	SSS_H	SSL_H	RPM_H	VIBC	VIBXYH	VIBZH	SPP
M	FT	M/MIN	M/HR	M				CPS			PSI
#											
# Relog Number     0         0         0         0         0         0         0         0         0         0         0											
#											
~ASCII Data											
# ...
2276.2	7465.86		13.2	25.61	223.4	3	85.19	50	2	2	2191.96
2276.4	7466.52		11.3	25.41	227.14	3	86.89	76	2	2	2224.13
2276.6	7467.18		15.8	25.21	221.83	3	89.21	73.14	2	2	2172.1
2276.8	7467.83		15.54	25.01	218.5	3	92.65	54	2	2	2184.89
2277	7468.49		13.86	24.81	201.01	3	96.1	54	2	2	2220.93
2277.2	7469.14		17.54	24.61	200.96	3	98.3	53.33	2	2	2194.67
2277.4	7469.8		12.55	24.41	208	3	98.98	52	2	2	2194.75
2277.6	7470.46		13.15	24.21	204	3	99.66	52	2	2	2202.12
2277.8	7471.11		11.27	24.01	246.59	3	95.67	55.11	2	2	2161.67
2278	7471.77		9.69	23.81	250	3	87.03	57.45	2	2	2225.55
2278.2	7472.42		13.4	23.61	250	3	88.87	60	2	2	2182.89
2278.4	7473.08		18.69	23.42	240	3	96.37	60	2	2	2209.05
2278.6	7473.73		11.15	23.21	231.38	3	101.52	50.01	2	2	2221.73
2278.8	7474.39		18.8	23.01	236.67	3	99.58	50	2	2	2188.93
2279	7475.05		12.47	22.81	229.26	3	97.64	47.25	2	2	2216.14
2279.2	7475.7		20.09	22.61	217.86	3	95.17	28	2	2	2208.33
2279.4	7476.36		15.21	22.41	206.67	3	89.68	28	2	2	2190.66
2279.6	7477.01		10.7	22.21	237.09	3	84.19	36.47	2	2	2196
2279.8	7477.67		15.11	22.01	239	3	85	46	2	2	2214.43
2280	7478.32		12.54	21.81	224.76	3	90	46	2	2	2191.67
2280.2	7478.98		18.24	21.62	203.39	3	95	42	2	2	2199.92
2280.4	7479.64		13.7	21.41	210.31	3	94.75	42	2	2	2218.87
2280.6	7480.29		12.99	21.21	208.1	3	93.18	42	2	2	2183.84
2280.8	7480.95		16.68	21.01	208.25	3	94.27	42.19	2	2	2222.56
2281	7481.6		14.21	20.82	214.68	3	103.37	46	2	2	2205.1
2281.2	7482.26		9.8	20.61	228.45	3	111.77	46	2	2	2198.15
2281.4	7482.91		21.15	20.41	207.51	3	107.13	42.79	2	2	2211.32
2281.6	7483.57		16.24	20.21	201.8	3	102.49	40	2	2	2202.92
2281.8	7484.23		16.76	20.01	214.71	3	97.85	44.64	2	2	2215.19
2282	7484.88		15.07	19.81	223.2	3	97.09	48	2	2	2221.86
2282.2	7485.54		9.9	19.61	226	3	98.91	48	2	2	2177.02
2282.4	7486.19		11.16	19.41	219.54	3	98.84	48	2	2	2218.26
2282.6	7486.85		17.29	19.21	216.75	3	95.93	48	2	2	2219.57
2282.8	7487.5		17.21	19.01	232.61	3	93.02	43.15	2	2	2209.45
2283	7488.16		20.92	18.81	224.48	3	92.37	34	2	2	2227.62
2283.2	7488.82		22	18.61	212.1	3	92.94	34	2	2	2194.1
2283.4	7489.47		16.18	18.42	207.39	3	93.51	34	2	2	2194.74
2283.6	7490.13		14.34	18.21	212.34	3	94.12	38	2	2	2213.5
2283.8	7490.78		16.39	18.01	230.46	3	94.92	38	2	2	2186.41
2284	7491.44		16.62	17.82	236.36	3	95.72	38	2	2	2217.72
2284.2	7492.1		11.64	17.62	226.1	3	96	20.78	2	2	2214.49
2284.4	7492.75		12.16	17.41	210.61	3	96	34.67	2	2	2221.2
2284.6	7493.41		23.13	17.21	206.74	3	96	38.92	2	2	2239.26
2284.8	7494.06		15.02	17.01	213.92	3	96.65	43.54	2	2	2176.16
2285	7494.72		6.89	16.81	230.13	3	98.27	48.15	2	2	2199.16
2285.2	7495.37		20.17	16.61	232.67	3	99.89	50	2	2	2175.6
2285.4	7496.03		17.09	16.42	229.33	3	101.51	50	2	2	2231.61
2285.6	7496.69		17.98	16.21	212.06	3	96.13	48.08	2	2	2225.41
2285.8	7497.34		15.99	16.01	199.08	3	87.74	44	2	2	2207.49
2286	7498		20.83	15.81	209.48	3	79.36	42.66	2	2	2199.01
2286.2	7498.65		13.95	15.61	235.14	3	79.55	38	2	2	2227.55
2286.4	7499.31		13.52	15.41	241.77	3	85.48	38	2	2	2165.16
2286.6	7499.96		12.3	15.21	202	3	91.4	38	2	2	2196.98
2286.8	7500.62		16.99	15.01	202	3	90.48	38	2	2	2186.87
2287	7501.28		19.02	14.81	203.25	3	88.79	38	2	2	2193.85
2287.2	7501.93		20.45	14.61	208.25	3	87.1	34.24	2	2	2198.32
2287.4	7502.59		13.76	14.41	209.94	3	87.55	30	2	2	2213.95
2287.6	7503.24		13.67	14.21	210.95	3	92	30	2	2	2198.27
2287.8	7503.9		19.92	14.01	210	3	96.44	35.5	2	2	2231.63
2288	7504.56		11.99	13.81	228.19	3	97.12	38	2	2	2214.97
2288.2	7505.21		16.82	13.61	240	3	95.76	38	2	2	2216.96
2288.4	7505.87		20.94	13.42	240	3	94.41	32	2	2	2239.1
2288.6	7506.52		18.32	13.21	224.38	3	94.42	32.69	2	2	2223.7
2288.8	7507.18		20.82	13.02	206	3	95.03	34	2	2	2231.12
2289	7507.83		15.68	12.81	204.52	3	95.64	34	2	2	2190.34
2289.2	7508.49		15.53	12.61	214.24	3	96	33.74	2	2	2213.06
2289.4	7509.15		13.94	12.41	230	3	96	32	2	2	2216.36
2289.6	7509.8		17.62	12.21	230	3	96	32	2	2	2203.27
2289.8	7510.46		14.29	12.01	220	3	95.77	32.27	2	2	2206.24
2290	7511.11		19.72	11.81	200	3	94.61	33.6	2	2	2216.48
2290.2	7511.77		23.9	11.61	205.6	3	93.45	34	2	2	2202.75
2290.4	7512.42		17.18	11.41	216.6	3	92.29	37.24	2	2	2215.62
2290.6	7513.08		19.41	11.21	208.73	3	92.44	38	2	2	2250.95
2290.8	7513.74		15.94	11.01	202.27	3	93.03	38	2	2	2248.21
2291	7514.39		20.82	10.81	197.95	3	93.62	36.69	2	2	2226.21
2291.2	7515.05		21.62	10.61	196	3	94.16	32	2	2	2225.09
2291.4	7515.7		17.24	10.41	196	3	94.61	32	2	2	2268.02
2291.6	7516.36		34.12	10.29	197.82	3	95.06	32	2	2	2266.6
2291.8	7517.02		51.01	10.26	200.41	3	95.51	32	2	2	2230.39
2292	7517.67		17.37	10.06	203	3	95.96	33.11	2	2	2276.9
2292.2	7518.33		14.4	9.86	203	3	95.35	34	2	2	2277.71
2292.4	7518.98		12.38	9.66	229.13	3	94.62	34	2	2	2295.52
2292.6	7519.64		15.66	9.46	245.44	3	94.2	40	2	2	2279.04
2292.8	7520.29		17.07	9.26	223.57	3	95.53	40	2	2	2279.87
2293	7520.95		15.59	9.06	210.01	3	96.87	40	2	2	2257.25
2293.2	7521.61		17.48	8.86	205	3	97.67	40	2	2	2202.5
2293.4	7522.26		13.07	8.66	205	3	95.44	40	2	2	2182.57
2293.6	7522.92		13.28	8.46	207.36	3	93.22	32	2	2	2209.14
2293.8	7523.57		7.42	8.26	206.39	3	92.75	37.72	2	2	2208.24
2294	7524.23		45.7	8.06	188.94	3	94.42	42	2	2	2210.91
2294.2	7524.89		12.94	7.86	178.04	3	96	42	2	2	2244.39
2294.4	7525.54		14.85	7.66	193.18	3	96	40.27	2	2	2222.71
2294.6	7526.2		13.67	7.46	203.24	3	96	40	2	2	2208.07
2294.8	7526.85		14.81	7.26	200.33	3	96.22	39.05	2	2	2231.61
2295	7527.51		11.04	7.06	191.85	3	96.96	36	2	2	2175.4
2295.2	7528.16		24.55	6.86	181.57	3	97.7	37.88	2	2	2199.7
2295.4	7528.82		13.26	6.66	189.18	3	98.52	42	2	2	2225.09
2295.6	7529.48		12.32	6.46	198	3	99.39	42	2	2	2212.08
2295.8	7530.13		12.7	6.26	195.06	3	99.79	35.5	2	2	2226.29
2296	7530.79		19.43	6.07	186.68	3	99.07	34	2	2	2225.92
2296.2	7531.44		10.66	5.87	198.34	3	98.36	34	2	2	2199.12
2296.4	7532.1		17.64	5.66	197.88	3	98.74	34	2	2	2196.34
2296.6	7532.75		14.65	5.46	196	3	100.22	34	2	2	2210.17
2296.8	7533.41		19.79	5.26	196	3	101.7	34	2	2	2181.59
2297	7534.07		11.85	5.06	217.03	3	103.83	34	2	2	2244.73
2297.2	7534.72		19.25	4.86	239.89	3	106.11	34	2	2	2206.82
2297.4	7535.38		12.22	4.66	198	3	108.4	38	2	2	2224.64
2297.6	7536.03		37.34	4.46	198	3	110.21	38	2	2	2208.59
2297.8	7536.69		10.83	4.26	193.24	3	110.9	38	2	2	2240.12
2298	7537.35		17.65	4.07	177.36	3	111.59	38	2	2	2202.06
2298.2	7538		14.51	3.86	181.75	3	112.58	36.31	2	2	2218.98
2298.4	7538.66		16.7	3.66	195.16	3	114.04	34	2	2	2170.58
2298.6	7539.31		15.42	3.46	182.84	3	115.49	34	2	2	2203.73
2298.8	7539.97		13.75	3.26	191.42	3	114.27	39.46	2	2	2234.74
2299	7540.62		10.26	3.06	199.29	3	111.6	46	2	2	2174.88
2299.2	7541.28		14.73	2.86	187.88	3	112.8	44	2	2	2184.71
2299.4	7541.94		8.31	2.66	176.29	3	119.8	38.09	2	2	2181.46
2299.6	7542.59		20.52	2.46	169.77	3	122	36	2	2	2245.24
2299.8	7543.25		14.39	2.26	162.71	3	117	36	2	2	2232.52
2300	7543.9		0.89	2.06	136.85	2.86	102.95	34	2	2	2169.86
2300.2	7544.56		54.82	1.86	113.05	2.38	117.06	35.32	2	2	2182.18
2300.4	7545.21		25.49	1.66	98.23	2.04	131.18	39.1	2	2	2144.63
2300.6	7545.87		31.45	1.46	119.41	2.24	113.18	42.87	2	2	2165.2
2300.8	7546.53		10.58	29.82	140.6	2.44	87.16	44	2	2	2258.72
2301	7547.18		13.88	29.62	161.79	2.63	61.14	44	2	2	2268.19
2301.2	7547.84		6.03	29.41	182.98	2.83	35.12	44	2	2	2293.49
2301.4	7548.49		35.01	29.22	194.4	3	9.1	45.29	2	2	2247.63
2301.6	7549.15		11.28	29.02	150.23	3	29.01	50.45	2	2	2308
2301.8	7549.81		18.5	28.81	152.61	3	73.62	52	2	2	2297.92
2302	7550.46		17.12	28.61	164.1	3	116.09	50.66	2	2	2284.68
2302.2	7551.12		8.5	28.42	185.5	3	117.79	40	2	2	2283.03
2302.4	7551.77		19.01	28.22	175.5	3	119.49	40	2	2	2310.33
2302.6	7552.43		9.09	28.01	159.34	3	114.95	40	2	2	2293.42
2302.8	7553.08		57.49	27.82	181.08	3	107.74	40	2	2	2229.59
2303	7553.74		19.82	27.61	202.82	3	100.53	44.44	2	2	2189.81
2303.2	7554.4		15.55	27.42	226.51	3	97.57	48	2	2	2178.12
2303.4	7555.05		11.03	27.22	248	3	96.92	48	2	2	2215.34
2303.6	7555.71		29.63	27.02	248	3	96.26	48.78	2	2	2207.49
2303.8	7556.36		14.15	26.81	226.38	3	100.14	50	2	2	2243.3
2304	7557.02		12.46	26.62	197.41	3	107.04	50	2	2	2250.38
2304.2	7557.68		26.84	26.42	162.27	3	113.93	46.21	2	2	2224.52
