~Version Information											
VERS.                       2.00: SCHLUMBERGER LAS - Version 2.00											
WRAP.                         NO: One line per depth step											
~Well Information											
STRT.FT                1135.0000: Start Depth											
STOP.FT                2399.0000: End Depth											
STEP.FT                   0.2000:  											
											
COMP.                    Bapetco: COMPANY											
WELL.                   BED-18 M: WELL											
FLD .                        BED: FLD											
SRVC.               Schlumberger: SERVICE COMPANY											
LOC .                           : LOCATION											
DATE.                  20-Oct-19: LOG DATE											
UWI .                  19EGP0341: API NUMBER											
~Curve Information											
DEPT.FT                         : MWD Tool Measurement Depth											
MTTVD.FT                         : MWD Tool Measurement TVD											
PSPD.M/MIN                      : Instantaneous Pipe Speed											
ROP .M/HR                       : Rate of Penetration (MWD Depth Ave.)											
KPOSI.M                          : Kelly Position (Raw)											
SSS_H.                           : Stick Slip Percentage from HDS1											
SSL_H.                           : Stick Slip Level from HDS1											
RPM_H.                           : Average RPM from HDS1											
VIBC.CPS                        : Vibration Count											
VIBXYH.                           : Vibration XY											
VIBZH.                           : Vibration Z											
SPP I.PSI                        : Standpipe Pressure (Raw)											
DEPT	MTTVD	PSPD	ROP	KPOSI	SSS_H	SSL_H	RPM_H	VIBC	VIBXYH	VIBZH	SPP
M	FT	M/MIN	M/HR	M				CPS			PSI
#											
# Relog Number     0         0         0         0         0         0         0         0         0         0         0											
#											
~ASCII Data											
# ...
1901.2	6236.88		61.47	25.26	28.2	0	72	134.82	2	2.53	2115.62
1901.4	6237.53		33.79	25.07	27.4	0	72.34	134	2	3.07	2125.51
1901.6	6238.19		42.81	24.87	26.6	0	72.68	134	2	3.6	2121.92
1901.8	6238.84		26.24	24.67	25.75	0	73.02	134	2	4	2129.85
1902	6239.5		38.23	24.47	24.75	0	73.36	134	2	4	2140.87
1902.2	6240.16		40.77	24.27	23.75	0	73.69	136.06	2	4	2137.55
1902.4	6240.81		20.43	24.07	24.23	0	74.08	146.39	2	3.68	2150.18
1902.6	6241.47		49.53	23.87	29.13	0	74.9	150	2	2.96	2152.78
1902.8	6242.12		23.56	23.66	34.04	0	75.71	150	2	2.25	2176.14
1903	6242.78		25.35	23.47	36	0	76.53	150	2	2.7	2186.31
1903.2	6243.44		18.47	23.27	36	0	77.35	147.79	2	3.78	2126.94
1903.4	6244.09		22.84	23.07	32.04	0	78.09	142.28	2.74	4	2148.6
1903.6	6244.75		27.14	22.87	24.13	0	78.51	142	3.67	4	2143.91
1903.8	6245.4		26.53	22.67	17.13	0	78.94	142	4	4	2059.76
1904	6246.06		22.34	22.47	18.4	0	79.36	142	4	4	2045.15
1904.2	6246.71		30.8	22.27	19.68	0	79.79	154.58	4	4	2030.96
1904.4	6247.37		27.02	22.07	42.2	0.6	79.79	168	4	4	2045.54
1904.6	6248.03		31.04	21.87	71.8	1.4	79.38	168	4	4	2058.96
1904.8	6248.68		21.95	21.67	95.25	2.11	78.96	168	4	3.3	2058.18
1905	6249.34		23.09	21.47	100.25	2.57	78.54	168	4	2.43	2077.49
1905.2	6249.99		21.12	21.27	103.49	2.94	78.13	169.36	4	2.37	2091.56
1905.4	6250.65		24.45	21.07	73.49	1.79	77.73	170	4	3.11	2093.28
1905.6	6251.31		30.82	20.86	43.49	0.63	77.35	170	4	3.85	2094.66
1905.8	6251.96		26.3	20.66	25.38	0	76.96	160.87	3.33	3.33	2116.26
1906	6252.62		30.94	20.47	21.78	0	76.58	140	2.5	2.5	2101.67
1906.2	6253.27		30.51	20.27	18.18	0	76.19	140	2.29	2	2086.04
1906.4	6253.93		34.56	20.06	16.39	0	76.19	140.38	3.02	2	2110.03
1906.6	6254.58		28.93	19.87	14.7	0	76.56	142.29	3.75	2	2088.97
1906.8	6255.24		23.48	19.67	13	0	76.93	144	4	2	2078.7
1907	6255.9		24.89	19.47	15	0	77.31	144	4	2	2111.38
1907.2	6256.55		26.26	19.27	17	0	77.68	144	4	2	2107.58
1907.4	6257.21		29.64	19.07	18	0	78.06	144	4	2	2090.79
1907.6	6257.86		35.73	18.87	18	0	78.49	156.6	4	2	2086.54
1907.8	6258.52		21.89	18.67	18	0	78.91	170.6	4	2	2088.18
1908	6259.18		22.47	18.47	16.38	0	79.34	172	4	2	2103.67
1908.2	6259.83		23.19	18.26	14.48	0	79.77	172	4	2.04	2063.33
1908.4	6260.49		32.98	18.07	47.3	0.9	80	174.51	4	2.91	2083.9
1908.6	6261.14		20.24	17.87	91.7	2.1	80	181.69	4	3.78	2117.05
1908.8	6261.8		20.86	17.66	125	3	80	186	4	4	2104.17
1909	6262.46		37.41	17.47	125	3	80	186	4	4	2098.88
1909.2	6263.11		22.59	17.27	118.47	2.82	80	173.79	4	4	2095.23
1909.4	6263.77		24.65	17.07	74.87	1.62	79.17	168	4	4	2113.13
1909.6	6264.42		26.97	16.87	31.27	0.42	77.89	168	4	4	2079.98
1909.8	6265.08		17.2	16.67	16	0	76.62	168	4	4	2075.25
1910	6265.73		53.98	16.47	16	0	75.34	162.73	4	4	2093.16
1910.2	6266.39		25.97	16.27	16.83	0	74.06	153.95	4	3.53	2102.39
1910.4	6267.05		25.13	16.07	18.35	0	73.68	150	4	2.97	2107.85
1910.6	6267.7		56.63	15.87	19.86	0	73.35	150	4	2.42	2086.78
1910.8	6268.36		20.77	15.67	21.75	0	73.02	150	3.79	2.21	2106.54
1911	6269.01		41.97	15.46	24.77	0	72.68	150	2.94	3.06	2087.23
1911.2	6269.67		34.82	15.27	27.79	0	72.35	146.92	2.08	3.92	2064.68
1911.4	6270.33		35.16	15.07	29	0	72.02	140.77	2.53	3.47	2093.2
1911.6	6270.98		30.13	14.87	29	0	70.7	138	3.12	2.88	2104.94
1911.8	6271.64		34.39	14.67	29	0	69.33	138	3.71	2.29	2089.45
1912	6272.29		26.98	14.47	28.37	0	67.97	138	4	2.35	2088.4
1912.2	6272.95		24.95	14.27	22.1	0	66.6	138	4	3.05	2094.1
1912.4	6273.6		53.61	14.07	15.82	0	65.23	135	4	3.75	2095.23
1912.6	6274.26		30.66	13.86	14.96	0	64.31	132	3.5	3.5	2090.88
1912.8	6274.92		27.26	13.67	18.54	0	67.35	132	2.73	2.73	2097.63
1913	6275.57		22.59	13.46	22.11	0	70.39	132	2.05	2	2088.58
1913.2	6276.23		23.53	13.27	23	0	73.43	132	3.08	2	2100.53
1913.4	6276.88		21.86	13.07	23	0	76.48	150	4	2	2059.63
1913.6	6277.54		22.92	12.87	23	0	77.8	149.57	4	2	2091.61
1913.8	6278.2		30.34	12.67	23	0	77.41	146.71	4	2	2134.72
1914	6278.85		27.67	12.47	22.83	0	77.01	144	3.74	2	2065.62
1914.2	6279.51		30.44	12.27	19.5	0	76.61	144	2.89	2	2074.91
1914.4	6280.16		28.19	12.07	16.17	0	76.22	144	2.04	2	2105.89
1914.6	6280.82		26.05	11.87	15.26	0	76	144.93	2	2	2092.74
1914.8	6281.47		31.22	11.67	14.47	0	76	149.58	2	2	2154.83
1915	6282.13		19.32	11.47	15.12	0	76	154	2	2	2111.2
1915.2	6282.79		35.25	11.27	17.94	0	76	154	2	2	2076.57
1915.4	6283.44		33.4	11.06	20.75	0	76	154	2	2	2118.64
1915.6	6284.1		31.89	10.87	23.14	0	76	154	2	2	2135.72
1915.8	6284.75		27.23	10.67	23.86	0	75.2	147.33	2	2	2116
1916	6285.41		39.71	10.47	24.57	0	73.75	134	2	2	2094.39
1916.2	6286.06		23.27	10.27	24.14	0	72.29	120.66	2	2	2123.48
1916.4	6286.72		37.51	10.07	22	0	70.84	120	2	2	2071.99
1916.6	6287.38		27.82	9.87	19.86	0	69.38	114.79	2	2	2055.05
1916.8	6288.03		40.51	9.67	19.36	0	67.98	103.21	2	2	2073.85
1917	6288.69		31.48	9.47	19.97	0	67.65	98	2	2	2119.8
1917.2	6289.34		37.16	9.27	20.58	0	67.31	98	2	2	2094.1
1917.4	6290		29.29	9.07	21	0	66.97	98	2	2	2087.38
1917.6	6290.66		22.29	8.87	21	0	66.64	98	2	2	2116.54
1917.8	6291.31		29	8.67	21	0	66.3	95.08	2	2	2074.65
1918	6291.97		31.68	8.47	20.68	0	66.04	92	2	2	2112.86
1918.2	6292.62		31.31	8.27	20.32	0	66.45	92	2	2	2132.97
1918.4	6293.28		24.16	8.07	20	0	66.87	92	2	2	2092.33
1918.6	6293.93		24.91	7.87	20	0	67.28	92	2	2	2098.74
1918.8	6294.59		27.32	7.67	20	0	67.69	96	2	2	2071.64
1919	6295.25		32.21	7.47	20	0	68.36	103.27	2	2	2074.58
1919.2	6295.9		32.96	7.27	20	0	69.79	104	2	2	2103.8
1919.4	6296.56		22.92	7.07	20	0	71.21	104	2	2	2117.29
1919.6	6297.21		30.14	6.86	18.3	0	72.64	104	2	2	2100.44
1919.8	6297.87		12.53	6.67	16	0	74.02	102.32	2	2	2105.31
1920	6298.52		116.24	6.47	16	0	74.42	98	2	2	2137.85
1920.2	6299.18		25.52	6.27	16	0	74.82	98	2	2	2123.85
1920.4	6299.84		23.75	6.07	17.26	0	75.22	98	2.69	2	2097.19
1920.6	6300.49		22.64	5.86	21.47	0	75.62	98	3.51	2	2114.79
1920.8	6301.15		20.51	5.67	21.9	0	76.02	105.74	3.67	2	2126.66
1921	6301.8		30.83	5.47	16.67	0	76.41	110	2.86	2	2141.07
1921.2	6302.46		27.81	5.27	17.15	0	76.8	110	2.04	2	2112.53
1921.4	6303.12		20.4	5.07	20.09	0	77.2	119.18	2	2	2056.02
1921.6	6303.77		35.16	4.86	17.15	0	77.59	122	2	2	2042.83
1921.8	6304.43		24.23	4.67	21.64	0	77.98	120.45	2	2	2049.57
1922	6305.08		15.29	4.47	26.53	0	78.57	110.13	2	2	2095.61
1922.2	6305.74		24.75	4.27	28	0	79.16	106	3.56	2	2094.12
1922.4	6306.39		13.4	4.07	27.43	0	79.76	106	3.5	2	2085.96
1922.6	6307.05		44.82	3.87	23.64	0	79.25	108.44	2.87	2	2087.79
1922.8	6307.71		20.02	3.67	19.84	0	78	113.32	2.25	2	2117.41
1923	6308.36		35.21	3.47	17	0	76.75	116	2	2	2114.83
1923.2	6309.02		27.46	3.27	17	0	75.5	116	2	2	2124.9
1923.4	6309.67		23.88	3.07	17	0	74.25	116	2.05	2	2059.85
1923.6	6310.33		17.87	2.87	16.6	0	74.98	117.83	2.95	2	2127.62
1923.8	6310.98		31.68	2.66	16.17	0	76.2	121.17	3.86	2	2098.43
1924	6311.64		21.53	2.47	16	0	77.43	122	4	2	2068.34
1924.2	6312.3		34.79	2.26	16	0	78.65	122.94	4	2	2083.3
1924.4	6312.95		23.93	2.07	16.52	0	79.88	126.69	4	2	2113.6
1924.6	6313.61		24.34	1.87	17.18	0	78.9	128	4	2	2113.46
1924.8	6314.26		24.79	1.66	17.84	0	77.67	128	4	2	2071.24
1925	6314.92		28.61	1.47	18	0	76.45	128	4	2	2119.31
1925.2	6315.57		20.83	1.27	18	0	75.22	102.32	4	2	2082.76
1925.4	6316.23		30.38	1.07	18	0	74	110.96			2076.52
1925.6	6316.89							122.5			
1925.8	6317.54							134.04			
1926	6318.2							145.58			
1926.2	6318.85							157.12			
1926.4	6319.51							168.65			
1926.6	6320.16							180.19			
1926.8	6320.82							189.09			
1927	6321.48							183.01			
1927.2	6322.13							176.93			
1927.4	6322.79							170.86			
1927.6	6323.44							164.78			
1927.8	6324.1							158.7			
1928	6324.75							152.62			
1928.2	6325.41							146.54			
1928.4	6326.07							140.47			
1928.6	6326.72							134.39			
1928.8	6327.38							128.31			
1929	6328.03						76	122.23			
1929.2	6328.69			26.89			75.43	116.15			2166.42
1929.4	6329.34		35.83	26.69			74.29	110.08			2191.6
1929.6	6330		43.59	26.5	17	0	73.14	104	3.8	2	2164.7
1929.8	6330.66		13.01	26.29	20.5	0	72	103.79	2.47	2	2196.49
1930	6331.31		96.35	26.1	25.5	0	70.86	99.5	2	2	2155.06
1930.2	6331.97		22.99	25.89	28.43	0	70.33	98	2	2	2202.9
1930.4	6332.62		23.35	25.69	30.47	0	71.63	98	2	2	2192.7
