~Version Information
VERS.                       2.00: SCHLUMBERGER LAS - Version 2.00
WRAP.                         NO: One line per depth step
~Well Information
STRT.FT                2400.0000: Start Depth
STOP.FT                3131.0000: End Depth
STEP.FT                   0.2000:  
NULL.                    -999.25:  
COMP.                    Bapetco: COMPANY
WELL.                   BED-18 M: WELL
FLD .                        BED: FLD
SRVC.               Schlumberger: SERVICE COMPANY
LOC .                           : LOCATION
DATE.                  23-Oct-19: LOG DATE
UWI .                  19EGP0341: API NUMBER
~Curve Information
DEPT.FT                         : MWD Tool Measurement Depth
MTTVD.FT                         : MWD Tool Measurement TVD
PSPD.M/MIN                      : Instantaneous Pipe Speed
ROP .M/HR                       : Rate of Penetration (MWD Depth Ave.)
KPOSI.M                          : Kelly Position (Raw)
SSS_H.                           : Stick Slip Percentage from HDS1
SSL_H.                           : Stick Slip Level from HDS1
RPM_H.                           : Average RPM from HDS1
VIBC.CPS                        : Vibration Count
VIBXYH.                           : Vibration XY
VIBZH.                           : Vibration Z
SPP I.PSI                        : Standpipe Pressure (Raw)
#     DEPT     MTTVD      PSPD       ROP     KPOSI     SSS_H     SSL_H     RPM_H      VIBC    VIBXYH     VIBZH     SPP I
#       FT        FT     M/MIN      M/HR         M                                     CPS                           PSI
#
# Relog Number     0         0         0         0         0         0         0         0         0         0         0
#
~ASCII Data
# ...
 2735.0000   8964.37   -999.25     27.73     19.48    122.90      2.18   -999.25     15.89      2.00      2.00   1913.19
 2735.2000   8965.02   -999.25     27.58     19.27    150.83      2.68   -999.25     14.11      2.00      2.00   1900.25
 2735.4000   8965.66   -999.25     23.32     19.07    169.19      3.00   -999.25     12.32      2.00      2.00   1913.77
 2735.6000   8966.30   -999.25     19.86     18.87    169.75      3.00   -999.25     10.53      2.00      2.00   1942.08
 2735.8000   8966.94   -999.25     35.07     18.68    170.31      3.00   -999.25     11.20      2.00      2.00   1904.82
 2736.0000   8967.58   -999.25     33.48     18.48    170.86      3.00   -999.25     12.91      2.00      2.00   1873.25
 2736.2000   8968.22   -999.25     35.33     18.28    171.42      3.00   -999.25     14.63      2.00      2.00   1903.42
 2736.4000   8968.86   -999.25     33.39     18.07    171.97      3.00   -999.25     16.43      2.00      2.00   1923.50
 2736.6000   8969.50   -999.25     22.78     17.88    172.53      3.00   -999.25     18.59      2.00      2.00   1887.31
 2736.8000   8970.14   -999.25     24.61     17.67    173.08      3.00   -999.25     20.76      2.00      2.00   1917.38
 2737.0000   8970.79   -999.25     26.31     17.48    173.64      3.00   -999.25     22.92      2.00      2.00   1941.52
 2737.2000   8971.43   -999.25     35.07     17.28    174.19      3.00   -999.25     23.21      2.00      2.00   1929.22
 2737.4000   8972.07   -999.25     26.20     17.07    174.75      3.00   -999.25     21.62      2.00      2.00   1937.46
 2737.6000   8972.71   -999.25     27.54     16.88    175.31      3.00   -999.25     20.03      2.00      2.00   1926.89
 2737.8000   8973.35   -999.25     23.85     16.67    175.86      3.00   -999.25     18.45      2.00      2.00   1939.86
 2738.0000   8973.99   -999.25     34.82     16.48    174.93      3.00     96.00     16.86      2.00      2.00   1918.17
 2738.2000   8974.63   -999.25     41.72     16.27    173.50      3.00   -999.25     15.27      2.00      2.00   1908.15
 2738.4000   8975.27   -999.25     45.04     16.08    172.07      3.00   -999.25     13.94      2.00      2.00   1925.45
 2738.6000   8975.91   -999.25     45.87     15.88    170.64      3.00   -999.25     13.63      2.00      2.00   1925.20
 2738.8000   8976.55   -999.25     43.84     15.68    169.21      3.00   -999.25     13.32      2.00      2.00   1924.71
 2739.0000   8977.19   -999.25     15.44     15.47    167.79      3.00   -999.25     13.01      2.00      2.00   1950.43
 2739.2000   8977.83   -999.25     33.40     15.27    166.36      3.00   -999.25     12.70      2.00      2.00   1907.66
 2739.4000   8978.47   -999.25     21.52     15.08    166.33      3.00   -999.25     12.39      2.00      2.00   1890.66
 2739.6000   8979.12   -999.25     30.34     14.87    166.78      3.00   -999.25     12.08      2.00      2.00   1961.07
 2739.8000   8979.76   -999.25     53.81     14.67    167.22      3.00   -999.25     12.31      2.00      2.00   1939.82
 2740.0000   8980.40   -999.25     28.12     14.47    167.67      3.00   -999.25     12.73      2.00      2.00   1912.03
 2740.2000   8981.04   -999.25     43.95     14.28    168.11      3.00   -999.25     13.15      2.00      2.00   1951.94
 2740.4000   8981.68   -999.25     51.03     14.07    168.56      3.00   -999.25     13.56      2.00      2.00   1981.43
 2740.6000   8982.32   -999.25     40.54     13.87    169.00      3.00   -999.25     13.98      2.00      2.00   1957.81
 2740.8000   8982.96   -999.25     55.78     13.67    169.44      3.00   -999.25     17.20      2.00      2.00   1948.23
 2741.0000   8983.60   -999.25     60.28     13.48    169.89      3.00   -999.25     20.58      2.00      2.00   1904.71
 2741.2000   8984.24   -999.25     44.22     13.28    170.33      3.00   -999.25     23.95      2.00      2.00   1940.92
 2741.4000   8984.88   -999.25     47.04     13.08    170.78      3.00   -999.25     27.33      2.00      2.00   1958.65
 2741.6000   8985.52   -999.25     33.97     12.88    171.22      3.00   -999.25     26.20      2.00      2.00   1944.87
 2741.8000   8986.16   -999.25      8.68     12.68    171.67      3.00   -999.25     23.94      2.00      2.00   1944.01
 2742.0000   8986.80   -999.25     12.05     12.47    172.56      3.00    112.07     21.69      2.00      2.00   1924.01
 2742.2000   8987.44   -999.25     15.72     12.28    174.82      3.00    112.77     19.52      2.00      2.00   1953.67
 2742.4000   8988.08   -999.25     15.03     12.08    177.08      3.00    113.47     17.58      2.00      2.00   1907.84
 2742.6000   8988.72   -999.25     12.43     11.88    179.11      3.00    114.18     15.65      2.00      2.00   1892.28
 2742.8000   8989.36   -999.25     19.34     11.67    179.82      3.00    114.88     14.50      2.00      2.00   1979.60
 2743.0000   8990.00   -999.25     16.41     11.48    180.54      3.00    115.58     17.83      2.00      2.00   1971.81
 2743.2000   8990.65   -999.25     19.34     11.28    181.25      3.00    116.28     21.17      2.00      2.00   1964.92
 2743.4000   8991.29   -999.25     29.88     11.07    181.96      3.00    116.98     19.69      2.00      2.00   1905.10
 2743.6000   8991.93   -999.25     27.12     10.88    182.68      3.00    117.68     16.61      2.00      2.00   1968.15
 2743.8000   8992.57   -999.25     25.46     10.67    183.39      3.00    118.39     13.54      2.00      2.00   1974.39
 2744.0000   8993.21   -999.25     27.54     10.47    184.11      3.00    119.09     12.00      2.00      2.00   1928.47
 2744.2000   8993.85   -999.25     16.47     10.28    184.82      3.00    119.79     12.00      2.00      2.00   1959.03
 2744.4000   8994.49   -999.25     50.77     10.08    185.54      3.00    120.49     12.00      2.00      2.00   1968.22
 2744.6000   8995.13   -999.25     45.21      9.87    186.25      3.00    121.19     12.00      2.00      2.00   1900.41
 2744.8000   8995.77   -999.25     49.28      9.68    186.96      3.00    121.89     12.00      2.00      2.00   1948.99
 2745.0000   8996.41   -999.25     24.43      9.48    179.09      3.00    121.60     13.35      2.00      2.00   1937.77
 2745.2000   8997.05   -999.25     22.06      9.28    170.75      3.00    121.14     16.06      2.00      2.00   1941.19
 2745.4000   8997.69   -999.25     11.74      9.08    162.42      3.00    120.67     18.76      2.00      2.00   1968.28
 2745.6000   8998.33   -999.25     10.96      8.87    157.00      3.00    120.21     21.46      2.00      2.00   1946.58
 2745.8000   8998.97   -999.25     10.56      8.68    157.00      3.00    119.74     22.00      2.00      2.00   1920.78
 2746.0000   8999.61   -999.25      8.66      8.47    157.00      3.00    119.28     26.29      2.00      2.00   1924.97
 2746.2000   9000.25   -999.25     11.74      8.28    157.00      3.00    118.81     29.35      2.00      2.00   1936.94
 2746.4000   9000.89   -999.25     12.04      8.07    157.00      3.00    118.35     27.51      2.00      2.00   1968.04
 2746.6000   9001.53   -999.25     15.07      7.88    158.38      3.00    118.32     25.66      2.00      2.00   1932.62
 2746.8000   9002.17   -999.25     14.35      7.67    161.84      3.00    119.58     24.00      2.00      2.00   2008.66
 2747.0000   9002.81   -999.25     22.52      7.48    165.30      3.00    120.84     24.00      2.00      2.00   1974.37
 2747.2000   9003.45   -999.25     14.35      7.27    168.75      3.00    122.11     24.00      2.00      2.00   1950.72
 2747.4000   9004.09   -999.25     31.24      7.08    170.22      3.00    123.37     24.00      2.00      2.00   1964.46
 2747.6000   9004.73   -999.25     24.79      6.88    168.00      3.00    124.63     24.00      2.00      2.00   1967.96
 2747.8000   9005.37   -999.25     12.87      6.67    165.78      3.00    125.89     24.00      2.00      2.00   1956.84
 2748.0000   9006.01   -999.25     10.46      6.48    163.56      3.00    127.16     24.50      2.00      2.00   1963.57
 2748.2000   9006.65   -999.25     12.78      6.28    161.33      3.00    128.42     25.93      2.00      2.00   1937.55
