~Version Information											
VERS.                       2.00: SCHLUMBERGER LAS - Version 2.00											
WRAP.                         NO: One line per depth step											
~Well Information											
STRT.FT                1135.0000: Start Depth											
STOP.FT                2399.0000: End Depth											
STEP.FT                   0.2000:  											
											
COMP.                    Bapetco: COMPANY											
WELL.                   BED-18 M: WELL											
FLD .                        BED: FLD											
SRVC.               Schlumberger: SERVICE COMPANY											
LOC .                           : LOCATION											
DATE.                  20-Oct-19: LOG DATE											
UWI .                  19EGP0341: API NUMBER											
~Curve Information											
DEPT.FT                         : MWD Tool Measurement Depth											
MTTVD.FT                         : MWD Tool Measurement TVD											
PSPD.M/MIN                      : Instantaneous Pipe Speed											
ROP .M/HR                       : Rate of Penetration (MWD Depth Ave.)											
KPOSI.M                          : Kelly Position (Raw)											
SSS_H.                           : Stick Slip Percentage from HDS1											
SSL_H.                           : Stick Slip Level from HDS1											
RPM_H.                           : Average RPM from HDS1											
VIBC.CPS                        : Vibration Count											
VIBXYH.                           : Vibration XY											
VIBZH.                           : Vibration Z											
SPP I.PSI                        : Standpipe Pressure (Raw)											
DEPT	MTTVD	PSPD	ROP	KPOSI	SSS_H	SSL_H	RPM_H	VIBC	VIBXYH	VIBZH	SPP
M	FT	M/MIN	M/HR	M				CPS			PSI
#											
# Relog Number     0         0         0         0         0         0         0         0         0         0         0											
#											
~ASCII Data											
# ...
1450.2	4757.52		85.42	14.36	77.31	1.59	116	36	2	2	2355.11
1450.4	4758.18		94.15	14.17	84.45	1.73	116	50.57	2	2	2300.51
1450.6	4758.83		92.11	13.97	91.58	1.87	116	67.71	2	2	2301.06
1450.8	4759.49		35.14	13.77	97.5	1.99	116	84.86	2	2.17	2324.86
1451	4760.15		80.18	13.57	92.5	1.86	114.98	102	2	2.44	2299.47
1451.2	4760.8		72.74	13.37	87.5	1.72	113.53	111.04	2	2.72	2381.81
1451.4	4761.46		98.11	13.17	82.5	1.59	112.07	101.16	2	3	2325.39
1451.6	4762.11		115.94	12.97	77.5	1.46	110.62	91.29	2	3.28	2359.39
1451.8	4762.77		94.24	12.77	72.5	1.33	109.16	81.42	2	3.56	2318.35
1452	4763.43		95.64	12.56	67.5	1.2	107.71	71.54	2	3.83	2334.78
1452.2	4764.08		58.29	12.37	62.5	1.07	106.25	61.67	2	2	2353.87
1452.4	4764.74		11.45	12.17	61.94	1.07	104.8	51.8	2	2	2345.72
1452.6	4765.39		83.94	11.97	65.83	1.22	104.61	41.92	2	2	2379.22
1452.8	4766.05		77.25	11.77	69.71	1.36	105.98	36	2	2	2407.45
1453	4766.71		79.05	11.57	73.6	1.5	107.34	36	2	2	2387.42
1453.2	4767.36		83.25	11.36	77.48	1.65	108.7	36	2	2	2365.45
1453.4	4768.02		82.13	11.17	81.37	1.79	110.07	36	2	2	2399.46
1453.6	4768.67		80.37	10.97	85.25	1.94	111.43	36	2	2	2355.98
1453.8	4769.33		40.81	10.77	80.17	1.81	112.8	36	2	2	2413.57
1454	4769.99		475.89	10.57	67.76	1.47	114.16	38.23	2	2	2414.32
1454.2	4770.64		910.77	10.37	55.35	1.12	115.52	41.02	2	2	2335.67
1454.4	4771.3		12.76	10.17	51	1	116.09	42	2	2	2225.68
1454.6	4771.95		58.26	9.97	51	1	116.24	42	2	2	2184.58
1454.8	4772.61		81.68	9.77	51	1	116.38	40.85	2	2	2198.72
1455	4773.27		124.58	9.57	51	1	116.52	37.55	2	2	2249.36
1455.2	4773.92		101.32	9.37	51	1	116.66	34.26	2	2	2187.51
1455.4	4774.58		41.5	9.16	51	1	116.81	30.96	2	2.14	2283.65
1455.6	4775.23		76.17	8.97	48.9	0.88	116.95	28	2	2.44	2298.26
1455.8	4775.89		91.13	8.77	46.27	0.74	117.09	28	2	2.75	2400.66
1456	4776.55		98.38	8.57	43.64	0.59	117.24	28	2	3.05	2328.07
1456.2	4777.2		48.66	8.37	41.01	0.45	117.38	28	2	3.36	2342.4
1456.4	4777.86		74.14	8.17	38.39	0.3	117.52	28	2	3.66	2349.01
1456.6	4778.51		103.08	7.96	35.76	0.15	117.66	28	2	3.97	2368.33
1456.8	4779.17		75.3	7.77	33.13	0.01	117.81	28	2	4	2353.49
1457	4779.83		85.89	7.57	34.64	0.13	117.95	28	2	4	2350.83
1457.2	4780.48		76.71	7.37	36.36	0.26	118	30.26	2	4	2320.33
1457.4	4781.14		61.96	7.17	38.08	0.39	118	34.77	2	4	2356.65
1457.6	4781.79		78.18	6.97	39.8	0.52	118	39.29	2	4	2308.46
1457.8	4782.45		79.59	6.76	41.52	0.66	118	43.81	2	4	2348.85
1458	4783.11		61.49	6.57	43.25	0.79	118	48.32	2	4	2327.38
1458.2	4783.76		82.89	6.37	44.97	0.92	118	52.84	2	3.88	2312.07
1458.4	4784.42		79.74	6.17	46	1	118	56	2	3.59	2373.17
1458.6	4785.07		80.37	5.97	46	1	118	56	2	3.3	2365.87
1458.8	4785.73		82.03	5.77	46	1	118	56	2	3.01	2298.24
1459	4786.39		72.16	5.57	46	1	118	56	2	2.72	2334.4
1459.2	4787.04		77.54	5.37	46	1	118	56	2	2.42	2327.56
1459.4	4787.7		77.26	5.16	46	1	118	56	2	2.13	2362.71
1459.6	4788.35		75.49	4.96	46	1	118	56	2	2	2326.47
1459.8	4789.01		78.96	4.77	46.56	1	118	56	2	2	2367.06
1460	4789.67		94.32	4.57	47.49	1	118	56	2	2	2315.28
1460.2	4790.32		90.2	4.37	48.42	1		58.73	2	2	2313.8
1460.4	4790.98		86.08	4.17	49.35	1		64.18	2	2	2312.23
1460.6	4791.63		84.67	3.96	50.28	1		69.64	2	2	2344.01
1460.8	4792.29		81.74	3.77	51.21	1		75.09	2	2	2351.26
1461	4792.95		83.84	3.57	52.14	1		80.54	2	2	2376.64
1461.2	4793.6		81.01	3.37	53.07	1		86	2	2.01	2335.97
1461.4	4794.26		81.35	3.17	54	1		91.45	2	2.3	2324.41
1461.6	4794.91		81.64	2.97	52.87	1		92	2	2.58	2332.58
1461.8	4795.57		83.55	2.77	51.75	1		92	2	2.86	2333.19
1462	4796.23		82.42	2.57	50.62	1		92	2	3.14	2358.91
1462.2	4796.88		77.29	2.37	49.49	1		92	2	3.42	2318.01
1462.4	4797.54		79.79	2.17	48.37	1			2	3.7	2342.64
1462.6	4798.19		82.42	1.97	47.24	1			2	3.99	2284.76
1462.8	4798.85		84.48	1.77	46.11	1					2341.26
1463	4799.51		80.96	1.57			118				2316
1463.2	4800.16		77.1	1.37							2311.79
1463.4	4800.82		4.72	29.8							2178.71
1463.6	4801.47		25.5	29.61							2246.03
1463.8	4802.13		52.37	29.4							2286.15
1464	4802.79		95.8	29.2							2276.02
1464.2	4803.44		56.08	29							2269.94
1464.4	4804.1		57.86	28.81							2241.16
1464.6	4804.75		49.92	28.6							2276.77
1464.8	4805.41		43.97	28.41							2268.82
1465	4806.07		81.74	28.21							2287.62
1465.2	4806.72		62.52	28.01				38			2266.85
1465.4	4807.38		82.23	27.8				40.46			2257.9
1465.6	4808.03		84.67	27.6				44.56			2253.45
1465.8	4808.69		70.44	27.41				48.65			2263.96
1466	4809.35		74.17	27.2				52.75			2259.06
1466.2	4810		79.89	27.01				56.85			2249.66
1466.4	4810.66		77.05	26.81				60.95			2282.54
1466.6	4811.31		84.48	26.61				65.04			2248.64
1466.8	4811.97		88.55	26.4				69.14			2227.26
1467	4812.63		85.64	26.2				73.24			2324.42
1467.2	4813.28		86.68	26.01				77.34			2265.4
1467.4	4813.94		83.5	25.8				80			2297.21
1467.6	4814.59		65.56	25.61				80			2289.42
1467.8	4815.25		64	25.41				80	2	4	2255.61
1468	4815.91		69.13	25.2	59	1		80	2	3.8	2288.14
1468.2	4816.56		64.8	25	57.2	1	118	80	2	3.52	2268.92
1468.4	4817.22		68.71	24.8	55.2	1	118	78.11	2	3.25	2267.06
1468.6	4817.87		67.72	24.61	53.2	1	118	72.7	2	2.98	2325.05
1468.8	4818.53		66.09	24.41	51.2	1	118	67.3	2	2.71	2312.1
1469	4819.19		72.99	24.2	49.2	1	118	61.89	2	2.44	2273.75
1469.2	4819.84		95.03	24.01	47.2	1	118	56.48	2	2.16	2287.64
1469.4	4820.5		90.42	23.8	45.2	1	118	51.08	2	2	2241.95
1469.6	4821.15		78.22	23.6	43.06	0.93	118	50	2	2	2276.73
1469.8	4821.81		48.53	23.41	40.71	0.76	118	50	2	2	2269.35
1470	4822.47		67.19	23.2	38.35	0.6	118	50	2	2	2297.89
1470.2	4823.12		68.51	23.01	36	0.43	118	50	2	2	2280.84
1470.4	4823.78		78.96	22.8	33.65	0.26	118	50	2	2	2300.08
1470.6	4824.43		81.3	22.61	31.29	0.09	118	50	2	2.1	2317.48
1470.8	4825.09		76.12	22.4	29.83	0	118	50	2	2.36	2282
1471	4825.75		75.32	22.2	29.44	0	118	50	2	2.62	2275.57
1471.2	4826.4		72.77	22	29.05	0	118	48.94	2	2.88	2331.74
1471.4	4827.06		72.6	21.81	28.66	0	118	47.62	2	3.14	2311.54
1471.6	4827.71		78.22	21.61	28.28	0	118	46.3	2	3.39	2288.1
1471.8	4828.37		75.83	21.4	27.89	0	118	44.98	2	3.65	2316.3
1472	4829.03		77.96	21.21	27.5	0	118	43.65	2	3.91	2285.54
1472.2	4829.68		77.98	21.01	27.12	0	118	42.33	2	3.78	2280.07
1472.4	4830.34		75.59	20.8	26.52	0	118	42	2	3.43	2283.4
1472.6	4830.99		73.19	20.61	25.84	0	118	42	2	3.09	2346.44
1472.8	4831.65		67.72	20.4	25.15	0	118	42	2	2.74	2295.43
1473	4832.31		62.04	20.2	24.47	0	118	41.8	2	2.4	2271.41
1473.2	4832.96		53.84	20.01	23.79	0	118	40.8	2	2.05	2296.62
1473.4	4833.62		78.03	19.81	23.1	0	118	39.8	2	2.23	2256.29
1473.6	4834.27		85.84	19.6	26.03	0.12	118	38.8	2	2.51	2288.34
1473.8	4834.93		79.69	19.41	29.59	0.25	118	38	2	2.78	2319.45
1474	4835.59		57.79	19.21	33.15	0.39	118	38	2	3.05	2333.91
1474.2	4836.24		67.81	19.01	36.71	0.53	118	38	2	3.33	2309.3
1474.4	4836.9		70.47	18.8	40.27	0.66	118	38	2	3.6	2340.04
1474.6	4837.55		69.13	18.6	43.84	0.8	118	38	2	3.88	2346.57
1474.8	4838.21		75.54	18.4	47.4	0.94	118	38	2	4	2299.23
1475	4838.87		74.41	18.21	47.26	0.91	118	38	2	4	2371.7
1475.2	4839.52		79.15	18	44.09	0.74	118	38	2	4	2390.43
1475.4	4840.18		71.94	17.8	40.92	0.57	118	38	2	4	2350.53
1475.6	4840.83		66.88	17.61	37.76	0.41	118	38	2	4	2376.69
1475.8	4841.49		65.56	17.41	34.59	0.24	118	48.71	2	4	2341.53
1476	4842.15		64.12	17.2	31.42	0.07	118	61.32	2	4	2361.1
1476.2	4842.8		63.76	17	29.48	0	118	73.92	2	4	2342.59
1476.4	4843.46		63.76	16.8	28.54	0	118.09	84	2	4	2327.17
1476.6	4844.11		58.63	16.6	27.59	0	118.25	84	2	4	2376.18
1476.8	4844.77		61.12	16.41	26.65	0	118.41	84	2	4	2341.99
1477	4845.43		63.76	16.21	25.7	0	118.57	84	2	4	2284.62
1477.2	4846.08		61.93	16.01	24.76	0	118.74	84	2	4	2269.97
1477.4	4846.74		68.73	15.8	24.61	0.03	118.9	84	2	4	2253.76
1477.6	4847.39		69.59	15.6	27.63	0.2	119.06	84	2	4	2277.9
1477.8	4848.05		67.36	15.41	30.66	0.37	119.22	84	2	4	2201.57
1478	4848.71		72.41	15.2	33.68	0.54	119.38	84	2	4	2219.72
1478.2	4849.36		72.33	15.01	36.71	0.71	119.55	80.24	2	4	2238.42
1478.4	4850.02		63.94	14.8	39.73	0.87	119.71	73.39	2	3.98	2178.62
1478.6	4850.67		65.04	14.6	43.02	1	119.87	66.55	2	3.68	2236.83
1478.8	4851.33		68.73	14.4	47.11	1	119.97	59.71	2	3.37	2192.22
1479	4851.99		75.72	14.21	51.2	1	119.81	58	2	3.06	2180.45
