~Version Information											
VERS.                       2.00: SCHLUMBERGER LAS - Version 2.00											
WRAP.                         NO: One line per depth step											
~Well Information											
STRT.FT                1135.0000: Start Depth											
STOP.FT                2399.0000: End Depth											
STEP.FT                   0.2000:  											
											
COMP.                    Bapetco: COMPANY											
WELL.                   BED-18 M: WELL											
FLD .                        BED: FLD											
SRVC.               Schlumberger: SERVICE COMPANY											
LOC .                           : LOCATION											
DATE.                  20-Oct-19: LOG DATE											
UWI .                  19EGP0341: API NUMBER											
~Curve Information											
DEPT.FT                         : MWD Tool Measurement Depth											
MTTVD.FT                         : MWD Tool Measurement TVD											
PSPD.M/MIN                      : Instantaneous Pipe Speed											
ROP .M/HR                       : Rate of Penetration (MWD Depth Ave.)											
KPOSI.M                          : Kelly Position (Raw)											
SSS_H.                           : Stick Slip Percentage from HDS1											
SSL_H.                           : Stick Slip Level from HDS1											
RPM_H.                           : Average RPM from HDS1											
VIBC.CPS                        : Vibration Count											
VIBXYH.                           : Vibration XY											
VIBZH.                           : Vibration Z											
SPP I.PSI                        : Standpipe Pressure (Raw)											
DEPT	MTTVD	PSPD	ROP	KPOSI	SSS_H	SSL_H	RPM_H	VIBC	VIBXYH	VIBZH	SPP
M	FT	M/MIN	M/HR	M				CPS			PSI
#											
# Relog Number     0         0         0         0         0         0         0         0         0         0         0											
#											
~ASCII Data											
1135	3723.64										
1135.2	3724.3										
1135.4	3724.95										
1135.6	3725.61										
1135.8	3726.27							32			
1136	3726.92							52.41			
1136.2	3727.58							77.92			
1136.4	3728.24							103.42			
1136.6	3728.89							128.93			
1136.8	3729.55							154.44			
1137	3730.2			11.45				179.94			1339.1
1137.2	3730.86		138.51	11.29				205.45			1318.63
1137.4	3731.52		186.21	11.09				230.95			1307.57
1137.6	3732.17		166.88	10.89				256.46			1311.92
1137.8	3732.83		168.42	10.69				281.97	13	9.5	1313.37
1138	3733.48		156.18	10.5				265.84	13.38	9.5	1274.11
1138.2	3734.14		155.98	10.3	111	3		198.79	13.91	9.5	1302.66
1138.4	3734.8		44.78	10.09	103.89	2.75		131.75	14.45	9.5	1268.07
1138.6	3735.45		34.37	9.9	95	2.43		64.7	14.98	9.5	1243.36
1138.8	3736.11		46.23	9.69	86.11	2.11		45.2	15.52	9.5	1299.31
1139	3736.76		32.96	9.49	83	2	422	30.97	16.05	9.5	1332.79
1139.2	3737.42		38.57	9.3	83	2	421.69	67.25	16.59	9.5	1281.37
1139.4	3738.08		38.06	9.1	83	2	421.39	130.69	17.12	9.5	1279.06
1139.6	3738.73		26.52	8.89	84.29	2.05	421.08	194.13	16.18	9.14	1332.78
1139.8	3739.39		53.35	8.69	92.91	2.35	420.78	171.67	11.78	7.94	1280.48
1140	3740.04		19.67	8.49	101.52	2.66	420.47	120.56	7.38	6.74	1282.17
1140.2	3740.7		74.89	8.3	110.14	2.97	420.17	69.44	6.5	6.5	1261.14
1140.4	3741.36		25.7	8.1	111	3	420	31.8	6.5	6.5	1240.41
1140.6	3742.01		50.57	7.89	111	3	420	70.47	6.5	6.5	1277.04
1140.8	3742.67		42.11	7.69	111	3	420	109.14	6.5	6.5	1293.33
1141	3743.32		27.25	7.5	111	3	420	136.97	6.5	6.5	1218.1
1141.2	3743.98		65.59	7.29	111	3	420	103.44	6.5	6.5	1318.17
1141.4	3744.64		40.29	7.1	111	3	420	69.91	6.5	6.5	1268.67
1141.6	3745.29		12.3	6.9	111	3	420.02	36.39	6.5	6.5	1270.35
1141.8	3745.95		63.39	6.69	111	3	420.39	137.21	6.5	6.5	1306.53
1142	3746.6		33.4	6.49	111	3	420.76	282.84	6.5	6.5	1219.07
1142.2	3747.26		32.9	6.29	111	3	421.13	247.1	6.5	6.5	1230.4
1142.4	3747.92		32.63	6.09	111	3	421.5	165.95	6.5	6.5	1228.64
1142.6	3748.57		39.7	5.9	111	3	421.87	84.8	6.5	6.5	1248.39
1142.8	3749.23		21.41	5.69	111	3	421.78	31.31	6.5	6.5	1255.47
1143	3749.89		33.28	5.49	111	3	421.45	42.35	6.5	6.5	1283.61
1143.2	3750.54		52.26	5.29	111	3	421.12	53.38	6.5	6.5	1276.58
1143.4	3751.2		46.47	5.1	111	3	420.78	56.18	6.5	6.5	1277.22
1143.6	3751.85		44.41	4.89	111	3	420.45	46.63	6.5	6.5	1246.89
1143.8	3752.51		19.63	4.7	111	3	420.12	37.07	6.5	6.5	1231.53
1144	3753.17		25.15	4.5	111	3	420.21	35.26	6.5	6.5	1261.39
1144.2	3753.82		30.02	4.3	111	3	420.52	180.42	6.5	6.5	1284.78
1144.4	3754.48		16.78	4.1	111	3	420.84	262.7	6.5	6.5	1251.63
1144.6	3755.13		51.13	3.89	111	3	421.16	198.4	6.5	6.5	1220.44
1144.8	3755.79		43.32	3.7	111	3	421.48	134.1	6.5	6.5	1188.68
1145	3756.45		51.01	3.5	111	3	421.79	69.8	6.99	6.09	1275.53
1145.2	3757.1		46.14	3.29	111	3	421.91	57.23	7.75	5.46	1182.62
1145.4	3757.76		32.58	3.1	111	3	421.66	140.75	8.51	4.82	1241.02
1145.6	3758.41		35.71	2.89	111	3	421.41	224.28	9.27	4.19	1230.89
1145.8	3759.07		44.88	2.69	111	3	421.16	307.8	9	4.42	1266.16
1146	3759.73		51.54	2.49	111	3	420.91	253.99	8.29	5.01	1241.98
1146.2	3760.38		46.22	2.3	111	3	420.65	192.91	7.57	5.61	1246.35
1146.4	3761.04		52.13	2.09	111	3	420.4	131.83	6.86	6.2	1229.01
1146.6	3761.69		38.07	1.9	111	3	420.15	70.75	6.5	6.5	1227.74
1146.8	3762.35		39.79	1.69	111	3	405.29	49	6.5	6.5	1260.66
1147	3763.01		40.19	1.5	111	3	368.53	119	6.5	6.5	1219.76
1147.2	3763.66		25.15	1.3	111	3	331.78	189	6.5	6.5	1259.9
1147.4	3764.32		16.72	5.86	105.57	2.81	295.02	144.01	6.11	6.11	1202.89
1147.6	3764.97		8.3	29.51	90.08	2.27	258.26	49.74	5.23	5.23	1348.86
1147.8	3765.63		53.63	29.31	74.58	1.73	221.51	12	4.36	4.36	1352.65
1148	3766.29		46.88	29.1	59.09	1.19	184.75	12	3.49	3.49	1342.38
1148.2	3766.94		44.63	28.91	43.59	0.65	147.99	12	2.61	2.61	1357.33
1148.4	3767.6		36.89	28.71	28.09	0.11	111.23	12	2	2	1329.56
1148.6	3768.25		32.77	28.51	25	0	80.04	11.93	2	2	1336.52
1148.8	3768.91		31.6	28.31	25	0	80.29	10.58	2	2	1342.94
1149	3769.57		48.19	28.11	25	0	80.55	9.22	2	2	1356.4
1149.2	3770.22		39.89	27.91	25.26	0	80.8	8	2	2	1320.54
1149.4	3770.88		38.74	27.71	27.86	0	81.06	8	2	2	1325.41
1149.6	3771.53		34.94	27.51	30.45	0	81.31	8	2	2	1319.77
1149.8	3772.19		46.58	27.31	33.05	0	81.57	8	2	2	1349.71
1150	3772.85		71.94	27.11	35	0	81.82	8	2	2	1313.1
1150.2	3773.5		52.67	26.91	35	0	82	8.32	2	2	1342.66
1150.4	3774.16		33.28	26.7	35	0	82	8.9	2	2	1372.81
1150.6	3774.81		40.19	26.51	35	0	82	9.48	2	2	1349.39
1150.8	3775.47		38.76	26.31	34.38	0	82	10	2	2	1355.66
1151	3776.13		40.64	26.11	30.21	0	82	10	2	2	1318.42
1151.2	3776.78		45.48	25.9	26.04	0	82	10	2	2	1375.78
1151.4	3777.44		40.55	25.71	21.87	0	82	11.58	2	2	1364.45
1151.6	3778.09		40.21	25.51	19.48	0	82	13.25	2	2	1380.27
1151.8	3778.75		40.89	25.3	18.54	0	82	14	2	2	1376.24
1152	3779.41		39.01	25.11	17.6	0	82	14	2	2	1382.29
1152.2	3780.06		40.43	24.91	16.66	0	82	14	2	2	1328.1
1152.4	3780.72		46.79	24.7	15.84	0	82	14	2	2	1354.09
1152.6	3781.38		42.06	24.5	15.3	0	82	14	2	2	1321.02
1152.8	3782.03		41.8	24.3	14.76	0	82	14	2	2	1346.15
1153	3782.69		40.89	24.11	14.22	0	82	14	2	2	1314.4
1153.2	3783.34		39.72	23.9	14	0	82	14	2	2	1348.78
1153.4	3784		40.19	23.71	14	0	82	14	2	2	1363.08
1153.6	3784.66		45.07	23.51	14	0	82	14	2	2	1350.97
1153.8	3785.31		40.33	23.31	14	0	82	14	2	2	1400.56
1154	3785.97		38.63	23.11	14	0	82	14	2	2	1554.67
1154.2	3786.62		39.01	22.91	14	0	82	14	2	2	1593.53
1154.4	3787.28		46.93	22.71	14	0	82	14.46	2	2	1563.3
1154.6	3787.94		52.14	22.51	14	0	82	15.77	2	2	1548.39
1154.8	3788.59		56.15	22.31	14.52	0	82	17.08	2	2	1568.35
1155	3789.25		77.52	22.11	15.69	0	83.6	18	2	2	1566.93
1155.2	3789.9		73.18	21.9	16.85	0	85.72	18	2	2	1562.53
1155.4	3790.56		33.66	21.71	18.02	0	87.85	18	2	2	1541.06
1155.6	3791.22		46.52	21.51	19.18	0	89.98	18	2	2	1557.06
1155.8	3791.87		43.2	21.31	19.86	0	92.11	18	2	2	1548.58
1156	3792.53		49.34	21.11	19.39	0	94.23	18	2	2	1529.91
1156.2	3793.18		39.35	20.91	18.92	0	96.36	18	2	2	1569.65
1156.4	3793.84		66.36	20.71	18.45	0	98.49	18	2	2	1568.65
1156.6	3794.5		54.32	20.5	17.91	0	100.62	18	2	2	1516.98
1156.8	3795.15		44.14	20.31	16.12	0	102	18	2	2	1549.62
1157	3795.81		49.8	20.11	14.34	0	102	18	2	2	1550.65
1157.2	3796.46		76.32	19.91	12.55	0	102	18	2	2	1595.06
1157.4	3797.12		63.5	19.71	10.77	0	102	18	2	2	1553.15
1157.6	3797.78		54.15	19.51	8.98	0	102	18	2	2	1557.28
1157.8	3798.43		57.33	19.31	8.16	0	102	18	2	2	1584.94
1158	3799.09		55.77	19.11	8.53	0	102	18	2	2	1563.88
1158.2	3799.74		55.21	18.91	8.89	0	102	18	2	2	1529.91
1158.4	3800.4		60.48	18.71	9.25	0	102	18.26	2	2	1522.88
1158.6	3801.06		68.31	18.51	9.62	0	102	18.85	2	2	1534.14
1158.8	3801.71		78.47	18.31	9.98	0	102	19.44	2	2	1506.28
1159	3802.37		57.8	18.11	10	0	102	20	2	2	1587.44
1159.2	3803.02		63.44	17.91	10	0	102	20	2	2	1580.52
1159.4	3803.68		46.09	17.71	10	0	102	20	2	2	1589.06
1159.6	3804.34		48.22	17.51	10	0	102	20	2	2	1505.86
1159.8	3804.99		52.26	17.31	10	0	102	20	2	2	1541.56
1160	3805.65		56.39	17.11	9.88	0	102	20.37	2	2	1580.29
1160.2	3806.3		65.4	16.91	9.68	0	102	21.3	2	2	1534.52
1160.4	3806.96		72.95	16.71	9.49	0	102	22	2	2	1549.94
1160.6	3807.62		58.63	16.5	9.29	0	102	22	2	2	1554.62
1160.8	3808.27		47.14	16.31	9.09	0	102	22	2	2	1555.12
1161	3808.93		49.28	16.11	10.54	0	102	22	2	2	1568.61
1161.2	3809.58		50.69	15.91	13.35	0	102	21.86	2	2	1582.3
1161.4	3810.24		56.5	15.71	16.16	0	102	20.5	2	2	1594.86
1161.6	3810.9		71.92	15.5	18.96	0	102	19.14	2	2	1596.11
1161.8	3811.55		50.99	15.31	21.77	0	102	17.77	2	2	1567.21
1162	3812.21		59.95	15.1	24.58	0	102	16.41	2	2	1560.21
1162.2	3812.86		63.24	14.91	25.3	0	102	16	2	2	1553.85
1162.4	3813.52		60.79	14.71	25.65	0	102	16	2	2	1519.6
1162.6	3814.18		60.84	14.51	26.01	0	102	16	2	2	1539.98
1162.8	3814.83		68.12	14.31	26.36	0	102	16	2	2	1541.98
1163	3815.49		69.96	14.11	26.72	0	102	16	2	2	1526.04
1163.2	3816.15		62.26	13.91	30	0.12	102	16	2	2	1547.27
1163.4	3816.8		58.12	13.71	45	0.69	101.89	16.4	2	2	1572.05
1163.6	3817.46		43.14	13.51	60	1.27	101.51	17.75	2	2	1568.07
1163.8	3818.11		47.96	13.31	75	1.85	101.13	19.1	2	2	1597.44
1164	3818.77		63.4	13.1	90	2.42	100.75	20.45	2	2	1577.86
