~Version Information
VERS.                       2.00: SCHLUMBERGER LAS - Version 2.00
WRAP.                         NO: One line per depth step
~Well Information
STRT.FT                2400.0000: Start Depth
STOP.FT                3131.0000: End Depth
STEP.FT                   0.2000:  
NULL.                    -999.25:  
COMP.                    Bapetco: COMPANY
WELL.                   BED-18 M: WELL
FLD .                        BED: FLD
SRVC.               Schlumberger: SERVICE COMPANY
LOC .                           : LOCATION
DATE.                  23-Oct-19: LOG DATE
UWI .                  19EGP0341: API NUMBER
~Curve Information
DEPT.FT                         : MWD Tool Measurement Depth
MTTVD.FT                         : MWD Tool Measurement TVD
PSPD.M/MIN                      : Instantaneous Pipe Speed
ROP .M/HR                       : Rate of Penetration (MWD Depth Ave.)
KPOSI.M                          : Kelly Position (Raw)
SSS_H.                           : Stick Slip Percentage from HDS1
SSL_H.                           : Stick Slip Level from HDS1
RPM_H.                           : Average RPM from HDS1
VIBC.CPS                        : Vibration Count
VIBXYH.                           : Vibration XY
VIBZH.                           : Vibration Z
SPP I.PSI                        : Standpipe Pressure (Raw)
#     DEPT     MTTVD      PSPD       ROP     KPOSI     SSS_H     SSL_H     RPM_H      VIBC    VIBXYH     VIBZH     SPP I
#       FT        FT     M/MIN      M/HR         M                                     CPS                           PSI
#
# Relog Number     0         0         0         0         0         0         0         0         0         0         0
#
~ASCII Data
 2400.0000   7871.84   -999.25   -999.25      8.08   -999.25   -999.25   -999.25     28.00   -999.25   -999.25   1691.51
 2400.2000   7872.50   -999.25      1.28      7.89   -999.25   -999.25   -999.25     30.39   -999.25   -999.25   1683.87
 2400.4000   7873.16   -999.25     14.72      7.69    203.00      3.00   -999.25     32.78      2.00      2.00   1732.26
 2400.6000   7873.81   -999.25     19.50      7.49    204.28      3.00   -999.25     35.17      2.00      2.00   1666.92
 2400.8000   7874.47   -999.25     16.97      7.30    206.24      3.00   -999.25     35.45      2.00      2.00   1692.83
 2401.0000   7875.12   -999.25     18.46      7.09    208.20      3.00   -999.25     34.60      2.00      2.00   1681.38
 2401.2000   7875.78   -999.25     16.02      6.89    210.17      3.00   -999.25     35.25      2.00      2.00   1702.27
 2401.4000   7876.44   -999.25     22.77      6.69    212.13      3.00   -999.25     39.42      2.00      2.00   1721.31
 2401.6000   7877.09   -999.25     17.18      6.50    214.09      3.00   -999.25     43.58      2.00      2.00   1673.48
 2401.8000   7877.75   -999.25     17.78      6.29    216.05      3.00   -999.25     44.59      2.00      2.00   1691.90
 2402.0000   7878.40   -999.25     15.80      6.09    218.02      3.00   -999.25     45.25      2.00      2.00   1657.20
 2402.2000   7879.06   -999.25     20.34      5.89    220.25      3.00     86.25     45.90      2.00      2.00   1661.49
 2402.4000   7879.72   -999.25     15.12      5.69    222.75      3.00     87.92     53.85      2.00      2.00   1659.01
 2402.6000   7880.37   -999.25      8.06      5.49    225.25      3.00     89.58     63.08      2.00      2.00   1654.53
 2402.8000   7881.03   -999.25     25.52      5.29    223.20      3.00     91.25     72.31      2.00      2.00   1664.37
 2403.0000   7881.68   -999.25     20.76      5.09    219.20      3.00     92.92     76.00      2.00      2.00   1685.32
 2403.2000   7882.34   -999.25     29.52      4.89    215.20      3.00     94.58     76.00      2.00      2.00   1663.29
 2403.4000   7883.00   -999.25     15.72      4.69    211.20      3.00     96.25     76.00      2.00      2.00   1682.18
 2403.6000   7883.65   -999.25     22.88      4.49    207.20      3.00     97.92     63.81      2.00      2.00   1672.37
 2403.8000   7884.31   -999.25     16.37      4.29    203.20      3.00     99.58     49.47      2.00      2.00   1631.05
 2404.0000   7884.96   -999.25     18.50      4.10    199.20      3.00    101.25     37.91      2.00      2.00   1657.52
 2404.2000   7885.62   -999.25     22.55      3.89    195.20      3.00    102.92     37.44      2.00      2.00   1671.57
 2404.4000   7886.28   -999.25     19.66      3.69    191.20      3.00    104.58     36.98      2.00      2.00   1639.81
 2404.6000   7886.93   -999.25     16.87      3.49    189.51      3.00    105.95     36.51      2.00      2.00   1634.29
 2404.8000   7887.59   -999.25     23.38      3.29    197.07      3.00    105.61     36.05      2.00      2.00   1658.47
 2405.0000   7888.24   -999.25     22.37      3.09    204.62      3.00    105.28     37.69      2.00      2.00   1690.48
 2405.2000   7888.90   -999.25     19.13      2.89    212.18      3.00    104.94     39.58      2.00      2.00   1627.51
 2405.4000   7889.56   -999.25     21.12      2.69    219.73      3.00    104.61     41.46      2.00      2.00   1668.74
 2405.6000   7890.21   -999.25     24.88      2.50    221.25      3.00    104.27     43.34      2.00      2.00   1641.08
 2405.8000   7890.87   -999.25     15.66      2.29    220.17      3.00    103.93     44.00      2.00      2.00   1641.86
 2406.0000   7891.52   -999.25     23.76      2.09    219.10      3.00    103.60     44.00      2.00      2.00   1641.52
 2406.2000   7892.18   -999.25     13.01      1.89    218.03      3.00    103.26     44.64      2.00      2.00   1642.11
 2406.4000   7892.84   -999.25     26.53      1.70    216.95      3.00    102.92     47.19      2.00      2.00   1684.29
 2406.6000   7893.49   -999.25     22.71      1.49    215.88      3.00    102.59     49.74      2.00      2.00   1667.69
 2406.8000   7894.15   -999.25     19.86      1.29    214.81      3.00    102.25     42.91      2.00      2.00   1622.35
 2407.0000   7894.81   -999.25      1.10     29.69    214.00      3.00    102.00     35.02      2.00      2.00   1727.66
 2407.2000   7895.46   -999.25     50.34     29.49   -999.25   -999.25   -999.25     27.13      2.00      2.00   1768.31
 2407.4000   7896.12   -999.25     22.11     29.29   -999.25   -999.25   -999.25     24.62      2.00      2.00   1788.75
 2407.6000   7896.77   -999.25     21.51     29.09   -999.25   -999.25   -999.25     32.12      2.00      2.00   1761.92
 2407.8000   7897.43   -999.25      2.54     28.89   -999.25   -999.25   -999.25     39.62      2.00      2.00   1695.26
 2408.0000   7898.09   -999.25     54.29     28.69   -999.25   -999.25   -999.25     47.12      2.00      2.00   1676.10
 2408.2000   7898.74   -999.25     29.37     28.49   -999.25   -999.25   -999.25     54.63      2.00      2.00   1666.24
 2408.4000   7899.40   -999.25     22.66     28.29   -999.25   -999.25   -999.25     62.13      2.00      2.00   1758.96
 2408.6000   7900.05   -999.25     23.11     28.09   -999.25   -999.25   -999.25     69.63      2.00      2.00   1739.86
 2408.8000   7900.71   -999.25     30.91     27.89   -999.25   -999.25   -999.25     77.13      2.00      2.00   1735.74
 2409.0000   7901.37   -999.25     16.52     27.69   -999.25   -999.25   -999.25     68.57      2.00      2.00   1693.15
 2409.2000   7902.02   -999.25     24.02     27.49   -999.25   -999.25   -999.25     35.00      2.00      2.00   1712.17
 2409.4000   7902.68   -999.25     26.07     27.29   -999.25   -999.25   -999.25     28.33      2.00      2.00   1736.57
 2409.6000   7903.33   -999.25     17.21     27.09   -999.25   -999.25   -999.25     21.66      2.00      2.00   1689.05
 2409.8000   7903.99   -999.25     16.68     26.89   -999.25   -999.25   -999.25     25.42      2.00      2.00   1623.40
 2410.0000   7904.65   -999.25     11.59     26.69   -999.25   -999.25   -999.25     32.65      2.00      2.00   1615.32
 2410.2000   7905.30   -999.25     27.14     26.49    152.55      3.00      0.00     39.88      2.00      2.00   1590.54
 2410.4000   7905.96   -999.25     24.79     26.29    156.44      3.00   -999.25     47.11      2.00      2.00   1636.08
 2410.6000   7906.62   -999.25     22.08     26.09    160.33      3.00   -999.25     48.52      2.00      2.00   1674.77
 2410.8000   7907.27   -999.25     25.76     25.89    164.22      3.00   -999.25     46.04      2.00      2.00   1627.68
 2411.0000   7907.93   -999.25     19.92     25.69    168.11      3.00   -999.25     43.57      2.00      2.00   1644.53
 2411.2000   7908.58   -999.25     23.91     25.49    172.00      3.00   -999.25     41.09      2.00      2.00   1622.44
 2411.4000   7909.24   -999.25     27.47     25.28    156.57      2.73   -999.25     38.62      2.00      2.00   1619.99
 2411.6000   7909.90   -999.25     16.63     25.09    141.14      2.46   -999.25     39.50      2.00      2.00   1632.36
 2411.8000   7910.55   -999.25     34.99     24.89    125.72      2.19   -999.25     41.50      2.00      2.00   1601.21
 2412.0000   7911.21   -999.25     31.88     24.69    110.29      1.92   -999.25     43.50      2.00      2.00   1653.59
 2412.2000   7911.86   -999.25     18.87     24.49     94.87      1.65   -999.25     43.09      2.00      2.00   1622.24
 2412.4000   7912.52   -999.25     23.19     24.29     79.44      1.39   -999.25     41.88      2.00      2.00   1678.03
 2412.6000   7913.18   -999.25     26.89     24.09     64.01      1.12   -999.25     40.67      2.00      2.00   1676.48
 2412.8000   7913.83   -999.25     27.18     23.89     48.59      0.85   -999.25     39.50      2.00      2.00   1633.87
 2413.0000   7914.49   -999.25     31.72     23.69     33.16      0.58   -999.25     38.39      2.00      2.00   1669.31
 2413.2000   7915.14   -999.25     21.46     23.49     17.73      0.31   -999.25     37.28      2.00      2.00   1671.06
