~Version Information
VERS.                       2.00: SCHLUMBERGER LAS - Version 2.00
WRAP.                         NO: One line per depth step
~Well Information
STRT.FT                2400.0000: Start Depth
STOP.FT                3131.0000: End Depth
STEP.FT                   0.2000:  
NULL.                    -999.25:  
COMP.                    Bapetco: COMPANY
WELL.                   BED-18 M: WELL
FLD .                        BED: FLD
SRVC.               Schlumberger: SERVICE COMPANY
LOC .                           : LOCATION
DATE.                  23-Oct-19: LOG DATE
UWI .                  19EGP0341: API NUMBER
~Curve Information
DEPT.FT                         : MWD Tool Measurement Depth
MTTVD.FT                         : MWD Tool Measurement TVD
PSPD.M/MIN                      : Instantaneous Pipe Speed
ROP .M/HR                       : Rate of Penetration (MWD Depth Ave.)
KPOSI.M                          : Kelly Position (Raw)
SSS_H.                           : Stick Slip Percentage from HDS1
SSL_H.                           : Stick Slip Level from HDS1
RPM_H.                           : Average RPM from HDS1
VIBC.CPS                        : Vibration Count
VIBXYH.                           : Vibration XY
VIBZH.                           : Vibration Z
SPP I.PSI                        : Standpipe Pressure (Raw)
#     DEPT     MTTVD      PSPD       ROP     KPOSI     SSS_H     SSL_H     RPM_H      VIBC    VIBXYH     VIBZH     SPP I
#       FT        FT     M/MIN      M/HR         M                                     CPS                           PSI
#
# Relog Number     0         0         0         0         0         0         0         0         0         0         0
#
~ASCII Data
# ...
 2976.2000   9715.16   -999.25      9.64      8.80    168.05      3.00    112.48     36.59      2.00      2.00   2294.80
 2976.4000   9715.77   -999.25     10.52      8.61    166.24      3.00    112.80     39.84      2.00      2.00   2305.60
 2976.6000   9716.38   -999.25      8.28      8.40    166.78      3.00    113.12     40.00      2.00      2.00   2289.36
 2976.8000   9716.99   -999.25      7.62      8.21    167.32      3.00    113.44     51.51      2.00      2.00   2300.19
 2977.0000   9717.61   -999.25     10.10      8.00    167.86      3.00    113.76     53.95      2.00      2.00   2293.71
 2977.2000   9718.22   -999.25      9.66      7.81    168.33      3.00    113.28     50.79      2.00      2.00   2303.52
 2977.4000   9718.83   -999.25      9.49      7.60    168.76      3.00    110.40     57.06      2.00      2.00   2254.63
 2977.6000   9719.44   -999.25      7.01      7.41    168.88      3.00    107.51     66.00      2.00      2.00   2327.07
 2977.8000   9720.05   -999.25      8.55      7.20    168.61      3.00    104.63     62.57      2.00      2.00   2317.65
 2978.0000   9720.66   -999.25      7.52      7.01    168.35      3.00    101.75     47.59      2.00      2.00   2270.49
 2978.2000   9721.28   -999.25      7.80      6.81    168.08      3.00     98.86     44.86      2.00      2.00   2305.22
 2978.4000   9721.89   -999.25     17.54      6.60    167.71      3.00     98.30     42.14      2.00      2.00   2312.93
 2978.6000   9722.50   -999.25     10.44      6.41    167.29      3.00     98.73     35.81      2.00      2.00   2294.40
 2978.8000   9723.11   -999.25      8.39      6.20    167.40      3.00     99.16     29.30      2.00      2.00   2309.64
 2979.0000   9723.72   -999.25      9.41      6.01    168.72      3.00     99.58     28.00      2.00      2.00   2256.72
 2979.2000   9724.33   -999.25     14.47      5.81    170.04      3.00    100.01     28.00      2.00      2.00   2312.85
 2979.4000   9724.95   -999.25     27.97      5.61    171.37      3.00    100.44     28.00      2.00      2.00   2252.75
 2979.6000   9725.56   -999.25     13.71      5.40    172.69      3.00    100.87     28.23      2.00      2.00   2287.75
 2979.8000   9726.17   -999.25     17.85      5.20    174.01      3.00    101.29     30.51      2.00      2.00   2287.73
 2980.0000   9726.78   -999.25     29.24      5.01    175.34      3.00    101.72     32.80      2.00      2.00   2281.07
 2980.2000   9727.39   -999.25     11.32      4.80    175.82      3.00    101.85     35.09      2.00      2.00   2272.50
 2980.4000   9728.01   -999.25     11.07      4.60    175.47      3.00    101.42     36.00      2.00      2.00   2250.75
 2980.6000   9728.62   -999.25     16.26      4.41    175.12      3.00    100.98     36.00      2.00      2.00   2295.57
 2980.8000   9729.23   -999.25     11.54      4.21    176.04      3.00    100.55     36.00      2.00      2.00   2315.68
 2981.0000   9729.84   -999.25     25.23      4.01    177.64      3.00    100.12     40.85      2.00      2.00   2254.73
 2981.2000   9730.45   -999.25     10.39      3.81    179.24      3.00     99.69     45.38      2.00      2.00   2263.97
 2981.4000   9731.07   -999.25     14.10      3.60    180.84      3.00     99.25     41.28      2.00      2.00   2305.83
 2981.6000   9731.68   -999.25     18.13      3.40    182.44      3.00     98.82     38.80      2.00      2.00   2277.39
 2981.8000   9732.29   -999.25     13.61      3.21    184.04      3.00     98.39     42.80      2.00      2.00   2282.71
 2982.0000   9732.90   -999.25      9.35      3.00    184.61      3.00     98.13     46.80      2.00      2.00   2253.20
 2982.2000   9733.51   -999.25     22.82      2.81    183.62      3.00     99.44     47.97      2.00      2.00   2302.39
 2982.4000   9734.13   -999.25     10.90      2.61    182.64      3.00    100.75     37.82      2.00      2.00   2302.91
 2982.6000   9734.74   -999.25     11.16      2.41    182.34      3.00    102.07     27.67      2.00      2.00   2287.54
 2982.8000   9735.35   -999.25     40.27      2.20    183.32      3.00    103.38     17.53      2.00      2.00   2304.71
 2983.0000   9735.96   -999.25     24.67      2.01    184.30      3.00    104.69     23.72      2.00      2.00   2264.39
 2983.2000   9736.58   -999.25     26.17      1.81    185.28      3.00    106.00     32.82      2.00      2.00   2298.04
 2983.4000   9737.19   -999.25     10.34      1.60    186.26      3.00    107.31     44.36      2.00      2.00   2310.35
 2983.6000   9737.80   -999.25     23.80      1.49    187.23      3.00    108.62     57.21      2.00      2.00   2282.75
 2983.8000   9738.41   -999.25     37.27      1.48    188.21      3.00    109.93     70.07      2.00      2.00   2294.86
 2984.0000   9739.03   -999.25     50.74      1.47    189.19      3.00    111.25     33.77      2.00      2.00   2306.97
 2984.2000   9739.64   -999.25     10.00      1.31    190.17      3.00    112.56     27.38      2.00      2.00   2277.04
 2984.4000   9740.25   -999.25     12.01      1.10    191.03      3.00    113.87     41.83      2.00      2.00   2230.27
 2984.6000   9740.86   -999.25      5.15     29.29    191.26      3.00    116.40     56.27      2.00      2.00   2279.11
 2984.8000   9741.47   -999.25      8.73     29.09    191.48      3.00    119.07     69.15      2.00      2.00   2298.94
 2985.0000   9742.09   -999.25     11.77     28.89    191.70      3.00    121.73     52.00      2.00      2.00   2270.25
 2985.2000   9742.70   -999.25      7.92     28.69    191.92      3.00    124.40     57.72      2.00      2.00   2254.87
 2985.4000   9743.31   -999.25     11.06     28.49    181.77      3.00    125.87     63.43      2.00      2.00   2266.81
 2985.6000   9743.92   -999.25      8.58     28.29    166.02      3.00    125.55     62.11      2.00      2.00   2238.26
 2985.8000   9744.54   -999.25      7.74     28.09    156.08      3.00    125.23     60.00      2.00      2.00   2247.23
 2986.0000   9745.15   -999.25      8.14     27.89    159.67      3.00    124.90     53.67      2.00      2.00   2258.56
 2986.2000   9745.76   -999.25      8.33     27.69    163.26      3.00    124.58     50.33      2.00      2.00   2256.06
 2986.4000   9746.38   -999.25     15.17     27.49    166.85      3.00    124.26     54.50      2.00      2.00   2250.07
 2986.6000   9746.99   -999.25      7.03     27.29    168.56      3.00    123.72     59.50      2.00      2.00   2256.18
 2986.8000   9747.60   -999.25     14.83     27.09    167.44      3.00    122.32     54.70      2.00      2.00   2273.98
 2987.0000   9748.21   -999.25     14.06     26.89    166.33      3.00    120.93     40.10      2.00      2.00   2216.41
 2987.2000   9748.83   -999.25      9.32     26.69    167.09      3.00    119.53     25.50      2.00      2.00   2256.82
 2987.4000   9749.44   -999.25     47.34     26.49    168.66      3.00    118.13     16.00      2.00      2.00   2252.64
 2987.6000   9750.05   -999.25     47.81     26.29    170.22      3.00    116.73     16.00      2.00      2.00   2266.77
 2987.8000   9750.66   -999.25     22.20     26.09    171.79      3.00    115.34     16.00      2.00      2.00   2271.81
 2988.0000   9751.28   -999.25     74.53     25.89    173.35      3.00    113.94     18.20      2.00      2.00   2271.46
 2988.2000   9751.89   -999.25     65.75     25.69    174.92      3.00    112.54     29.18      2.00      2.00   2248.26
 2988.4000   9752.50   -999.25     12.66     25.49    176.48      3.00    111.14     40.16      2.00      2.00   2230.91
 2988.6000   9753.11   -999.25     11.94     25.29    178.04      3.00    109.75     48.08      2.00      2.00   2283.59
 2988.8000   9753.73   -999.25     12.55     25.09    179.61      3.00    108.35     54.35      2.00      2.00   2224.21
 2989.0000   9754.34   -999.25      8.61     24.89    174.88      3.00    106.54     60.11      2.00      2.00   2266.59
 2989.2000   9754.95   -999.25     13.87     24.69    168.05      3.00    104.60     61.16      2.00      2.00   2247.76
 2989.4000   9755.57   -999.25      7.87     24.49    168.21      3.00    102.65     62.00      2.00      2.00   2280.68
