~Version Information
VERS.                       2.00: SCHLUMBERGER LAS - Version 2.00
WRAP.                         NO: One line per depth step
~Well Information
STRT.FT                2400.0000: Start Depth
STOP.FT                3131.0000: End Depth
STEP.FT                   0.2000:  
NULL.                    -999.25:  
COMP.                    Bapetco: COMPANY
WELL.                   BED-18 M: WELL
FLD .                        BED: FLD
SRVC.               Schlumberger: SERVICE COMPANY
LOC .                           : LOCATION
DATE.                  23-Oct-19: LOG DATE
UWI .                  19EGP0341: API NUMBER
~Curve Information
DEPT.FT                         : MWD Tool Measurement Depth
MTTVD.FT                         : MWD Tool Measurement TVD
PSPD.M/MIN                      : Instantaneous Pipe Speed
ROP .M/HR                       : Rate of Penetration (MWD Depth Ave.)
KPOSI.M                          : Kelly Position (Raw)
SSS_H.                           : Stick Slip Percentage from HDS1
SSL_H.                           : Stick Slip Level from HDS1
RPM_H.                           : Average RPM from HDS1
VIBC.CPS                        : Vibration Count
VIBXYH.                           : Vibration XY
VIBZH.                           : Vibration Z
SPP I.PSI                        : Standpipe Pressure (Raw)
#     DEPT     MTTVD      PSPD       ROP     KPOSI     SSS_H     SSL_H     RPM_H      VIBC    VIBXYH     VIBZH     SPP I
#       FT        FT     M/MIN      M/HR         M                                     CPS                           PSI
#
# Relog Number     0         0         0         0         0         0         0         0         0         0         0
#
~ASCII Data
# ...
 2547.4000   8355.38   -999.25     44.71      3.92   -999.25   -999.25   -999.25    125.29   -999.25   -999.25   2087.97
 2547.6000   8356.04   -999.25     43.74      3.72   -999.25   -999.25   -999.25    120.56   -999.25   -999.25   2096.32
 2547.8000   8356.70   -999.25     25.78      3.52   -999.25   -999.25   -999.25    115.83   -999.25   -999.25   2048.47
 2548.0000   8357.35   -999.25     26.79      3.33   -999.25   -999.25   -999.25    111.10   -999.25   -999.25   2033.10
 2548.2000   8358.01   -999.25     63.59      3.12   -999.25   -999.25   -999.25    106.37   -999.25   -999.25   2106.58
 2548.4000   8358.66   -999.25     35.95      2.93   -999.25   -999.25   -999.25    102.00   -999.25   -999.25   2056.42
 2548.6000   8359.32   -999.25     33.57      2.72   -999.25   -999.25   -999.25     98.00   -999.25   -999.25   2056.29
 2548.8000   8359.97   -999.25     35.24      2.53   -999.25   -999.25   -999.25     94.00   -999.25   -999.25   2052.82
 2549.0000   8360.63   -999.25     14.33      2.33   -999.25   -999.25   -999.25     90.00   -999.25   -999.25   2031.38
 2549.2000   8361.28   -999.25     78.71      2.13   -999.25   -999.25   -999.25     86.00   -999.25   -999.25   2053.16
 2549.4000   8361.94   -999.25     74.50      1.93   -999.25   -999.25   -999.25     81.97   -999.25   -999.25   2090.43
 2549.6000   8362.59   -999.25     45.55      1.72   -999.25   -999.25   -999.25     77.90   -999.25   -999.25   2109.29
 2549.8000   8363.25   -999.25     45.59      1.53   -999.25   -999.25   -999.25     73.83   -999.25   -999.25   2086.95
 2550.0000   8363.90   -999.25     45.32      1.33   -999.25   -999.25   -999.25     69.75      4.00      2.00   2063.21
 2550.2000   8364.56   -999.25     39.99      1.13     34.00      0.00    100.00     65.68   -999.25   -999.25   2017.87
 2550.4000   8365.21   -999.25     27.61      1.18     52.58      0.39     99.18     61.61   -999.25   -999.25   1953.06
 2550.6000   8365.87   -999.25     15.22      1.40     83.55      1.03     97.81     57.54   -999.25   -999.25   1747.77
 2550.8000   8366.53   -999.25      2.84      1.52    114.52      1.68     96.44     53.47   -999.25   -999.25    276.69
 2551.0000   8367.18   -999.25     10.00     11.02    145.49      2.32     95.08     49.40   -999.25   -999.25    120.41
 2551.2000   8367.84   -999.25     17.16     26.95    176.46      2.97     93.71     45.33   -999.25   -999.25    126.44
 2551.4000   8368.49   -999.25     24.34     29.98    173.89      3.00     92.34     41.26   -999.25   -999.25   1955.32
 2551.6000   8369.15   -999.25     60.08     29.78    169.57      3.00   -999.25     37.19   -999.25   -999.25   1997.99
 2551.8000   8369.80   -999.25     30.57     29.58    165.25      3.00   -999.25     33.12   -999.25   -999.25   2086.92
 2552.0000   8370.46   -999.25     73.83     29.38    160.93      3.00   -999.25     29.05   -999.25   -999.25   2069.48
 2552.2000   8371.11   -999.25     81.08     29.18    156.61      3.00   -999.25     26.00   -999.25   -999.25   2071.21
 2552.4000   8371.77   -999.25     71.36     28.98    152.29      3.00   -999.25     26.00   -999.25   -999.25   2078.06
 2552.6000   8372.42   -999.25     54.94     28.78    147.97      3.00   -999.25     26.00   -999.25   -999.25   2092.10
 2552.8000   8373.08   -999.25     62.32     28.58    143.65      3.00   -999.25     26.00   -999.25   -999.25   2072.30
 2553.0000   8373.73   -999.25     56.11     28.38    139.33      3.00   -999.25     26.00   -999.25   -999.25   2089.65
 2553.2000   8374.39   -999.25     65.92     28.18    135.01      3.00   -999.25     26.00   -999.25   -999.25   2068.75
 2553.4000   8375.04   -999.25     55.51     27.98    130.69      3.00   -999.25     26.00   -999.25   -999.25   2089.83
 2553.6000   8375.70   -999.25     74.79     27.78    126.37      3.00   -999.25     26.00   -999.25   -999.25   2049.38
 2553.8000   8376.35   -999.25     72.25     27.58    122.05      3.00   -999.25     26.00      2.00      2.00   2097.27
 2554.0000   8377.01   -999.25     71.10     27.37    117.73      3.00   -999.25     26.00   -999.25   -999.25   2052.98
 2554.2000   8377.67   -999.25     59.54     27.18   -999.25   -999.25   -999.25     26.00   -999.25   -999.25   2081.71
 2554.4000   8378.32   -999.25     28.62     26.98   -999.25   -999.25   -999.25     26.00   -999.25   -999.25   2079.06
 2554.6000   8378.98   -999.25     79.08     26.78   -999.25   -999.25   -999.25     25.97   -999.25   -999.25   2092.84
 2554.8000   8379.63   -999.25     80.86     26.58   -999.25   -999.25   -999.25     25.42   -999.25   -999.25   2087.54
 2555.0000   8380.29   -999.25     63.44     26.38   -999.25   -999.25   -999.25     24.86   -999.25   -999.25   2113.50
 2555.2000   8380.94   -999.25     58.62     26.17   -999.25   -999.25   -999.25     24.31   -999.25   -999.25   2081.30
 2555.4000   8381.60   -999.25     56.52     25.98   -999.25   -999.25   -999.25     23.75   -999.25   -999.25   2063.55
 2555.6000   8382.25   -999.25     57.42     25.78   -999.25   -999.25   -999.25     23.19   -999.25   -999.25   2092.60
 2555.8000   8382.91   -999.25     44.00     25.57   -999.25   -999.25   -999.25     22.64   -999.25   -999.25   2091.97
 2556.0000   8383.56   -999.25     56.45     25.38   -999.25   -999.25   -999.25     22.08   -999.25   -999.25   2094.00
 2556.2000   8384.22   -999.25     62.11     25.17   -999.25   -999.25   -999.25     22.86   -999.25   -999.25   2017.76
 2556.4000   8384.87   -999.25     61.28     24.98   -999.25   -999.25   -999.25     23.87   -999.25   -999.25   2071.71
 2556.6000   8385.53   -999.25     55.30     24.78   -999.25   -999.25   -999.25     24.89   -999.25   -999.25   2057.59
 2556.8000   8386.18   -999.25     45.21     24.58   -999.25   -999.25   -999.25     25.90   -999.25   -999.25   2096.50
 2557.0000   8386.84   -999.25     55.51     24.38   -999.25   -999.25   -999.25     26.91   -999.25   -999.25   2041.00
 2557.2000   8387.49   -999.25     54.97     24.18   -999.25   -999.25   -999.25     27.92   -999.25   -999.25   2105.42
 2557.4000   8388.15   -999.25     68.31     23.98   -999.25   -999.25   -999.25     28.94   -999.25   -999.25   2084.92
 2557.6000   8388.80   -999.25     70.87     23.78   -999.25   -999.25   -999.25     29.95   -999.25   -999.25   2030.23
 2557.8000   8389.46   -999.25     63.72     23.58   -999.25   -999.25   -999.25     29.54   -999.25   -999.25   2080.40
 2558.0000   8390.11   -999.25     70.87     23.38   -999.25   -999.25   -999.25     29.05   -999.25   -999.25   2079.74
 2558.2000   8390.77   -999.25     61.44     23.18   -999.25   -999.25   -999.25     28.57   -999.25   -999.25   2067.50
 2558.4000   8391.42   -999.25     77.05     22.98   -999.25   -999.25   -999.25     28.08   -999.25   -999.25   2064.26
 2558.6000   8392.08   -999.25     72.33     22.78   -999.25   -999.25   -999.25     27.60   -999.25   -999.25   2088.11
 2558.8000   8392.73   -999.25     52.09     22.58   -999.25   -999.25   -999.25     27.11      2.00      2.00   2034.50
 2559.0000   8393.39   -999.25     82.40     22.38   -999.25   -999.25   -999.25     26.62      2.00      2.00   2062.93
 2559.2000   8394.04   -999.25     71.43     22.18   -999.25   -999.25   -999.25     26.14      2.00      2.00   2013.75
 2559.4000   8394.70   -999.25     66.37     21.98    113.00      3.00   -999.25     25.65      2.00      2.00   2090.95
 2559.6000   8395.35   -999.25     77.25     21.78    112.64      3.00    100.00     25.17      2.00      2.00   2055.04
 2559.8000   8396.01   -999.25     65.48     21.58    112.22      3.00   -999.25     24.68      2.00      2.00   2013.81
 2560.0000   8396.66   -999.25     66.21     21.38    111.80      3.00   -999.25     24.19      2.00      2.00   2042.99
 2560.2000   8397.32   -999.25     75.59     21.18    111.38      3.00   -999.25     23.55      2.00      2.00   2082.12
 2560.4000   8397.97   -999.25     71.02     20.98    110.96      3.00   -999.25     22.80      2.00      2.00   2103.40
 2560.6000   8398.62   -999.25     62.62     20.78    110.54      3.00   -999.25     22.06      2.00      2.00   2057.64
