~Version Information											
VERS.                       2.00: SCHLUMBERGER LAS - Version 2.00											
WRAP.                         NO: One line per depth step											
~Well Information											
STRT.FT                1135.0000: Start Depth											
STOP.FT                2399.0000: End Depth											
STEP.FT                   0.2000:  											
											
COMP.                    Bapetco: COMPANY											
WELL.                   BED-18 M: WELL											
FLD .                        BED: FLD											
SRVC.               Schlumberger: SERVICE COMPANY											
LOC .                           : LOCATION											
DATE.                  20-Oct-19: LOG DATE											
UWI .                  19EGP0341: API NUMBER											
~Curve Information											
DEPT.FT                         : MWD Tool Measurement Depth											
MTTVD.FT                         : MWD Tool Measurement TVD											
PSPD.M/MIN                      : Instantaneous Pipe Speed											
ROP .M/HR                       : Rate of Penetration (MWD Depth Ave.)											
KPOSI.M                          : Kelly Position (Raw)											
SSS_H.                           : Stick Slip Percentage from HDS1											
SSL_H.                           : Stick Slip Level from HDS1											
RPM_H.                           : Average RPM from HDS1											
VIBC.CPS                        : Vibration Count											
VIBXYH.                           : Vibration XY											
VIBZH.                           : Vibration Z											
SPP I.PSI                        : Standpipe Pressure (Raw)											
DEPT	MTTVD	PSPD	ROP	KPOSI	SSS_H	SSL_H	RPM_H	VIBC	VIBXYH	VIBZH	SPP
M	FT	M/MIN	M/HR	M				CPS			PSI
#											
# Relog Number     0         0         0         0         0         0         0         0         0         0         0											
#											
~ASCII Data											
# ...
1220.8	4005.08		54.12	13.47	5	0	117.1	76.66	5.94	2	1902.75
1221	4005.74		52.67	13.28	5	0	118	68.79	5.15	2	1966.23
1221.2	4006.39		52.64	13.08	5	0	118	68	4.35	2	1977.88
1221.4	4007.05		47.58	12.87	5	0	118	68	3.55	2	1995.47
1221.6	4007.71		60.42	12.67	5	0	118	68	2.76	2	1942.48
1221.8	4008.36		70.14	12.47	5	0	118	68	2	2	1896.9
1222	4009.02		66.12	12.27	5.06	0	118	68.52	2	2	1947.99
1222.2	4009.67		61.12	12.08	5.26	0	118	70.26	2	2	1940.23
1222.4	4010.33		63.4	11.88	5.46	0	118	72	2	2	1953.63
1222.6	4010.99		59.95	11.67	5.65	0	118	72	2	2	1925.33
1222.8	4011.64		51.23	11.48	5.85	0	118	72	2	2	1946.79
1223	4012.3		56.55	11.28	6.05	0	118	72	2	2	1953.15
1223.2	4012.95		57.5	11.07	6.23	0	117.71	72	2	2	1959.36
1223.4	4013.61		53.34	10.88	6.41	0	116.73	69.2	2	2	1944.52
1223.6	4014.27		56.25	10.67	6.59	0	115.76	65.91	2	2	1960.42
1223.8	4014.92		53.65	10.48	6.77	0	114.78	62.61	2	2	1928.84
1224	4015.58		52.92	10.27	6.95	0	113.8	59.32	2	2	1929.64
1224.2	4016.23		53.65	10.07	7.14	0	112.83	58	2	2	1911.67
1224.4	4016.89		52.83	9.88	7.35	0	111.85	58	2	2	1908.64
1224.6	4017.55		57.33	9.68	7.56	0	110.88	58	2	2	1918.44
1224.8	4018.2		59.11	9.47	7.76	0	109.9	58	2	2	1901.59
1225	4018.86		51.65	9.27	7.97	0	108.93	58	2	2	1861.28
1225.2	4019.51		53.24	9.08	8.16	0	108.01	58	2	2	1903.65
1225.4	4020.17		52.51	8.88	8.35	0	108.21	56.75	2	2	1930.73
1225.6	4020.83		51.79	8.68	8.53	0	108.42	54.82	2	2	1968.59
1225.8	4021.48		52.77	8.48	8.72	0	108.62	52.89	2	2	1944.28
1226	4022.14		49.31	8.27	8.91	0	108.83	50.96	2	2	1975.28
1226.2	4022.79		50.76	8.08	8.56	0	109.03	50	2	2	1976.76
1226.4	4023.45		54.53	7.88	7.67	0	109.23	50	2	2	1947.93
1226.6	4024.11		51.01	7.67	6.78	0	109.44	50	2	2	2007.77
1226.8	4024.76		51.54	7.47	5.89	0	109.64	50	2	2	2021.85
1227	4025.42		52.48	7.27	5	0	109.85	50	2	2	1968.47
1227.2	4026.07		52.95	7.08	5.19	0	110.2	50	2	2	1984.1
1227.4	4026.73		65.8	6.88	5.37	0	110.98	51.41	2	2	1936.64
1227.6	4027.39		57.06	6.67	5.56	0	111.76	53.29	2	2	1933.92
1227.8	4028.04		46.47	6.47	5.74	0	112.54	55.18	2	2	1910.11
1228	4028.7		51.42	6.28	5.93	0	113.32	57.06	2	2	1935.5
1228.2	4029.35		54.53	6.07	6.26	0	114.1	58	2	2	1913.53
1228.4	4030.01		52.58	5.88	6.69	0	114.88	58	2	2	1917.35
1228.6	4030.67		47.14	5.67	7.12	0	115.66	58	2	2	1961.36
1228.8	4031.32		53.38	5.48	7.55	0	116.44	58	2	2	1982.68
1229	4031.98		58.48	5.27	7.98	0	117.22	58	2	2	1921.57
1229.2	4032.63		60.57	5.08	8	0	118	58	2	2	1997.01
1229.4	4033.29		58.92	4.87	8	0	118.19	58	2	2	1969.11
1229.6	4033.95		62.76	4.67	8	0	118.37	58	2	2	1964.65
1229.8	4034.6		62.88	4.48	8	0	118.56	58	2	2	1981.23
1230	4035.26		61.6	4.28	8	0	118.74	58	2	2	1998.02
1230.2	4035.91		62.11	4.08	8	0	118.93	58	2	2	1947.53
1230.4	4036.57		64.6	3.88	8	0	119.11	58	2	2	1982.06
1230.6	4037.23		64.6	3.68	8	0	119.3	58	2	2	1950.93
1230.8	4037.88		55.51	3.48	8	0	119.48	58	2	2	1957.61
1231	4038.54		52.08	3.28	8	0	119.67	56.2	2	2	1970.63
1231.2	4039.19		55.06	3.08	8	0	119.85	53.2	2	2	1992.21
1231.4	4039.85		26.08	2.87	8.25	0	119.75	52	2	2	1977.84
1231.6	4040.51		17.58	2.68	8.61	0	118.52	52	2	2	1962.96
1231.8	4041.16		87.87	2.47	8.96	0	117.29	52	2	2	1982.03
1232	4041.82		32.18	2.28	17.53	0	116.06	52	2	2	1945.31
1232.2	4042.47		29.53	2.26	18.68	0		65.55	2.14	2	1946.05
1232.4	4043.13		26.87	2.25	19.4	0		79.81	2.29	2	1944.66
1232.6	4043.79		24.22	2.23	20.11	0		94.07	2.44	2	1943.26
1232.8	4044.44		21.57	2.22	20.83	0		108.33	2.59	2	1941.86
1233	4045.1		18.92	2.21	21.55	0		122.59	2.74	2	1940.46
1233.2	4045.76		16.26	2.2	22.27	0		134	2.89	2	1939.07
1233.4	4046.41		13.61	2.19	22.98	0		134	3.04	2	1937.67
1233.6	4047.07		10.96	2.17	23.7	0		134	3.19	2	1936.27
1233.8	4047.72		8.3	2.16	24.42	0		134	3.34	2	1934.88
1234	4048.38		5.65	2.15	25.13	0		134	3.49	2	1933.48
1234.2	4049.04		3.01	1.95	25.85	0		134	3.64	2	1924.5
1234.4	4049.69		57.08	1.76	26.57	0		134	3.79	2	1887.75
1234.6	4050.35		78.57	1.56	27.28	0		134	3.94	2	1899.39
1234.8	4051		55.23	1.36	28	0		133.38	4	2	1885.34
1235	4051.66		59.22	1.16	30.43	0.07		129.27	4	2	1905.06
1235.2	4052.32		9.87	19.42	32.86	0.14		125.15	4	2	1307.57
1235.4	4052.97		25.57	29.29	35.29	0.21		121.04	4	2	947.67
1235.6	4053.63		36.08	29.08	37.71	0.29		116.92	4	2	1030.68
1235.8	4054.28		33.16	28.89	40.14	0.36		112.81	4	2	1011.4
1236	4054.94		55.57	28.69	42.57	0.43		108.69	4	2	947.36
1236.2	4055.6		13.8	28.49	45	0.5		104.58	4	2	1936.58
1236.4	4056.25		92.09	28.29	47.43	0.57		100.46	4	2	1948.24
1236.6	4056.91		59.51	28.09	49.86	0.64		96.35	4	2	1933.68
1236.8	4057.56		52.7	27.89	52.29	0.71		92.23	4	2	1939.12
1237	4058.22		58.75	27.69	54.71	0.79		88.11	4	2	1935.35
1237.2	4058.88		46.51	27.49	57.14	0.86		84	4	2	1893.54
1237.4	4059.53		24.94	27.29	59.57	0.93		84	4	2	1941.68
1237.6	4060.19		75.59	27.09	62	1		84	3.63	2	1930.63
1237.8	4060.84		54.47	26.89	56.4	0.8	84.73	84	3.24	2	1920.68
1238	4061.5		74.85	26.68	50.8	0.6	88.36	84	2.85	2	1940.78
1238.2	4062.16		24.66	26.49	45.2	0.4	92	84	2.47	2	1942.59
1238.4	4062.81		70.66	26.29	39.6	0.2	95.64	84	2.08	2	1915.38
1238.6	4063.47		66.7	26.08	34	0	99.27	84	2	2	1900.08
1238.8	4064.12		18.29	25.89	27.11	0	102.91	84	2	2	1949.65
1239	4064.78		65.96	25.68	20.23	0	106.54	84	2	2	1964.72
1239.2	4065.44		60.49	25.48	13.34	0	110.18	84	2.27	2	1927.84
1239.4	4066.09		38.42	25.28	15.38	0	111.89	84	2.69	2	1945.38
1239.6	4066.75		46.01	25.08	17.88	0	111.68	78.05	3.12	2	1968.55
1239.8	4067.4		66.36	24.88	20.37	0	111.47	71.05	3.54	2	1946.52
1240	4068.06		38.77	24.69	22.87	0	111.26	64.05	3.96	2	1934.24
1240.2	4068.72		59.22	24.48	24.66	0	111.05	57.05	3.64	2	1947.89
1240.4	4069.37		59.18	24.28	22.42	0	110.84	56	3.25	2	1971.82
1240.6	4070.03		58.99	24.08	20.17	0	110.62	56	2.85	2	1964.17
1240.8	4070.68		56.87	23.88	17.93	0	110.41	55.8	2.46	2	1997.15
1241	4071.34		55.64	23.69	15.68	0	110.2	53.76	2.06	2	1915.29
1241.2	4072		26	23.49	14	0	109.94	51.73	2	2	2005.82
1241.4	4072.65		71.93	23.29	14	0	108.84	50	2	2	1953.28
1241.6	4073.31		60.46	23.09	14	0	107.73	50	2	2	1962.6
1241.8	4073.96		64.6	22.89	14	0	106.63	50	2	2	1977.14
1242	4074.62		60.1	22.69	14	0	105.52	50	2	2	1961.18
1242.2	4075.28		30.55	22.49	13.88	0	104.42	50	2	2	1975.55
1242.4	4075.93		55.98	22.28	13.61	0	103.31	50	2	2	1984.36
1242.6	4076.59		47.08	22.08	13.35	0	102.21	49.8	2	2	2017.34
1242.8	4077.24		36.61	21.88	13.08	0	101.1	47.8	2	2	2001.85
1243	4077.9		47.52	21.68	12.43	0	100	46	2	2	1979.41
1243.2	4078.56		22.78	21.48	11.62	0	100	46	2	2	1992.82
1243.4	4079.21		36.91	21.28	10.81	0	100	46	2	2	1945
1243.6	4079.87		60.83	21.08	10	0	100	46	2	2	1918.79
1243.8	4080.52		36.74	20.88	12.97	0	100	46	2	2	1924.33
1244	4081.18		48.18	20.69	15.95	0	100	46	2	2	1914.08
1244.2	4081.84		45.21	20.49	18.92	0	100	44.04	2	2	1886.61
1244.4	4082.49		43.2	20.29	21	0	100	41.85	2	2	1860.2
1244.6	4083.15		45.48	20.09	21	0	100.48	40	2	2	1878.81
1244.8	4083.8		55.81	19.88	21	0	101.36	40	2	2	1936.92
1245	4084.46		48.59	19.68	21	0	102.23	40	2	2	1919.3
1245.2	4085.12		41.65	19.48	21	0	103.1	40	2	2	1891.89
1245.4	4085.77		39.7	19.29	19.52	0	103.98	40	2	2	1915.87
1245.6	4086.43		43.86	19.09	17.25	0	104.85	40	2	2	1945.08
1245.8	4087.08		49.69	18.88	14.98	0	105.73	41.53	2	2	1937.36
1246	4087.74		58.12	18.68	12.7	0	106.6	49.19	2	2	1960.43
1246.2	4088.4		57.16	18.49	11.07	0	107.48	56.85	2	2	1902.69
1246.4	4089.05		56.45	18.28	11.33	0	108	58	2	2	1955.89
1246.6	4089.71		27.32	18.09	11.6	0	108	58	2	2	1972.02
1246.8	4090.36		30.01	17.89	11.87	0	108	58	2	2	1933.9
1247	4091.02		49.69	17.68	12.84	0	108	58	2	2	1928.16
1247.2	4091.68		48.08	17.48	14.53	0	108	58	2	2	1925.26
1247.4	4092.33		41.39	17.29	16.22	0	108	57.72	2	2	1918.4
1247.6	4092.99		55.78	17.08	17.9	0	108	52.21	2	2	1907.23
1247.8	4093.64		35.25	16.89	18.93	0	108	46.69	2	2	1934.31
1248	4094.3		69.96	16.68	18.71	0	107.77	42	2	2	1938.28
1248.2	4094.96		57.46	16.48	18.5	0	107.54	42	2	2	1962
1248.4	4095.61		54.73	16.29	18.29	0	107.31	42	2	2	1937.21
1248.6	4096.27		47.93	16.09	18.07	0	107.09	42	2	2	1940.63
1248.8	4096.92		24.95	15.88	18	0	106.86	39.45	2	2	1924.56
1249	4097.58		40.19	15.68	18	0	106.63	38	2	2	1956.11
1249.2	4098.24		62.29	15.48	18	0	106.4	38	2	2	1976.95
1249.4	4098.89		45.82	15.28	18	0	106.17	38	2	2	1933.92
