~Version Information											
VERS.                       2.00: SCHLUMBERGER LAS - Version 2.00											
WRAP.                         NO: One line per depth step											
~Well Information											
STRT.FT                1135.0000: Start Depth											
STOP.FT                2399.0000: End Depth											
STEP.FT                   0.2000:  											
											
COMP.                    Bapetco: COMPANY											
WELL.                   BED-18 M: WELL											
FLD .                        BED: FLD											
SRVC.               Schlumberger: SERVICE COMPANY											
LOC .                           : LOCATION											
DATE.                  20-Oct-19: LOG DATE											
UWI .                  19EGP0341: API NUMBER											
~Curve Information											
DEPT.FT                         : MWD Tool Measurement Depth											
MTTVD.FT                         : MWD Tool Measurement TVD											
PSPD.M/MIN                      : Instantaneous Pipe Speed											
ROP .M/HR                       : Rate of Penetration (MWD Depth Ave.)											
KPOSI.M                          : Kelly Position (Raw)											
SSS_H.                           : Stick Slip Percentage from HDS1											
SSL_H.                           : Stick Slip Level from HDS1											
RPM_H.                           : Average RPM from HDS1											
VIBC.CPS                        : Vibration Count											
VIBXYH.                           : Vibration XY											
VIBZH.                           : Vibration Z											
SPP I.PSI                        : Standpipe Pressure (Raw)											
DEPT	MTTVD	PSPD	ROP	KPOSI	SSS_H	SSL_H	RPM_H	VIBC	VIBXYH	VIBZH	SPP
M	FT	M/MIN	M/HR	M				CPS			PSI
#											
# Relog Number     0         0         0         0         0         0         0         0         0         0         0											
#											
~ASCII Data											
# ...
1366	4481.34		45.35	12.71	18.11	0	113.38	49.06	2	2	2291.9
1366.2	4482		32.32	12.51	19.31	0	113.86	41.72	2	2	2296.38
1366.4	4482.66		41.97	12.32	22.38	0	113.52	34.37	2	2	2269.37
1366.6	4483.31		47.29	12.11	25.46	0	112.83	34	2	2	2303.15
1366.8	4483.97		46.33	11.91	28.54	0	112.15	34	2	2	2257.5
1367	4484.62		45.97	11.71	31.62	0	111.46	34	2	2	2329.04
1367.2	4485.28		47.96	11.51	30.18	0	110.78	34	2	2	2263.91
1367.4	4485.94		49.39	11.32	25.06	0	110.09	34	2	2	2309.74
1367.6	4486.59		47.43	11.12	19.94	0	109.41	34	2	2	2310.78
1367.8	4487.25		44.96	10.92	14.82	0	108.72	43.17	2	2	2255.06
1368	4487.9		40.92	10.72	13.11	0	108.03	52.34	2	2	2324.47
1368.2	4488.56		36.43	10.52	15.58	0	108.46	56	2	2	2333.9
1368.4	4489.22		47.55	10.31	18.05	0	108.94	56	2	2	2320.76
1368.6	4489.87		42.08	10.12	20.52	0	109.42	56	2	2	2259.24
1368.8	4490.53		41.62	9.91	22	0	109.9	56	2	2	2267.46
1369	4491.18		41.72	9.71	22	0	110.39	56	2	2	2268.04
1369.2	4491.84		46.09	9.51	22	0	110.87	42	2	2	2301.43
1369.4	4492.5		46.49	9.32	22	0	111.35	42	2	2	2227.24
1369.6	4493.15		46.31	9.12	21.73	0	111.83	42	2	2	2317.86
1369.8	4493.81		44.96	8.91	20.84	0	112.44	42.67	2	2	2319.8
1370	4494.46		49.69	8.72	19.96	0	113.11	44.89	2	2	2305.98
1370.2	4495.12		47.08	8.52	19.07	0	113.78	47.11	2	2	2273.06
1370.4	4495.78		42.58	8.31	18.18	0	114.45	49.33	2	2	2262.21
1370.6	4496.43		43.84	8.12	18	0	115.12	50	2	2	2288.71
1370.8	4497.09		54.39	7.92	18	0	115.79	50	2	2	2312.74
1371	4497.74		50.77	7.72	18	0	116.46	50	2	2	2290.09
1371.2	4498.4		50.88	7.52	18	0	117.13	50	2	2	2296.76
1371.4	4499.06		49.72	7.32	17.33	0	117.8	50	2	2	2283.43
1371.6	4499.71		48.6	7.12	15.67	0	117.85	48.29	2	2	2295.14
1371.8	4500.37		48.57	6.91	14	0	117.63	42.57	2	2	2287.96
1372	4501.02		47.64	6.72	12.33	0	117.41	36.86	2	2	2292.48
1372.2	4501.68		46.03	6.51	10.67	0	117.19	31.14	2	2	2276.13
1372.4	4502.34		48.07	6.31	10	0	116.97	28	2	2	2290.49
1372.6	4502.99		53.82	6.11	10	0	116.75	28	2	2	2240.81
1372.8	4503.65		52.73	5.91	10	0	116.54	28	2	2	2328.71
1373	4504.3		49.69	5.72	10	0	116.32	28	2	2	2278.62
1373.2	4504.96		43.3	5.52	10.05	0	116.1	28	2	2	2269.19
1373.4	4505.62		53.55	5.31	10.22	0	115.79	28	2	2	2297.14
1373.6	4506.27		63.79	5.12	10.4	0	115.4	30.67	2	2	2290.28
1373.8	4506.93		56.62	4.92	10.57	0	115.01	34	2	2	2326.95
1374	4507.58		56.08	4.71	10.74	0	114.63	37.33	2	2	2256.65
1374.2	4508.24		55.07	4.51	10.91	0	114.24	40.67	2	2	2293.88
1374.4	4508.9		52.86	4.31	11.11	0	113.86	42	2	2	2289.25
1374.6	4509.55		51.79	4.11	11.33	0	113.47	42	2	2	2271.55
1374.8	4510.21		53.68	3.92	11.55	0	113.08	42	2	2	2313.66
1375	4510.86		55.37	3.72	11.77	0	112.7	42.57	2	2	2327.17
1375.2	4511.52		53.11	3.51	11.99	0	112.31	43.21	2	2	2290.89
1375.4	4512.18		51.01	3.32	12	0	112.11	43.84	2	2	2294.87
1375.6	4512.83		51.82	3.11	12	0	112.68	44	2	2	2324.6
1375.8	4513.49		54.66	2.91	12	0	113.25	44	2	2	2342.05
1376	4514.15		54.66	2.71	12	0	113.81	44	2	2	2266.13
1376.2	4514.8		52.95	2.52	12	0	114.38	44	2	2	2316.98
1376.4	4515.46		53.11	2.31	12	0	114.94	44	2	2	2302.45
1376.6	4516.11		56.22	2.11	12	0	115.51	44	2	2	2261.93
1376.8	4516.77		57.06	1.91	12	0	116.08	44	2	2	2302.88
1377	4517.42		92.01	1.71	12	0	116.64	42.7	2	2	2326.53
1377.2	4518.08		49.73	1.52	12	0	117.21	38.98	2	2	2267.21
1377.4	4518.74		81.2	1.32	12	0	117.77	36.61			2298.96
1377.6	4519.39		32.44	1.12				39.67			2328.45
1377.8	4520.05		10.39	29.35				42.72			2302.77
1378	4520.71		84.65	29.15				45.78			2243.88
1378.2	4521.36		32.46	28.94				48.83			2345.95
1378.4	4522.02		36.08	28.74				51.89			2268.2
1378.6	4522.67		51.01	28.54				54.94			2300.15
1378.8	4523.33		57.43	28.34				58			2320.73
1379	4523.98		56.08	28.14				58			2264.79
1379.2	4524.64		53.04	27.94				58			2270.21
1379.4	4525.3		27.42	27.74				58			2299.24
1379.6	4525.95		38.28	27.54				58			2269.19
1379.8	4526.61		40.84	27.34				58			2331.07
1380	4527.26		39.72	27.14				58			2327.24
1380.2	4527.92		54.27	26.94				58			2280.39
1380.4	4528.58		68.12	26.74				58	2	2	2301.21
1380.6	4529.23		65	26.54	51	1		58	2	2	2256.2
1380.8	4529.89		60.68	26.34	56.49	1	110	53.55	2	2	2251.86
1381	4530.54		20.15	26.14	64.32	1	110.39	44.67	2	2	2332.07
1381.2	4531.2		51.98	25.94	72.16	1	110.88	35.78	2	2	2308.37
1381.4	4531.86		49.69	25.75	80	1	111.37	26.89	2	2	2299.92
1381.6	4532.51		65.56	25.54	80.66	1.22	111.87	26	2	2	2292.65
1381.8	4533.17		42.95	25.34	81.32	1.44	112.36	26	2	2	2293.81
1382	4533.82		49.06	25.14	81.98	1.66	112.85	26	2	2	2314.62
1382.2	4534.48		58.34	24.94	82.64	1.88	113.34	26	2	2	2315.39
1382.4	4535.14		53.96	24.74	79.32	1.84	113.83	26	2	2	2331.78
1382.6	4535.79		49.85	24.55	71.14	1.47	112.95	27.05	2	2	2359.88
1382.8	4536.45		52.58	24.34	62.96	1.11	111.33	32.28	2	2	2391.42
1383	4537.1		57.6	24.14	54.77	0.75	109.72	37.52	2	2	2395.5
1383.2	4537.76		55.34	23.94	46.59	0.38	108.1	42.76	2	2	2353.76
1383.4	4538.42		55.64	23.74	38.41	0.02	106.48	48	2	2	2353.31
1383.6	4539.07		49.95	23.54	36.92	0	104.87	48	2	2	2352.87
1383.8	4539.73		45.62	23.34	35.78	0	103.25	48	2	2	2238.96
1384	4540.38		50.6	23.14	34.65	0	101.64	46.95	2	2	2238.76
1384.2	4541.04		52.14	22.94	33.51	0	100.02	44.33	2	2	2185.58
1384.4	4541.7		51.2	22.74	34.54	0.1	98.4	41.71	2	2	2216.51
1384.6	4542.35		54.49	22.54	37.35	0.29	98.63	40	2	2	2230.75
1384.8	4543.01		54.32	22.34	40.15	0.48	99.47	40	2	2	2233.94
1385	4543.67		50.47	22.14	42.95	0.66	100.32	40	2	2	2229.76
1385.2	4544.32		54.59	21.95	45.76	0.85	101.16	40	2	2	2193.39
1385.4	4544.98		56.51	21.74	46.85	0.95	102	40	2	2	2165.84
1385.6	4545.63		76.25	21.54	41.1	0.72	102.84	40	2	2	2190.91
1385.8	4546.29		71.06	21.34	35.36	0.49	103.68	40	2	2	2154.06
1386	4546.94		31.12	21.14	29.61	0.26	104.53	40	2	2	2175.14
1386.2	4547.6		42.33	20.94	23.86	0.03	105.37	40	2	2	2265.01
1386.4	4548.26		45.23	20.74	23.77	0	106.04	40	2	2	2278.13
1386.6	4548.91		53.96	20.54	24.67	0	106.21	40	2	2	2271.03
1386.8	4549.57		42.58	20.34	25.57	0	106.39	40	2	2	2304.69
1387	4550.23		65.16	20.14	26.47	0	106.56	40	2	2	2242.34
1387.2	4550.88		73.65	19.95	27.37	0	106.73	40	2	2	2290.58
1387.4	4551.54		65.16	19.74	27.73	0	106.9	40	2	2	2254.43
1387.6	4552.19		61.19	19.54	26.83	0	107.07	40	2	2	2278.28
1387.8	4552.85		62.04	19.34	25.93	0	107.24	40	2	2	2304.96
1388	4553.5		63.72	19.14	25.03	0	107.42	40	2	2	2307.21
1388.2	4554.16		65.43	18.94	24.13	0	107.59	35.79	2	2	2285.91
1388.4	4554.82		67.92	18.74	23.23	0	107.76	31.58	2	2	2263.82
1388.6	4555.47		69.57	18.54	23	0	107.93	27.37	2	2	2260.43
1388.8	4556.13		71.28	18.34	23	0	108.32	24	2	2	2296.15
1389	4556.79		73.61	18.14	23	0	108.86	24	2	2	2263.89
1389.2	4557.44		61.12	17.94	23	0	109.41	24	2	2	2294.11
1389.4	4558.1		54.26	17.74	23	0	109.95	24	2	2	2275.51
1389.6	4558.75		58.92	17.55	23	0	110.49	24	2	2	2311.1
1389.8	4559.41		63.46	17.34	22.72	0	111.03	24	2	2	2249.1
1390	4560.06		65.92	17.14	20.82	0	111.57	24	2	2	2304.36
1390.2	4560.72		63.96	16.94	18.93	0	112.11	24	2	2	2286.51
1390.4	4561.38		58.78	16.75	17.03	0	112.65	24.17	2	2	2308.95
1390.6	4562.03		41.85	16.55	15.14	0	113.19	27.55	2	2	2254.9
1390.8	4562.69		51.79	16.34	13.94	0	113.73	30.93	2	2	2290.05
1391	4563.35		56.42	16.14	13.8	0	114.16	34.31	2	2	2259.35
1391.2	4564		86.41	15.94	13.65	0	114.48	36	2	2	2294.23
1391.4	4564.66		70.27	15.74	13.51	0	114.8	36	2	2	2326.68
1391.6	4565.31		70.36	15.54	13.36	0	115.12	36	2	2	2297.83
1391.8	4565.97		70.93	15.34	13.22	0	115.43	36	2	2	2269.39
1392	4566.62		66.68	15.14	13.07	0	115.75	36	2	2	2256.83
1392.2	4567.28		64.12	14.94	13.8	0	116.07	36	2	2	2295.62
1392.4	4567.94		61.93	14.75	15.41	0	116.39	36	2	2	2266.29
1392.6	4568.59		62.88	14.55	17.02	0	116.71	36	2	2	2279.98
1392.8	4569.25		65.4	14.34	18.63	0	117.03	35.78	2	2	2266.8
1393	4569.91		65.92	14.14	20.23	0	117.35	34.67	2	2	2281.14
1393.2	4570.56		64.12	13.94	21.84	0	117.67	33.56	2	2	2247.64
1393.4	4571.22		62.44	13.74	22	0	117.98	32.44	2	2	2274.69
1393.6	4571.87		60.13	13.54	22	0	118	32	2	2	2308.96
1393.8	4572.53		59.44	13.34	22	0	118	32	2	2	2328.31
1394	4573.19		55.78	13.14	22	0	118	32	2	2	2351.06
1394.2	4573.84		65.76	12.95	22	0	118	32	2	2	2286.8
1394.4	4574.5		56.11	12.74	22	0	118	32	2	2.24	2288.41
1394.6	4575.15		57.28	12.54	24.34	0	118	35.05	2	2.61	2286.73
