~Version Information											
VERS.                       2.00: SCHLUMBERGER LAS - Version 2.00											
WRAP.                         NO: One line per depth step											
~Well Information											
STRT.FT                1135.0000: Start Depth											
STOP.FT                2399.0000: End Depth											
STEP.FT                   0.2000:  											
											
COMP.                    Bapetco: COMPANY											
WELL.                   BED-18 M: WELL											
FLD .                        BED: FLD											
SRVC.               Schlumberger: SERVICE COMPANY											
LOC .                           : LOCATION											
DATE.                  20-Oct-19: LOG DATE											
UWI .                  19EGP0341: API NUMBER											
~Curve Information											
DEPT.FT                         : MWD Tool Measurement Depth											
MTTVD.FT                         : MWD Tool Measurement TVD											
PSPD.M/MIN                      : Instantaneous Pipe Speed											
ROP .M/HR                       : Rate of Penetration (MWD Depth Ave.)											
KPOSI.M                          : Kelly Position (Raw)											
SSS_H.                           : Stick Slip Percentage from HDS1											
SSL_H.                           : Stick Slip Level from HDS1											
RPM_H.                           : Average RPM from HDS1											
VIBC.CPS                        : Vibration Count											
VIBXYH.                           : Vibration XY											
VIBZH.                           : Vibration Z											
SPP I.PSI                        : Standpipe Pressure (Raw)											
DEPT	MTTVD	PSPD	ROP	KPOSI	SSS_H	SSL_H	RPM_H	VIBC	VIBXYH	VIBZH	SPP
M	FT	M/MIN	M/HR	M				CPS			PSI
#											
# Relog Number     0         0         0         0         0         0         0         0         0         0         0											
#											
~ASCII Data											
# ...
1816	5957.41		19.21	23.9	28.45	0.03	77.97	92.1	2.54	2	1995.28
1816.2	5958.06		131.66	23.7	32.97	0.35	77.65	90	3.11	2	2004.9
1816.4	5958.72		17.51	23.5	37.48	0.68	77.32	90	3.69	2	2036.79
1816.6	5959.38		124	23.3	42	1	77	90	3.65	2	1983.97
1816.8	5960.03		29.24	23.1	49.56	1	76.68	90	2.88	2	2026.28
1817	5960.69		22.99	22.91	57.11	1	76.35	104	2.12	2	2035.18
1817.2	5961.34		39.27	22.71	52	0.75	76.03	118	2.6	2	2034.75
1817.4	5962		27.4	22.51	42.67	0.42	76.36	118	3.3	2	2096.73
1817.6	5962.66		22.09	22.3	33.33	0.08	76.76	118	4	2	2067.31
1817.8	5963.31		25.49	22.1	53.37	0.79	77.16	118	3.22	2	2053.02
1818	5963.97		31.62	21.9	83.19	1.84	77.56	113.88	2.43	2	2050.08
1818.2	5964.62		38.42	21.7	113.02	2.89	77.96	100.17	2	2	2036.68
1818.4	5965.28		20.24	21.5	88.53	2.05	77.73	94	2	2	2093.3
1818.6	5965.94		39.33	21.3	58	1	77.43	94	2	2	2067.44
1818.8	5966.59		36.52	21.1	29	0	77.13	94	2	2	2061.89
1819	5967.25		41.63	20.9	29	0	76.84	91.85	2	2	2058.33
1819.2	5967.91		43.33	20.7	29	0	76.54	90	2	2	2072.79
1819.4	5968.56		31.47	20.5	29	0	76.24	90	2.26	2	2024.8
1819.6	5969.22		20.75	20.3	26.44	0	76.08	93.57	2.9	2	2054.47
1819.8	5969.87		110.14	20.1	23.24	0	76.48	105.49	3.55	2	2079.68
1820	5970.53		16.97	19.9	21.2	0	76.87	117.4	3.73	2	2035.8
1820.2	5971.19		32.46	19.7	21.85	0	77.27	118	2.84	2	2048.39
1820.4	5971.84		23.99	19.5	22.51	0	77.66	118	2	2	2067.52
1820.6	5972.5		33.84	19.3	23.57	0	78	118	2	2	2064.5
1820.8	5973.15		35.13	19.1	25.87	0	78	115.07	2	2	2038.81
1821	5973.81		42.42	18.9	28.16	0	78	109.22	2	2	2033.79
1821.2	5974.47		20.49	18.7	29.3	0	78	106	2	2	2025.62
1821.4	5975.12		15.25	18.5	25.91	0	78	106	2	2	2045.28
1821.6	5975.78		107.34	18.3	24.2	0	78	106	2	2	2031.93
1821.8	5976.43		26.44	18.1	22.49	0	78	105.35	2	2	2034.78
1822	5977.09		23.46	17.9	20.77	0	78	104.35	2	2	2042.49
1822.2	5977.75		33.21	17.7	19.53	0	78	104	2	2	2048.99
1822.4	5978.4		21.87	17.5	18.68	0	78	106.63	2	2	2042.41
1822.6	5979.06		29.07	17.3	18.23	0	78	115.37	2.36	2	2011.77
1822.8	5979.71		32.94	17.11	19.41	0	76.61	118	2.87	2	2049.32
1823	5980.37		29.36	16.9	20.59	0	74.97	118	3.38	2	2064.29
1823.2	5981.03		164.14	16.7	21.76	0	73.33	118	3.9	2	2079.58
1823.4	5981.68		18.32	16.5	27.53	0.29	71.69	118	3.26	2	2053.19
1823.6	5982.34		26.34	16.3	34.44	0.65	70.05	118	2.33	2	2039.61
1823.8	5983		35.27	16.1	41	1	68.41	118	2	2	2031.93
1824	5983.65		26.94	15.9	41	1	69.39	118	2	2	2082.94
1824.2	5984.31		32.75	15.7	41	1	71.24	118	2	2	2057.34
1824.4	5984.96		42.16	15.5	41	1	73.09	118	2	2	2050.8
1824.6	5985.62		23.56	15.3	35.72	0.62	74.94	118	2	2	2057.42
1824.8	5986.28		29.05	15.1	30.44	0.25	76.8	113.23	2	2	2051.58
1825	5986.93		32.5	14.9	27.24	0	77.68	102.65	2	2	2077.3
1825.2	5987.59		22.48	14.7	27.93	0	76.76	100	2	2	2084.61
1825.4	5988.24		31.05	14.5	28.62	0	75.84	100	2	2	2016.95
1825.6	5988.9		15.72	14.3	28.38	0	74.92	100	2	2	2091.15
1825.8	5989.56		81.22	14.1	27	0	74	109.5	2	2	2040.47
1826	5990.21		11.68	13.9	27.74	0	76.04	112	3.48	2	2018.81
1826.2	5990.87		17.44	13.7	29.86	0	78.08	112	4	2	2036.51
1826.4	5991.52		100.19	13.5	32.72	0	80.12	117	4	2	2060.98
1826.6	5992.18		26.66	13.3	35.57	0	82.16	120	3.86	2	2063.77
1826.8	5992.84		33.88	13.1	36.83	0	83.9	120	3.32	2	2055.11
1827	5993.49		30.21	12.9	36.5	0	82.89	144.74	2.77	2	2070.95
1827.2	5994.15		30.7	12.7	36.17	0	81.88	170.79	2.22	2	2066.47
1827.4	5994.81		22.65	12.5	33.72	0	80.87	176	2.48	2	2041.43
1827.6	5995.46		29.32	12.3	29.16	0	79.87	176	3.28	2	2075.44
1827.8	5996.12		48.97	12.1	24.6	0	78.86	175.82	4	2	2027.6
1828	5996.77		46.49	11.9	23	0	77.94	172.18	4	2	2037.15
1828.2	5997.43		10.23	11.7	24.02	0	77.54	168.55	4	2	2077.47
1828.4	5998.09		88.65	11.51	25.23	0	77.15	168	4	2	2064.61
1828.6	5998.74		31.57	11.3	26.43	0	76.75	168	4	2	2016.44
1828.8	5999.4		42.08	11.1	27.64	0	76.36	168	4	2	2023.45
1829	6000.05		43.01	10.9	28	0	75.91	168	4	2	2032.98
1829.2	6000.71		33.17	10.7	28	0	75.01	163.52	4	2	2084.99
1829.4	6001.37		58.68	10.5	28	0	74.11	157.55	4	2	2073.64
1829.6	6002.02		50.74	10.3	28	0	73.21	151.58	4	2	2036.66
1829.8	6002.68		43.61	10.1	26.55	0	72.31	148	2.97	2	2046.66
1830	6003.33		1.58	9.9	19.73	0	71.41	153.1	2.11	2.11	2069.78
1830.2	6003.99		57.42	9.7	17.04	0	70.5	204.1	3.26	3.26	2000.14
1830.4	6004.65		69.96	9.5	14.35	0	69.6	250	4	3.77	2002.34
1830.6	6005.3		68.28	9.3	16.1	0	68.7	250	4	3.11	2008.15
1830.8	6005.96		28.47	9.1	22.31	0	67.8	250	4	2.46	2010.44
1831	6006.61		23.64	8.9	28.52	0	66.9	208	4	2	2019.82
1831.2	6007.27		84.97	8.7	31	0	66	148	4	2	2057.45
1831.4	6007.93		42.52	8.51	31	0	68.12	136	4	2	2012.16
1831.6	6008.58		32.78	8.3	31	0	70.25	136	4	2	2068.78
1831.8	6009.24		27.96	8.1	31	0	72.37	136	4.51	2	2013.27
1832	6009.9		18.84	7.9	27.4	0	74.5	136	5.79	2	2029.95
1832.2	6010.55		26.08	7.7	24	0	76.62	145.23	6.17	2	2021.07
1832.4	6011.21		28.42	7.5	24	0	77.88	155.49	5.43	2	2033.71
1832.6	6011.86		30.72	7.3	24	0	77.53	156	4.7	2	1994.74
1832.8	6012.52		25.03	7.1	24.06	0	77.18	156	4	2	2042.56
1833	6013.18		77.54	6.9	25.26	0	76.83	156	4	2	2038.53
1833.2	6013.83		28.18	6.7	26.46	0	76.49	156	4	2	2003
1833.4	6014.49		26.02	6.5	26.62	0	76.14	141.53	4	2	2046.96
1833.6	6015.14		7.59	6.3	25.76	0	76.92	146.93	4	2	2053.47
1833.8	6015.8		73.05	6.1	23.38	0	78.46	178	4	2	2064.38
1834	6016.46		12.49	5.9	21	0	80	178	4	2	2043.43
1834.2	6017.11		14.61	5.7	21.87	0	78.82	158	4	4	2075.51
1834.4	6017.77		1.43	5.5	19.23	0	78	183.22	4.94	3.69	2036.61
1834.6	6018.42		41.8	5.3	10	0	78	248	6.5	6.03	1980.33
1834.8	6019.08		19.17	5.1	19.09	0	76.64	248	6.5	5.08	2085.94
1835	6019.74		32.46	4.9	28.18	0	75.13	248	6.5	4.14	2066.31
1835.2	6020.39		44.77	4.7	35	0	73.62	248	6.5	3.26	2075.24
1835.4	6021.05		25.7	4.51	35	0	72.11	248	6.5	2.39	2052.74
1835.6	6021.7		19.69	4.3	35	0	70.6	201.94	6.5	2	2018.77
1835.8	6022.36		22.14	4.1	33.71	0	70.34	164	6.5	2	2073.85
1836	6023.02		53.23	3.9	32.42	0	70.91	164	6.5	2	2056.37
1836.2	6023.67		35.91	3.7	31.13	0	71.49	164	6.5	2	2048.76
1836.4	6024.33		48.49	3.5	31	0	72.06	164	6.5	2	2101.5
1836.6	6024.98		27.67	3.3	31	0	72.63	163.77	6.5	2	2027.7
1836.8	6025.64		36.24	3.1	31	0	73.2	163.1	6.38	2	2015.49
1837	6026.3		72.33	2.9	29.65	0	73.77	162.43	5.88	2	2049.98
1837.2	6026.95		64.96	2.7	27.73	0		162	5.38	2	2088.19
1837.4	6027.61		44.8	2.5	25.81	0		162	4.88	2	2069.99
1837.6	6028.27		43.29	2.3	23.88	0		162	4.38	2	2065.17
1837.8	6028.92		46.58	2.1	21.96	0		162	4	2.1	2090.44
1838	6029.58		42.11	1.9	21	0		162	4	2.52	2063.8
1838.2	6030.23		65.33	1.7				162	4	2.93	2055.14
1838.4	6030.89		57.09	1.5				162	4	3.34	2068.58
1838.6	6031.55		50.57	1.31				172.31	4	3.75	2064.95
1838.8	6032.2		58.3	1.1				184.44	4	4	2027.06
1839	6032.86		27.74	29.63				196.58			1979.41
1839.2	6033.51		114.36	29.43				208.71			2047.98
1839.4	6034.17		20.04	29.23				220.84			1989.55
1839.6	6034.83		48.9	29.03				232.97			2090.25
1839.8	6035.48		52.39	28.83				245.11			2076.16
1840	6036.14		72.51	28.63				257.24			2070
1840.2	6036.79		71.85	28.43				269.37			2012.48
1840.4	6037.45		66.88	28.23				281.5			2045.87
1840.6	6038.11		68.16	28.03				290			2066.14
1840.8	6038.76		45.71	27.83				290			2044.69
1841	6039.42		70.43	27.63				290			2020.44
1841.2	6040.08		61.96	27.43				290			2046.97
1841.4	6040.73		70.84	27.22				290			2032.19
1841.6	6041.39		54.02	27.03				290			2023.26
1841.8	6042.04		40.65	26.83				290			2064.71
1842	6042.7		53.62	26.65				290			2083.35
1842.2	6043.36		66.57	26.63				290			2068.59
1842.4	6044.01		32.16	26.48				290			2083.91
1842.6	6044.67		52.97	26.28				290	6.5	4	2036.63
1842.8	6045.32		54.38	26.08	40	0		290	7.23	4	2045.73
1843	6045.98		20.67	25.87	33.19	0	87.57	288.59	8.19	4	2093.85
1843.2	6046.64		76.24	25.68	26.38	0	86.5	286.24	9.16	4	2078.59
1843.4	6047.29		15.61	25.48	27.25	0	85.43	284	8.61	4	2098.21
1843.6	6047.95		26.58	25.28	32.25	0	84.36	284	7.25	4	2087.34
1843.8	6048.6		63.49	25.08	37.25	0	83.29	284	6.25	4	2057.67
1844	6049.26		62.44	24.88	38.73	0	82.21	284	5.7	4	2059.56
1844.2	6049.92		31.09	24.68	35.92	0	81.81	278.79	5.15	4	2101.2
1844.4	6050.57		35.14	24.48	33.1	0	81.57	273.32	4.6	4	2087.71
1844.6	6051.23		50.13	24.27	30.28	0	81.33	267.84	4.05	4	2097.78
