~Version Information											
VERS.                       2.00: SCHLUMBERGER LAS - Version 2.00											
WRAP.                         NO: One line per depth step											
~Well Information											
STRT.FT                1135.0000: Start Depth											
STOP.FT                2399.0000: End Depth											
STEP.FT                   0.2000:  											
											
COMP.                    Bapetco: COMPANY											
WELL.                   BED-18 M: WELL											
FLD .                        BED: FLD											
SRVC.               Schlumberger: SERVICE COMPANY											
LOC .                           : LOCATION											
DATE.                  20-Oct-19: LOG DATE											
UWI .                  19EGP0341: API NUMBER											
~Curve Information											
DEPT.FT                         : MWD Tool Measurement Depth											
MTTVD.FT                         : MWD Tool Measurement TVD											
PSPD.M/MIN                      : Instantaneous Pipe Speed											
ROP .M/HR                       : Rate of Penetration (MWD Depth Ave.)											
KPOSI.M                          : Kelly Position (Raw)											
SSS_H.                           : Stick Slip Percentage from HDS1											
SSL_H.                           : Stick Slip Level from HDS1											
RPM_H.                           : Average RPM from HDS1											
VIBC.CPS                        : Vibration Count											
VIBXYH.                           : Vibration XY											
VIBZH.                           : Vibration Z											
SPP I.PSI                        : Standpipe Pressure (Raw)											
DEPT	MTTVD	PSPD	ROP	KPOSI	SSS_H	SSL_H	RPM_H	VIBC	VIBXYH	VIBZH	SPP
M	FT	M/MIN	M/HR	M				CPS			PSI
#											
# Relog Number     0         0         0         0         0         0         0         0         0         0         0											
#											
~ASCII Data											
# ...
1589.4	5214.09		30.14	21.8	16.92	0	110	314.4	10.25	4	2686.57
1589.6	5214.75		24.79	21.59	16.54	0	110	316	11.5	4	2733.77
1589.8	5215.41		29.29	21.39	16.15	0	110	316	12.75	4	2725.23
1590	5216.06		21.85	21.19	16.29	0	110	316	11.49	4	2721.6
1590.2	5216.72		27.52	20.99	16.76	0	110	319.43	9.59	4	2681.02
1590.4	5217.38		22	20.8	16.3	0	109.92	328	9.5	4	2715.43
1590.6	5218.03		21.72	20.59	14.91	0	109.5	328	9.5	4	2720.47
1590.8	5218.69		18.58	20.39	14.43	0	109.08	328	10.18	4	2721.52
1591	5219.34		54.63	20.19	15.65	0	108.67	328	11.71	4	2691.16
1591.2	5220		22.97	19.99	16.88	0	108.25	349	13	4	2660.52
1591.4	5220.65		24.55	19.79	15.69	0	108.16	370	13	4	2717.12
1591.6	5221.31		24.43	19.59	14.24	0	108.55	370	13	4	2716.73
1591.8	5221.97		29.88	19.39	12.88	0	108.94	370	13	4	2717.49
1592	5222.62		33.97	19.19	12.06	0	109.33	370	13	4	2693.51
1592.2	5223.28		21.68	19	11.24	0	109.73	366.28	13	4	2683.31
1592.4	5223.94		29.2	18.8	11.84	0	109.88	362	13	4	2738.82
1592.6	5224.59		22.21	18.59	13.04	0	109.5	362	13	4	2730.06
1592.8	5225.25		31.98	18.4	13.93	0	109.11	362	12.25	4	2681.11
1593	5225.9		28.51	18.19	13.56	0	108.72	362	11	4	2706.84
1593.2	5226.56		34.74	17.99	13.2	0	108.33	314	9.75	4	2659.98
1593.4	5227.22		22.55	17.79	13.5	0	108	314	10.54	4	2694.1
1593.6	5227.87		28.43	17.59	14.61	0	108	317.43	11.83	4	2724.6
1593.8	5228.53		29.09	17.39	15.72	0	108	321.24	13	4	2688.75
1594	5229.18		27.14	17.19	14	0	108	322	13	4	2747.8
1594.2	5229.84		24.65	16.99	11.33	0	108	322	13	4	2679.97
1594.4	5230.5		25.43	16.79	10.59	0	108.08	322	11.86	4	2723.53
1594.6	5231.15		25.98	16.59	11.76	0	108.51	311.2	10.51	4	2750.3
1594.8	5231.81		24.84	16.39	12.94	0	108.93	299.2	9.5	4	2661.97
1595	5232.46		23.17	16.19	14.85	0	109.35	298	9.5	4	2691.71
1595.2	5233.12		24.11	15.99	16.81	0	109.77	298	9.5	4	2721.08
1595.4	5233.78		27.52	15.79	15.96	0	110.19	299.08	9.5	4	2710.27
1595.6	5234.43		25.77	15.59	14.81	0	110.62	304.49	9.5	4	2715.79
1595.8	5235.09		23.59	15.39	13.43	0	111.05	308	9.5	4	2716.58
1596	5235.74		23.85	15.19	11.52	0	111.48	307.59	9.5	4	2697.84
1596.2	5236.4		23.77	14.99	11.25	0	111.91	299.31	8.81	4	2761.16
1596.4	5237.06		23.46	14.79	17.5	0	111.63	296	7.56	4	2749.1
1596.6	5237.71		23.08	14.59	23.75	0	111.16	296	7	4	2725.81
1596.8	5238.37		21.61	14.39	21.97	0	110.7	296	10.33	4	2736.57
1597	5239.02		21.29	14.19	18.19	0	110.23	305.43	12.71	4	2710.91
1597.2	5239.68		24.26	13.99	17.25	0	110	318	11.25	4	2723.4
1597.4	5240.34		26.42	13.79	16.47	0	110	318	9.79	4	2736.84
1597.6	5240.99		26.5	13.59	16	0	110	318	9.5	4	2728.64
1597.8	5241.65		23.59	13.39	16	0	110	321.11	9.5	4	2744
1598	5242.3		22.88	13.19	15.43	0	110	341.85	9.5	4	2706.63
1598.2	5242.96		21.86	12.99	13.81	0	110.4	346	9.5	4	2734.87
1598.4	5243.62		15.12	12.79	13.62	0	110.85	346	9.5	4	2737.87
1598.6	5244.27		29.88	12.6	14.87	0	111.3	344.23	9.5	4	2730.27
1598.8	5244.93		29.57	12.4	16.03	0	111.75	332.47	9.5	4	2681.6
1599	5245.58		32.08	12.19	16.37	0	111.81	326	9.5	4	2680.11
1599.2	5246.24		25.29	11.99	16.71	0	111.4	326	9.5	4	2733.73
1599.4	5246.9		25.39	11.79	17	0	110.99	326	9.5	4	2752.35
1599.6	5247.55		27.82	11.59	17	0	110.58	326	9.5	4	2751.68
1599.8	5248.21		27.36	11.39	17	0	110.16	331.94	9.5	4	2715.92
1600	5248.86		26.62	11.19	21.58	0	109.8	336	9.5	4	2733.26
1600.2	5249.52		26.94	10.99	26.66	0	109.46	336	9.5	4	2733.28
1600.4	5250.18		34.26	10.79	31.74	0	109.12	336	9.5	4	2705.73
1600.6	5250.83		36.29	10.59	28.95	0	108.78	328.5	9.5	4	2757.35
1600.8	5251.49		26.11	10.39	25.73	0	108.44	326	9.5	4	2693.2
1601	5252.14		36.17	10.19	22.95	0	108.1	326	8.95	4	2698
1601.2	5252.8		26.26	10	22.62	0	107.76	305	7.95	4	2727.44
1601.4	5253.46		31.11	9.79	22.3	0	107.43	275	6.95	4	2736.02
1601.6	5254.11		34.07	9.59	22.11	0	107.09	248	6.5	4	2728.78
1601.8	5254.77		33.42	9.39	23.18	0	106.76	248	6.5	4	2695.52
1602	5255.42		33.24	9.2	24.25	0	106.42	248	6.5	4	2708
1602.2	5256.08		31.26	8.99	24.8	0	106.08	248	6.5	4	2737.74
1602.4	5256.74		30.71	8.8	24.15	0	105.72	257.5	6.5	4	2738.98
1602.6	5257.39		29.06	8.59	23.49	0	105.35	273.33	6.5	4	2709.44
1602.8	5258.05		29.9	8.39	23.1	0	104.98	286	6.5	4	2709.64
1603	5258.7		28.28	8.19	23.5	0	104.61	286	6.5	4	2713.71
1603.2	5259.36		27.47	7.99	23.9	0	104.24	288.28	7.1	4	2704.6
1603.4	5260.02		26.45	7.66	36	0	103.76	310	9.5	4	2710.78
1603.6	5260.67		8.54	7.19	36	0	103.08	310	9.5	4	2700.8
1603.8	5261.33		25.9	6.99	36	0	102.41	320.35	9.5	4	2702.77
1604	5261.98		24.99	6.79	30	0	101.82	330	9.5	4	2714.91
1604.2	5262.64		24.56	6.59	22.94	0	101.36	330	9.5	4	2711.69
1604.4	5263.3		23.22	6.39	20.55	0	100.91	330	9.5	3.4	2717.27
1604.6	5263.95		22.89	6.19	29.05	0	100.45	314.59	9.5	2.4	2689.9
1604.8	5264.61		24.3	6	39.43	0.14	100	237.42	8.73	2	2773.52
1605	5265.26		24.37	5.79	54.19	0.62	99.04	222	7.46	2	2762.06
1605.2	5265.92		14.47	5.59	66	1	98.07	222	6.5	2.29	2742.01
1605.4	5266.58		26.23	5.39	66	1	97.11	235.03	6.5	3.47	2703.2
1605.6	5267.23		27.13	5.19	63.13	0.93	96.14	287.14	7.1	4	2745.51
1605.8	5267.89		27.54	4.99	48.74	0.58	97.27	308	8.19	4	2751.46
1606	5268.54		28.63	4.8	34.35	0.23	98.77	308	9.28	4	2744.68
1606.2	5269.2		29.39	4.59	25	0	100.26	308	8.58	4	2719.09
1606.4	5269.86		28.02	4.39	25	0	101.76	308	7.42	4	2725.49
1606.6	5270.51		28.58	4.19	25	0	103.25	317	6.5	4	2714.42
1606.8	5271.17		28.63	4	26.97	0	104.19	324	6.5	4	2724.04
1607	5271.82		27.89	3.79	29.03	0	104.57	324	6.5	4	2731.22
1607.2	5272.48		28.58	3.6	31	0	104.95	324	6.5	4	2694.33
1607.4	5273.14		28.02	3.39	31	0	105.33	321	6.5	4	2686.87
1607.6	5273.79		28.5	3.19	31	0	105.71	300	6.5	4	2676.07
1607.8	5274.45		0.73	2.98	28.83	0	105.87	300	6.5	4	2708.09
1608	5275.1		3.66	2.72	25.5	0	105.36	295	6.5	4	2742.21
1608.2	5275.76		20.5	2.51	23.13	0	104.85	290	7.44	4	2711.5
1608.4	5276.42		27.2	1.17	23.66	0	104.33	290	9.16	4	2679.41
1608.6	5277.07		28.05	1.26	20.94	0	104	310	9.5	4	2747.68
1608.8	5277.73										
1609	5278.38										
1609.2	5279.04										
1609.4	5279.7										
1609.6	5280.35										
1609.8	5281.01										
1610	5281.67										
1610.2	5282.32										
1610.4	5282.98										
1610.6	5283.63										
1610.8	5284.29										
1611	5284.94										
1611.2	5285.6										
1611.4	5286.26										
1611.6	5286.91										
1611.8	5287.57										
1612	5288.23										
1612.2	5288.88										
1612.4	5289.54										
1612.6	5290.19										
1612.8	5290.85										
1613	5291.5										
1613.2	5292.16										
1613.4	5292.82										
1613.6	5293.47										
1613.8	5294.13										
1614	5294.79										
1614.2	5295.44										
1614.4	5296.1										
1614.6	5296.75										
1614.8	5297.41										
1615	5298.07										
1615.2	5298.72										
1615.4	5299.38										
1615.6	5300.03										
1615.8	5300.69										
1616	5301.35										
1616.2	5302										
1616.4	5302.66										
1616.6	5303.31										
1616.8	5303.97										
1617	5304.63										
1617.2	5305.28										
1617.4	5305.94										
1617.6	5306.59										
1617.8	5307.25										
1618	5307.91										
1618.2	5308.56										
1618.4	5309.22										
1618.6	5309.87										
1618.8	5310.53										
1619	5311.19										
1619.2	5311.84										
1619.4	5312.5										
1619.6	5313.15										
1619.8	5313.81										
1620	5314.47										
1620.2	5315.12										
1620.4	5315.78										
1620.6	5316.43										
1620.8	5317.09										
1621	5317.75										
1621.2	5318.4										
1621.4	5319.06										
1621.6	5319.71										
1621.8	5320.37										
1622	5321.03										
1622.2	5321.68										
1622.4	5322.34										
1622.6	5322.99										
1622.8	5323.65										
1623	5324.31										
1623.2	5324.96										
1623.4	5325.62										
1623.6	5326.27										
1623.8	5326.93										
1624	5327.59										
1624.2	5328.24										
1624.4	5328.9										
1624.6	5329.55										
1624.8	5330.21										
1625	5330.87										
1625.2	5331.52										
1625.4	5332.18										
1625.6	5332.83										
1625.8	5333.49										
1626	5334.15										
1626.2	5334.8										
1626.4	5335.46										
1626.6	5336.11										
1626.8	5336.77										
1627	5337.43										
