~Version Information											
VERS.                       2.00: SCHLUMBERGER LAS - Version 2.00											
WRAP.                         NO: One line per depth step											
~Well Information											
STRT.FT                1135.0000: Start Depth											
STOP.FT                2399.0000: End Depth											
STEP.FT                   0.2000:  											
											
COMP.                    Bapetco: COMPANY											
WELL.                   BED-18 M: WELL											
FLD .                        BED: FLD											
SRVC.               Schlumberger: SERVICE COMPANY											
LOC .                           : LOCATION											
DATE.                  20-Oct-19: LOG DATE											
UWI .                  19EGP0341: API NUMBER											
~Curve Information											
DEPT.FT                         : MWD Tool Measurement Depth											
MTTVD.FT                         : MWD Tool Measurement TVD											
PSPD.M/MIN                      : Instantaneous Pipe Speed											
ROP .M/HR                       : Rate of Penetration (MWD Depth Ave.)											
KPOSI.M                          : Kelly Position (Raw)											
SSS_H.                           : Stick Slip Percentage from HDS1											
SSL_H.                           : Stick Slip Level from HDS1											
RPM_H.                           : Average RPM from HDS1											
VIBC.CPS                        : Vibration Count											
VIBXYH.                           : Vibration XY											
VIBZH.                           : Vibration Z											
SPP I.PSI                        : Standpipe Pressure (Raw)											
DEPT	MTTVD	PSPD	ROP	KPOSI	SSS_H	SSL_H	RPM_H	VIBC	VIBXYH	VIBZH	SPP
M	FT	M/MIN	M/HR	M				CPS			PSI
#											
# Relog Number     0         0         0         0         0         0         0         0         0         0         0											
#											
~ASCII Data											
# ...
2125.8	6972.94		12.7	2.38	209.65	3	77.25	28	2	2	2178.83
2126	6973.59		18.63	2.18	221.41	3	75.38	28	2	2	2167.94
2126.2	6974.25		18.57	1.98	222	3	73.5	28	2	2	2139.35
2126.4	6974.9		17.01	1.78	219.95	3	72	26.21	2	2	2185.82
2126.6	6975.56		15.45	1.58	209.66	3	72	26	2	2	2172.35
2126.8	6976.21		13.67	1.38	200.59	3	72	23	2	2	2172.46
2127	6976.87		27.84	1.18	193	3	72	58.73	2.16	2	2175.2
2127.2	6977.52		11.74	29.69	152.37	2.37	74.11	97.41	2.57	2	2187.34
2127.4	6978.18		215.94	29.69	111.73	1.74	76.75	136.08	2.97	2	2173.79
2127.6	6978.83		6.59	29.6	71.1	1.11	79.38	138	3.37	2	2171.25
2127.8	6979.49		22.31	29.4	30.47	0.47	82.02	138	3.78	2	2183.95
2128	6980.14		15.61	29.2	27.08	0.44	83.74	138	3.33	2	2184.74
2128.2	6980.8		14.29	29	135.29	2.21	82.72	129.69	2	2	2220.9
2128.4	6981.45		22.38	28.8	130.57	2.06	81.69	126	2	2	2211.36
2128.6	6982.11		19.69	28.59	33.38	0.34	80.67	126	2	2	2205.57
2128.8	6982.76		28.05	28.39	13.67	0	79.35	123.19	2	2	2241.18
2129	6983.42		18.78	28.2	13.25	0	77.51	111.94	2	2	2250.29
2129.2	6984.07		20.33	27.99	77.95	1.04	75.66	108	2	2	2258.12
2129.4	6984.73		13.18	27.79	204.58	3	74.12	38.08	2	2	2226.55
2129.6	6985.38		18.24	27.6	222.92	3	75.33	34	2	2	2266.72
2129.8	6986.04		16.89	27.39	233	3	76.55	34	2	2	2263.93
2130	6986.69		16.15	27.19	228.56	3	77.76	32.48	2	2	2155.78
2130.2	6987.35		19.03	26.99	215.88	3	72.67	32	2	2	2153.42
2130.4	6988		15.03	26.8	217.49	3	66	32	2	2	2095.17
2130.6	6988.66		13.85	26.59	247.21	3	59.33	36.09	2	2	2127.11
2130.8	6989.32		27.05	26.39	229.2	3	60.35	38	2	2	2183.37
2131	6989.97		16.97	26.19	212.93	3	63.29	38	2	2	2205.85
2131.2	6990.63		13.72	26	212.19	3	66.23	37.47	2	2	2171
2131.4	6991.28		22.23	25.8	211.59	3	69.14	36	2	2	2180.47
2131.6	6991.94		16.56	25.6	211.05	3	72	36	2	2	2194.79
2131.8	6992.59		23.98	25.39	205.65	3	74.86	36	2	2	2166.89
2132	6993.25		16.76	25.19	200.35	3	77.71	27.05	2	2	2171.85
2132.2	6993.9		15.37	25	207.24	3	71.35	26	2	2	2203.53
2132.4	6994.56		19.48	24.79	210	3	63.97	31.54	2	2	2175.74
2132.6	6995.21		15.55	24.59	210	3	56.58	32	2	2	2190.55
2132.8	6995.87		17.75	24.4	213.43	3	54.43	30.15	2	2	2199.88
2133	6996.52		13.93	24.2	217.9	3	55.08	28	2	2	2159.51
2133.2	6997.18		23.32	23.99	225.48	3	55.74	28	2	2	2173.79
2133.4	6997.83		14.64	23.8	223.97	3	58.43	28	2	2	2182.43
2133.6	6998.49		21.97	23.6	220.19	3	62.49	28	2	2	2172.99
2133.8	6999.14		16.47	23.39	211.55	3	66.55	28	2	2	2156.88
2134	6999.8		16.47	23.19	213.84	3	69.68	28.67	2	2	2189.01
2134.2	7000.45		16.64	22.99	223.57	3	67.58	32	2	2	2183.35
2134.4	7001.11		13.15	22.79	240.29	3	65.47	33.88	2	2	2201.17
2134.6	7001.77		19.1	22.59	246	3	64.21	40	2	2	2178.54
2134.8	7002.42		15.2	22.4	246	3	64.9	40	2	2	2186.73
2135	7003.08		16.68	22.19	217.96	3	65.59	38.82	2	2	2206.74
2135.2	7003.73		12.84	21.99	217	3	66.53	30	2	2	2181.03
2135.4	7004.39		15.24	21.8	222.4	3	67.87	30	2	2	2208.45
2135.6	7005.04		18.18	21.59	231.73	3	69.2	28.83	2	2	2177.34
2135.8	7005.7		14.2	21.4	227.03	3	69.75	20	2	2	2218.46
2136	7006.35		19.27	21.19	216	3	69.11	20	2	2	2191.57
2136.2	7007.01		20.32	20.99	216	3	68.48	20.2	2	2	2194.48
2136.4	7007.66		14.67	20.79	219.08	3	67.85	22	2	2	2199.88
2136.6	7008.32		12.52	20.6	224.68	3	67.26	22	2	2	2168.35
2136.8	7008.97		21.27	20.4	228.1	3	66.68	18	2	2	2173.37
2137	7009.63		25.03	20.2	231	3	66.09	18	2	2	2180.33
2137.2	7010.28		15.92	20	231	3	67.06	24.8	2	2	2228.81
2137.4	7010.94		13.43	19.8	235.78	3	68.31	28	2	2	2207.01
2137.6	7011.59		26.52	19.6	246.41	3	69.56	28	2	2	2177
2137.8	7012.25		15.95	19.39	236.66	3	70.74	28	2	2	2183.74
2138	7012.9		21.6	19.19	223.6	3	71.89	28	2	2	2191.6
2138.2	7013.56		13.08	18.99	215.6	3	73.03	28	2	2	2156.7
2138.4	7014.21		21.61	18.79	180.01	3	74.56	28.7	2	2	2171.67
2138.6	7014.87		21.52	18.59	204.86	3	78.31	30	2	2	2205.14
2138.8	7015.52		7.66	18.4	136.24	1.95	80	186	2.78	2	2200.88
2139	7016.18		35.86	18.2	67.45	0.89	80	186	3.57	2	2194.1
2139.2	7016.83		18.02	18	13.27	0.1	80	186	3.45	2	2196.88
2139.4	7017.49		19.39	17.8	41.65	0.74	80	164.27	2.24	2	2185.79
2139.6	7018.15		17.03	17.59	53	1	77.38	112	2	2	2195.94
2139.8	7018.8		12.03	17.4	75.92	1.27	70.84	112	2	2	2232.78
2140	7019.46		18.17	17.19	190.57	2.6	64.29	77	2	2	2219.93
2140.2	7020.11		13.98	17	222.85	3	66.03	32	3.44	2	2185.51
2140.4	7020.77		14.12	16.79	218.34	3	72.24	32	3.13	2	2161.12
2140.6	7021.42		13.48	16.59	211.97	3	78.45	30.89	2	2	2178.07
2140.8	7022.08		22.16	16.39	211.36	3	77.73	30	2	2	2210.49
2141	7022.73		15.52	16.19	214.05	3	74.72	32	2	2	2185.84
2141.2	7023.39		11.76	16	221.34	3	72.07	32	2	2	2172.47
2141.4	7024.04		17.42	15.79	228	3	72.76	27.83	2	2	2213.74
2141.6	7024.7		15.69	15.6	222.53	3	73.45	26	2	2	2189.94
2141.8	7025.35		12.44	15.4	213.68	3	73.84	26.25	2	2	2212.03
2142	7026.01		17.01	15.19	212.08	3	73.06	27.92	2	2	2197.61
2142.2	7026.66		12.99	15	217.85	3	72.27	28	2	2	2182.14
2142.4	7027.32		12.92	14.8	220	3	71.53	33.45	2	2	2194.57
2142.6	7027.97		15.86	14.6	221.83	3	70.8	40	2	2	2202.44
2142.8	7028.63		12.5	14.4	224	3	70.07	36.1	2	2	2208.41
2143	7029.28		17.3	14.2	224	3	70.67	34	2	2	2184.62
2143.2	7029.94		13.05	14	225.5	3	71.41	34	2	2	2176.31
2143.4	7030.59		12.78	13.8	227	3	71.83	36	2	2	2187.99
2143.6	7031.25		13.54	13.6	230.23	3	71	36	2	2	2194.37
2143.8	7031.9		14.69	13.4	246.38	3	70.17	34.88	2	2	2222.32
2144	7032.56		12.72	13.19	169.62	2.2	72.13	35.39	2	2	2188.05
2144.2	7033.21		12.9	12.99	82.5	1.31	74.8	34.28	3.55	2	2202.49
2144.4	7033.87		14.54	12.79	35.21	0.46	77.47	89.54	4	2	2144.43
2144.6	7034.53		11.77	12.59	17.59	0	80.04	134	4	2	2168.77
2144.8	7035.18		14.72	12.4	10	0	80.79	134	4	2	2155.19
2145	7035.84		19.64	12.2	21.87	0	81.55	134	4	2	2207.02
2145.2	7036.49		11.21	11.99	29	0	81.68	135.43	4	2	2220.28
2145.4	7037.15		14.83	11.8	27.54	0	80.88	144	4	2	2233.7
2145.6	7037.8		15.23	11.59	13.01	0	80.08	144	4	2	2187.52
2145.8	7038.46		12.03	11.4	17.61	0	77.18	141.52	4	2	2226.09
2146	7039.11		13.3	11.2	134.64	1.56	74.04	140	2.5	2	2247.33
2146.2	7039.77		12.97	10.99	242	3	70.32	42	2.94	2	2166.47
2146.4	7040.42		21.01	10.79	241.99	3	65.52	42	4	2	2222.53
2146.6	7041.08		10.99	10.6	217.47	3	60.72	48.16	3.62	2	2231.95
2146.8	7041.73		11.08	10.4	218.46	3	64.41	52	2.08	2	2188.39
2147	7042.39		13.37	10.2	216.57	3	69.59	50.7	2	2	2227.68
2147.2	7043.04		15.48	10	211.87	3	73.88	30	2	2	2203.98
2147.4	7043.7		14.3	9.8	208.01	3	73.12	30	2	2	2206.3
2147.6	7044.35		13.67	9.59	230.72	3	72.35	34	2	2	2215.35
2147.8	7045.01		9.58	9.4	222.37	3	72.56	38	2	2	2206.68
2148	7045.66		14.13	9.19	228.66	3	73.59	38.4	2	2	2189.86
2148.2	7046.32		16.36	8.99	233.37	3	74.84	40	2	2	2210.33
2148.4	7046.98		14.62	8.8	233.98	3	76.25	40	2	2	2233.62
2148.6	7047.63		13.2	8.59	199.73	3	77.65	42	2	2	2219.05
2148.8	7048.29		11.72	8.4	228.27	3	76.87	34.79	2	2	2211.71
2149	7048.94		12.66	8.2	218.64	3	75.36	30	2	2	2252.14
2149.2	7049.6		21.09	7.99	205.99	3	74.09	30.2	2	2	2183.35
2149.4	7050.25		10.29	7.8	216.73	3	75.02	32	2	2	2204.43
2149.6	7050.91		12.89	7.59	223.65	3	75.95	32	2	2	2186.83
2149.8	7051.56		14.77	7.4	224	3	74.51	36.73	2	2	2208.43
2150	7052.22		11.13	7.19	214.01	3	72.94	40	2	2	2223
2150.2	7052.87		13.58	6.99	222.71	3	72	36	2	2	2222.1
2150.4	7053.53		11.88	6.8	244.11	3	72	36	2	2	2215.38
2150.6	7054.18		11.09	6.6	220.33	3	72.16	38	2	2	2204.11
2150.8	7054.84		11.11	6.4	211.94	3	73.21	38	2	2	2198.82
2151	7055.49		8.5	6.19	216.78	3	73.81	30	2	2	2206.45
2151.2	7056.15		19.98	6	207.41	3	73.04	30	2	2	2182.78
2151.4	7056.8		14.21	5.8	202.76	3	72.27	31	2	2	2164.85
2151.6	7057.46		9.23	5.6	227.92	3	73.18	34	2	2	2206.8
2151.8	7058.11		12.91	5.39	221	3	75	30	2	2	2166.96
2152	7058.77		13.57	5.2	215	3	75.2	30	2	2	2192.9
2152.2	7059.42		13.68	5	211.15	3	73.42	30	2	2	2149.26
2152.4	7060.08		10.44	4.79	204.22	3	72.64	30	2	2	2184.82
2152.6	7060.74		13.48	4.6	201.58	3	75.84	30	2	2	2199.75
2152.8	7061.39		12.08	4.4	233.4	3	79.04	30	2	2	2165.45
2153	7062.05		12.17	4.2	221.32	3	76.82	31.58	2	2	2190.58
2153.2	7062.7		10.73	3.99	225.56	3	72.27	33	2	2	2160.89
2153.4	7063.36		15.09	3.79	213.23	3	71.67	34	2	2	2210.75
2153.6	7064.01		13.52	3.6	200.52	3	75	34	2	2	2166.34
2153.8	7064.67		11.2	3.4	202.48	3	78.16	32.38	2	2	2185.97
