~Version Information
VERS.                       2.00: SCHLUMBERGER LAS - Version 2.00
WRAP.                         NO: One line per depth step
~Well Information
STRT.FT                2400.0000: Start Depth
STOP.FT                3131.0000: End Depth
STEP.FT                   0.2000:  
NULL.                    -999.25:  
COMP.                    Bapetco: COMPANY
WELL.                   BED-18 M: WELL
FLD .                        BED: FLD
SRVC.               Schlumberger: SERVICE COMPANY
LOC .                           : LOCATION
DATE.                  23-Oct-19: LOG DATE
UWI .                  19EGP0341: API NUMBER
~Curve Information
DEPT.FT                         : MWD Tool Measurement Depth
MTTVD.FT                         : MWD Tool Measurement TVD
PSPD.M/MIN                      : Instantaneous Pipe Speed
ROP .M/HR                       : Rate of Penetration (MWD Depth Ave.)
KPOSI.M                          : Kelly Position (Raw)
SSS_H.                           : Stick Slip Percentage from HDS1
SSL_H.                           : Stick Slip Level from HDS1
RPM_H.                           : Average RPM from HDS1
VIBC.CPS                        : Vibration Count
VIBXYH.                           : Vibration XY
VIBZH.                           : Vibration Z
SPP I.PSI                        : Standpipe Pressure (Raw)
#     DEPT     MTTVD      PSPD       ROP     KPOSI     SSS_H     SSL_H     RPM_H      VIBC    VIBXYH     VIBZH     SPP I
#       FT        FT     M/MIN      M/HR         M                                     CPS                           PSI
#
# Relog Number     0         0         0         0         0         0         0         0         0         0         0
#
~ASCII Data
# ...
 2587.6000   8486.94   -999.25     29.18     23.14    114.67      3.00   -999.25     15.23      2.00      2.00   2176.67
 2587.8000   8487.59   -999.25     16.21     22.94    115.18      3.00   -999.25     15.61      2.00      2.00   2176.33
 2588.0000   8488.25   -999.25     38.43     22.73    115.69      3.00   -999.25     15.98      2.00      2.00   2176.01
 2588.2000   8488.90   -999.25     58.14     22.53    116.21      3.00   -999.25     16.30      2.00      2.00   2189.34
 2588.4000   8489.55   -999.25     59.39     22.34    116.72      3.00   -999.25     16.62      2.00      2.00   2156.16
 2588.6000   8490.21   -999.25     34.64     22.14    117.23      3.00   -999.25     16.94      2.00      2.00   2174.73
 2588.8000   8490.86   -999.25     35.55     21.93    117.74      3.00   -999.25     17.25      2.00      2.00   2178.81
 2589.0000   8491.51   -999.25     38.19     21.74   -999.25   -999.25   -999.25     17.57   -999.25   -999.25   2161.83
 2589.2000   8492.17   -999.25     34.45     21.53   -999.25   -999.25   -999.25     17.89   -999.25   -999.25   2193.14
 2589.4000   8492.82   -999.25     40.09     21.33   -999.25   -999.25   -999.25     18.00   -999.25   -999.25   2194.47
 2589.6000   8493.47   -999.25     31.05     21.13   -999.25   -999.25   -999.25     18.00   -999.25   -999.25   2178.19
 2589.8000   8494.13   -999.25     36.04     20.93   -999.25   -999.25   -999.25     18.00   -999.25   -999.25   2124.57
 2590.0000   8494.78   -999.25     44.20     20.74   -999.25   -999.25   -999.25     18.00   -999.25   -999.25   2190.67
 2590.2000   8495.43   -999.25     33.08     20.54   -999.25   -999.25   -999.25     18.06   -999.25   -999.25   2173.95
 2590.4000   8496.09   -999.25     35.67     20.33   -999.25   -999.25   -999.25     18.47   -999.25   -999.25   2177.76
 2590.6000   8496.74   -999.25     27.77     20.14   -999.25   -999.25   -999.25     18.88   -999.25   -999.25   2147.64
 2590.8000   8497.39   -999.25     38.86     19.93   -999.25   -999.25   -999.25     19.29   -999.25   -999.25   2199.69
 2591.0000   8498.05   -999.25     40.17     19.74   -999.25   -999.25   -999.25     19.69   -999.25   -999.25   2178.74
 2591.2000   8498.70   -999.25     37.84     19.53   -999.25   -999.25   -999.25     19.81   -999.25   -999.25   2146.50
 2591.4000   8499.35   -999.25     35.37     19.33   -999.25   -999.25   -999.25     19.06   -999.25   -999.25   2173.20
 2591.6000   8500.01   -999.25     37.28     19.14   -999.25   -999.25   -999.25     18.31   -999.25   -999.25   2146.62
 2591.8000   8500.66   -999.25     44.00     18.93   -999.25   -999.25   -999.25     17.56   -999.25   -999.25   2140.34
 2592.0000   8501.31   -999.25     41.83     18.73   -999.25   -999.25   -999.25     16.81      2.00      2.00   2142.91
 2592.2000   8501.97   -999.25     43.95     18.53    123.00      3.00   -999.25     16.06      2.00      2.00   2163.41
 2592.4000   8502.62   -999.25     41.05     18.33    126.12      3.00    104.00     15.31      2.00      2.00   2192.89
 2592.6000   8503.27   -999.25     35.37     18.14    130.91      3.00   -999.25     14.56      2.00      2.00   2196.17
 2592.8000   8503.93   -999.25     40.95     17.94    135.71      3.00   -999.25     14.25      2.00      2.00   2182.13
 2593.0000   8504.58   -999.25     45.59     17.73    140.50      3.00   -999.25     15.27      2.00      2.00   2188.97
 2593.2000   8505.23   -999.25     42.18     17.54    145.30      3.00   -999.25     16.29      2.00      2.00   2167.66
 2593.4000   8505.89   -999.25     21.56     17.33    150.09      3.00   -999.25     17.31      2.00      2.00   2191.03
 2593.6000   8506.54   -999.25     36.86     17.14    154.89      3.00   -999.25     18.33      2.00      2.00   2185.32
 2593.8000   8507.19   -999.25     46.76     16.93    159.68      3.00   -999.25     19.35      2.00      2.00   2196.42
 2594.0000   8507.84   -999.25     48.75     16.73    162.39      2.97   -999.25     20.37      2.00      2.00   2203.66
 2594.2000   8508.50   -999.25     44.88     16.53    146.31      2.68   -999.25     21.39      2.00      2.00   2166.58
 2594.4000   8509.15   -999.25     36.17     16.33    130.23      2.38   -999.25     22.00      2.00      2.00   2198.94
 2594.6000   8509.80   -999.25     29.25     16.13    114.16      2.09   -999.25     22.00      2.00      2.00   2162.81
 2594.8000   8510.46   -999.25     37.42     15.94     98.08      1.79   -999.25     22.00      2.00      2.00   2191.29
 2595.0000   8511.11   -999.25     26.86     15.74     82.00      1.50   -999.25     22.00      2.00      2.00   2182.93
 2595.2000   8511.76   -999.25     25.49     15.53     65.92      1.21   -999.25     26.24      2.00      2.00   2179.40
 2595.4000   8512.42   -999.25     22.68     15.33     49.84      0.91   -999.25     40.36      2.00      2.00   2161.41
 2595.6000   8513.07   -999.25     30.07     15.13     33.77      0.62   -999.25     46.00      2.00      2.00   2196.46
 2595.8000   8513.72   -999.25     13.43     14.93     17.69      0.32   -999.25     46.00      2.00      2.00   2158.77
 2596.0000   8514.38   -999.25     35.46     14.74      1.61      0.03   -999.25     46.00      2.00      2.00   2157.76
 2596.2000   8515.03   -999.25     26.20     14.53     29.99      0.50    100.00     46.00      2.00      2.00   2150.73
 2596.4000   8515.68   -999.25     16.12     14.33     63.33      1.06   -999.25     43.23      2.00      2.00   2189.60
 2596.6000   8516.33   -999.25     33.01     14.14     96.66      1.61   -999.25     38.62      2.00      2.00   2152.93
 2596.8000   8516.99   -999.25     19.98     13.93    129.99      2.17   -999.25     34.00      2.00      2.00   2144.59
 2597.0000   8517.64   -999.25     23.84     13.74    163.32      2.72   -999.25     29.39      2.00      2.00   2110.07
 2597.2000   8518.29   -999.25     45.32     13.53    172.21      2.87   -999.25     28.00      2.00      2.00   2139.36
 2597.4000   8518.95   -999.25     35.37     13.33    156.63      2.61   -999.25     28.00      2.00      2.00   2202.17
 2597.6000   8519.60   -999.25      6.83     13.14    141.04      2.35   -999.25     26.46      2.00      2.00   2129.54
 2597.8000   8520.25   -999.25     29.06     12.93    125.46      2.09   -999.25     23.38      2.00      2.00   2147.27
 2598.0000   8520.91   -999.25     25.43     12.73    109.87      1.83   -999.25     20.31      2.00      2.00   2137.55
 2598.2000   8521.56   -999.25     27.31     12.54     94.29      1.57   -999.25     17.23      2.00      2.00   2186.26
 2598.4000   8522.21   -999.25     33.31     12.33     78.70      1.31   -999.25     14.15      2.00      2.00   2190.09
 2598.6000   8522.86   -999.25     38.02     12.14     63.12      1.05   -999.25     14.96      2.00      2.00   2178.23
 2598.8000   8523.52   -999.25     41.31     11.94     47.53      0.79   -999.25     15.96      2.00      2.00   2177.87
 2599.0000   8524.17   -999.25     39.99     11.74     31.94      0.53   -999.25     16.97      2.00      2.00   2136.17
 2599.2000   8524.82   -999.25     39.75     11.54     16.36      0.27   -999.25     17.98      2.00      2.00   2149.46
 2599.4000   8525.47   -999.25     39.49     11.34      0.77      0.01    260.00     18.98      2.00      2.00   2128.79
 2599.6000   8526.13   -999.25     28.63     11.13     16.75      0.31   -999.25     19.99      2.00      2.00   2144.22
 2599.8000   8526.78   -999.25     34.15     10.93     34.37      0.63   -999.25     20.99      2.00      2.00   2122.01
 2600.0000   8527.43   -999.25     31.11     10.74     51.99      0.96   -999.25     22.00      2.00      2.00   2195.76
 2600.2000   8528.09   -999.25     57.94     10.54     69.61      1.28   -999.25     23.26      2.00      2.00   2205.47
 2600.4000   8528.74   -999.25     49.66     10.33     87.23      1.61   -999.25     24.52      2.00      2.00   2192.58
 2600.6000   8529.39   -999.25     47.35     10.14    104.85      1.93   -999.25     25.77      2.00      2.00   2115.42
 2600.8000   8530.04   -999.25     42.30      9.93    122.47      2.25   -999.25     27.03      2.00      2.00   2167.79
