~Version Information
VERS.                       2.00: SCHLUMBERGER LAS - Version 2.00
WRAP.                         NO: One line per depth step
~Well Information
STRT.FT                2400.0000: Start Depth
STOP.FT                3131.0000: End Depth
STEP.FT                   0.2000:  
NULL.                    -999.25:  
COMP.                    Bapetco: COMPANY
WELL.                   BED-18 M: WELL
FLD .                        BED: FLD
SRVC.               Schlumberger: SERVICE COMPANY
LOC .                           : LOCATION
DATE.                  23-Oct-19: LOG DATE
UWI .                  19EGP0341: API NUMBER
~Curve Information
DEPT.FT                         : MWD Tool Measurement Depth
MTTVD.FT                         : MWD Tool Measurement TVD
PSPD.M/MIN                      : Instantaneous Pipe Speed
ROP .M/HR                       : Rate of Penetration (MWD Depth Ave.)
KPOSI.M                          : Kelly Position (Raw)
SSS_H.                           : Stick Slip Percentage from HDS1
SSL_H.                           : Stick Slip Level from HDS1
RPM_H.                           : Average RPM from HDS1
VIBC.CPS                        : Vibration Count
VIBXYH.                           : Vibration XY
VIBZH.                           : Vibration Z
SPP I.PSI                        : Standpipe Pressure (Raw)
#     DEPT     MTTVD      PSPD       ROP     KPOSI     SSS_H     SSL_H     RPM_H      VIBC    VIBXYH     VIBZH     SPP I
#       FT        FT     M/MIN      M/HR         M                                     CPS                           PSI
#
# Relog Number     0         0         0         0         0         0         0         0         0         0         0
#
~ASCII Data
# ...
 2882.4000   9428.09   -999.25     12.36     16.49    187.06      3.00    112.63     24.57      2.00      2.00   2149.60
 2882.6000   9428.71   -999.25     17.41     16.29    187.63      3.00    113.46     25.84      2.00      2.00   2128.09
 2882.8000   9429.33   -999.25     16.64     16.09    185.69      3.00    113.80     27.11      2.00      2.00   2108.67
 2883.0000   9429.94   -999.25     21.18     15.89    179.11      3.00    113.23     28.00      2.00      2.00   2136.35
 2883.2000   9430.56   -999.25     16.36     15.69    172.53      3.00    112.66     28.00      2.00      2.00   2145.80
 2883.4000   9431.17   -999.25     13.49     15.49    165.94      3.00    112.09     28.00      2.00      2.00   2096.19
 2883.6000   9431.79   -999.25     31.26     15.29    161.33      3.00    111.52     28.00      2.00      2.00   2130.69
 2883.8000   9432.40   -999.25     15.23     15.09    162.67      3.00    110.95     27.13      2.00      2.00   2157.97
 2884.0000   9433.02   -999.25     36.82     14.89    164.02      3.00    110.38     24.95      2.00      2.00   2144.06
 2884.2000   9433.63   -999.25     15.94     14.69    165.36      3.00    109.81     22.76      2.00      2.00   2155.10
 2884.4000   9434.25   -999.25     22.34     14.49    166.70      3.00    109.25     22.00      2.00      2.00   2167.86
 2884.6000   9434.86   -999.25     16.80     14.29    168.04      3.00    108.68     22.00      2.00      2.00   2148.26
 2884.8000   9435.48   -999.25     11.23     14.09    169.38      3.00    108.11     22.00      2.00      2.00   2157.75
 2885.0000   9436.09   -999.25     57.79     13.89    170.72      3.00    107.54     21.68      2.00      2.00   2145.15
 2885.2000   9436.71   -999.25     36.83     13.69    172.06      3.00    106.97     21.16      2.00      2.00   2081.88
 2885.4000   9437.32   -999.25     19.60     13.49    173.40      3.00    106.40     20.63      2.00      2.00   2153.78
 2885.6000   9437.94   -999.25     38.95     13.29    173.65      3.00    106.00     20.10      2.00      2.00   2163.50
 2885.8000   9438.55   -999.25     31.25     13.09    173.01      3.00   -999.25     19.58      2.00      2.00   2146.74
 2886.0000   9439.17   -999.25     80.76     12.89    172.38      3.00   -999.25     19.05      2.00      2.00   2156.80
 2886.2000   9439.78   -999.25    108.97     12.69    171.74      3.00   -999.25     18.53      2.00      2.00   2164.02
 2886.4000   9440.40   -999.25     87.39     12.49    171.10      3.00   -999.25     18.00      2.00      2.00   2124.69
 2886.6000   9441.01   -999.25     68.74     12.29    170.47      3.00   -999.25     21.29      2.00      2.00   2162.49
 2886.8000   9441.62   -999.25     87.01     12.09    169.83      3.00   -999.25     24.58      2.00      2.00   2140.31
 2887.0000   9442.24   -999.25     70.75     11.89    169.20      3.00   -999.25     27.86      2.00      2.00   2103.67
 2887.2000   9442.85   -999.25     55.90     11.69    168.56      3.00   -999.25     31.15      2.00      2.00   2102.60
 2887.4000   9443.47   -999.25     28.97     11.49    167.92      3.00   -999.25     34.44      2.00      2.00   2131.71
 2887.6000   9444.08   -999.25     24.12     11.29    167.29      3.00   -999.25     37.72      2.00      2.00   2118.44
 2887.8000   9444.70   -999.25     28.31     11.09    167.77      3.00   -999.25     41.01      2.00      2.00   2118.18
 2888.0000   9445.31   -999.25     19.41     10.89    169.17      3.00   -999.25     40.05      2.00      2.00   2141.64
 2888.2000   9445.93   -999.25      9.64     10.69    170.57      3.00   -999.25     37.26      2.00      2.00   2127.77
 2888.4000   9446.54   -999.25     22.55     10.49    171.97      3.00   -999.25     33.13      2.00      2.00   2123.08
 2888.6000   9447.15   -999.25     23.12     10.29    173.38      3.00   -999.25     27.91      2.00      2.00   2127.01
 2888.8000   9447.77   -999.25    113.74     10.09    174.78      3.00   -999.25     24.28      2.00      2.00   2088.45
 2889.0000   9448.38   -999.25     10.31      9.89    176.18      3.00   -999.25     25.39      2.00      2.00   2155.05
 2889.2000   9449.00   -999.25     13.97      9.69    177.58      3.00    104.00     26.50      2.00      2.00   2142.79
 2889.4000   9449.61   -999.25     11.19      9.49    178.93      3.00    105.98     27.61      2.00      2.00   2110.27
 2889.6000   9450.23   -999.25     50.64      9.29    180.27      3.00    108.82     28.55      2.00      2.00   2159.24
 2889.8000   9450.84   -999.25     10.28      9.09    181.60      3.00    111.65     29.40      2.00      2.00   2099.57
 2890.0000   9451.46   -999.25      7.48      8.89    181.79      3.00    114.49     30.60      2.00      2.00   2098.81
 2890.2000   9452.07   -999.25     10.41      8.69    181.49      3.00    117.32     33.00      2.00      2.00   2161.31
 2890.4000   9452.68   -999.25      7.90      8.49    181.19      3.00    120.16     34.95      2.00      2.00   2133.39
 2890.6000   9453.30   -999.25      4.78      8.29    177.33      3.00    120.56     24.53      2.00      2.00   2155.27
 2890.8000   9453.91   -999.25      5.80      8.09    170.32      3.00    116.46     33.00      2.00      2.00   2100.03
 2891.0000   9454.53   -999.25      5.55      7.89    171.37      3.00    112.36     28.00      2.00      2.00   2101.06
 2891.2000   9455.14   -999.25      6.84      7.69    172.42      3.00    108.26     27.55      2.00      2.00   2109.62
 2891.4000   9455.75   -999.25      5.12      7.49    174.65      3.00    106.57     26.26      2.00      2.00   2165.25
 2891.6000   9456.37   -999.25     10.76      7.29    178.33      3.00    107.84     22.88      2.00      2.00   2149.29
 2891.8000   9456.98   -999.25     14.69      7.09    182.00      3.00    109.11     18.98      2.00      2.00   2119.83
 2892.0000   9457.60   -999.25      9.71      6.89    182.00      3.00    110.38     24.92      2.00      2.00   2142.53
 2892.2000   9458.21   -999.25      6.29      6.69    182.00      3.00    111.65     30.86      2.00      2.00   2130.98
 2892.4000   9458.82   -999.25     10.84      6.49    182.00      3.00    112.92     31.69      2.00      2.00   2146.47
 2892.6000   9459.44   -999.25      8.60      6.29    181.34      3.00    113.71     30.92      2.00      2.00   2171.71
 2892.8000   9460.05   -999.25     65.32      6.09    178.71      3.00    111.77     30.15      2.00      2.00   2170.06
 2893.0000   9460.67   -999.25     13.22      5.89    176.08      3.00    109.84     32.00      2.00      2.00   2160.30
 2893.2000   9461.28   -999.25     22.37      5.69    173.45      3.00    107.90     34.50      2.00      2.00   2153.03
 2893.4000   9461.89   -999.25      5.90      5.49    173.20      3.00    105.97     36.00      2.00      2.00   2138.50
 2893.6000   9462.51   -999.25     11.59      5.29    175.87      3.00    104.03     35.74      2.00      2.00   2141.74
 2893.8000   9463.12   -999.25      8.60      5.09    178.53      3.00    102.10     34.72      2.00      2.00   2160.19
 2894.0000   9463.73   -999.25     27.78      4.89    181.20      3.00    100.16     33.42      2.00      2.00   2185.46
 2894.2000   9464.35   -999.25     19.43      4.69    183.87      3.00     98.23     31.49      2.00      2.00   2103.03
 2894.4000   9464.96   -999.25     16.70      4.49    185.71      3.00     96.29     29.57      2.00      2.00   2130.24
 2894.6000   9465.58   -999.25     16.37      4.29    184.26      3.00     97.55     27.64      2.00      2.00   2165.88
 2894.8000   9466.19   -999.25     69.95      4.09    182.80      3.00     99.38     26.22      2.00      2.00   2153.68
 2895.0000   9466.80   -999.25     25.87      3.89    181.35      3.00    101.21     27.72      2.00      2.00   2156.74
 2895.2000   9467.42   -999.25     40.91      3.69    179.89      3.00    103.04     29.22      2.00      2.00   2145.50
 2895.4000   9468.03   -999.25     16.39      3.49    178.44      3.00    104.86     30.72      2.00      2.00   2159.88
 2895.6000   9468.64   -999.25     19.48      3.29    175.75      3.00    106.69     32.00      2.00      2.00   2155.42
