~Version Information
VERS.                       2.00: SCHLUMBERGER LAS - Version 2.00
WRAP.                         NO: One line per depth step
~Well Information
STRT.FT                2400.0000: Start Depth
STOP.FT                3131.0000: End Depth
STEP.FT                   0.2000:  
NULL.                    -999.25:  
COMP.                    Bapetco: COMPANY
WELL.                   BED-18 M: WELL
FLD .                        BED: FLD
SRVC.               Schlumberger: SERVICE COMPANY
LOC .                           : LOCATION
DATE.                  23-Oct-19: LOG DATE
UWI .                  19EGP0341: API NUMBER
~Curve Information
DEPT.FT                         : MWD Tool Measurement Depth
MTTVD.FT                         : MWD Tool Measurement TVD
PSPD.M/MIN                      : Instantaneous Pipe Speed
ROP .M/HR                       : Rate of Penetration (MWD Depth Ave.)
KPOSI.M                          : Kelly Position (Raw)
SSS_H.                           : Stick Slip Percentage from HDS1
SSL_H.                           : Stick Slip Level from HDS1
RPM_H.                           : Average RPM from HDS1
VIBC.CPS                        : Vibration Count
VIBXYH.                           : Vibration XY
VIBZH.                           : Vibration Z
SPP I.PSI                        : Standpipe Pressure (Raw)
#     DEPT     MTTVD      PSPD       ROP     KPOSI     SSS_H     SSL_H     RPM_H      VIBC    VIBXYH     VIBZH     SPP I
#       FT        FT     M/MIN      M/HR         M                                     CPS                           PSI
#
# Relog Number     0         0         0         0         0         0         0         0         0         0         0
#
~ASCII Data
# ...
 3123.6000  10165.76   -999.25     23.52      4.75    204.03      3.00     92.04     32.51      2.00      2.00   2378.73
 3123.8000  10166.37   -999.25     24.94      4.55    196.57      3.00     90.65     41.33      2.00      2.00   2349.12
 3124.0000  10166.98   -999.25      7.74      4.35    189.11      3.00     89.25     36.89      2.00      2.00   2362.18
 3124.2000  10167.58   -999.25     15.24      4.16    185.00      3.00     88.00     32.44      2.00      2.00   2343.69
 3124.4000  10168.19   -999.25     15.79      3.95    185.00      3.00   -999.25     28.00      2.00      2.00   2411.02
 3124.6000  10168.80   -999.25     30.90      3.75    185.00      3.00   -999.25     29.74      2.00      2.00   2392.20
 3124.8000  10169.41   -999.25     16.30      3.55    185.00      3.00   -999.25     31.48      2.00      2.00   2377.05
 3125.0000  10170.02   -999.25     21.65      3.35    185.00      3.00   -999.25     33.22      2.00      2.00   2394.03
 3125.2000  10170.62   -999.25     12.66      3.15   -999.25   -999.25   -999.25     31.77   -999.25   -999.25   2381.72
 3125.4000  10171.23   -999.25     18.55      2.95   -999.25   -999.25   -999.25     27.72   -999.25   -999.25   2401.26
 3125.6000  10171.84   -999.25     47.57      2.75   -999.25   -999.25   -999.25     23.67   -999.25   -999.25   2378.75
 3125.8000  10172.45   -999.25     59.84      2.55   -999.25   -999.25   -999.25     19.62   -999.25   -999.25   2373.16
 3126.0000  10173.06   -999.25     58.45      2.35   -999.25   -999.25   -999.25     17.74   -999.25   -999.25   2367.98
 3126.2000  10173.66   -999.25     57.06      2.15   -999.25   -999.25   -999.25     17.31   -999.25   -999.25   2385.94
 3126.4000  10174.27   -999.25     48.96      1.96   -999.25   -999.25   -999.25     16.88   -999.25   -999.25   2380.44
 3126.6000  10174.88   -999.25     32.13      1.75   -999.25   -999.25   -999.25     16.45   -999.25   -999.25   2373.77
 3126.8000  10175.49   -999.25     42.34      1.55   -999.25   -999.25   -999.25     16.02   -999.25   -999.25   2365.09
 3127.0000  10176.10   -999.25     61.96      1.35   -999.25   -999.25   -999.25     18.68   -999.25   -999.25   2404.77
 3127.2000  10176.70   -999.25     71.56      1.15   -999.25   -999.25   -999.25     21.51   -999.25   -999.25   2353.86
 3127.4000  10177.31   -999.25      3.13     29.06   -999.25   -999.25   -999.25     24.33   -999.25   -999.25   2376.50
 3127.6000  10177.92   -999.25     78.84     28.86   -999.25   -999.25   -999.25     27.15   -999.25   -999.25   2347.79
 3127.8000  10178.53   -999.25     80.77     28.66   -999.25   -999.25   -999.25     26.96   -999.25   -999.25   2365.12
 3128.0000  10179.13   -999.25      9.25     28.46   -999.25   -999.25   -999.25     25.48   -999.25   -999.25   2362.33
 3128.2000  10179.74   -999.25     79.09     28.26   -999.25   -999.25   -999.25     24.00   -999.25   -999.25   2367.95
 3128.4000  10180.35   -999.25     41.45     28.06   -999.25   -999.25   -999.25     33.33   -999.25   -999.25   2345.37
 3128.6000  10180.96   -999.25      4.60     27.86      0.00      0.00    226.00     33.56      2.00      2.00   2347.71
 3128.8000  10181.57   -999.25      9.31     27.66     62.14      1.06    200.50     25.22      2.00      2.00   2409.32
 3129.0000  10182.17   -999.25      6.70     27.46    165.64      2.82    149.52     20.00      2.00      2.00   2396.71
 3129.2000  10182.78   -999.25      2.38     27.26    182.63      3.00     98.54     26.18      2.00      2.00   2383.51
 3129.4000  10183.39   -999.25      3.26     27.06    201.24      3.00     97.96     34.20      2.00      2.00   2400.67
 3129.6000  10184.00   -999.25     10.59     26.86    204.00      3.00    100.02     31.14      2.00      2.00   2375.93
 3129.8000  10184.61   -999.25      6.80     26.66    206.76      3.00    102.08     37.69      2.00      2.00   2405.30
 3130.0000  10185.21   -999.25     10.46     26.46    209.52      3.00    104.14     40.46      2.00      2.00   2380.07
 3130.2000  10185.82   -999.25     10.63     26.26    210.11      3.00    106.00     37.67      2.00      2.00   2421.56
 3130.4000  10186.43   -999.25     16.58     26.07    191.24      3.00   -999.25     35.02      2.00      2.00   2395.92
 3130.6000  10187.04   -999.25      7.81     25.86    172.37      3.00   -999.25     32.57      2.00      2.00   2417.42
 3130.8000  10187.64   -999.25     18.91     25.66    162.00      3.00   -999.25     30.12   -999.25   -999.25   2434.13
 3131.0000  10188.25   -999.25     15.30     25.46   -999.25   -999.25   -999.25     30.00   -999.25   -999.25   2411.02
