~Version Information
VERS.                       2.00: SCHLUMBERGER LAS - Version 2.00
WRAP.                         NO: One line per depth step
~Well Information
STRT.FT                2400.0000: Start Depth
STOP.FT                3131.0000: End Depth
STEP.FT                   0.2000:  
NULL.                    -999.25:  
COMP.                    Bapetco: COMPANY
WELL.                   BED-18 M: WELL
FLD .                        BED: FLD
SRVC.               Schlumberger: SERVICE COMPANY
LOC .                           : LOCATION
DATE.                  23-Oct-19: LOG DATE
UWI .                  19EGP0341: API NUMBER
~Curve Information
DEPT.FT                         : MWD Tool Measurement Depth
MTTVD.FT                         : MWD Tool Measurement TVD
PSPD.M/MIN                      : Instantaneous Pipe Speed
ROP .M/HR                       : Rate of Penetration (MWD Depth Ave.)
KPOSI.M                          : Kelly Position (Raw)
SSS_H.                           : Stick Slip Percentage from HDS1
SSL_H.                           : Stick Slip Level from HDS1
RPM_H.                           : Average RPM from HDS1
VIBC.CPS                        : Vibration Count
VIBXYH.                           : Vibration XY
VIBZH.                           : Vibration Z
SPP I.PSI                        : Standpipe Pressure (Raw)
#     DEPT     MTTVD      PSPD       ROP     KPOSI     SSS_H     SSL_H     RPM_H      VIBC    VIBXYH     VIBZH     SPP I
#       FT        FT     M/MIN      M/HR         M                                     CPS                           PSI
#
# Relog Number     0         0         0         0         0         0         0         0         0         0         0
#
~ASCII Data
# ...
 3029.8000   9879.59   -999.25      8.75     12.60    166.78      3.00    117.10     50.74      2.00      2.00   2324.10
 3030.0000   9880.20   -999.25      7.12     12.39    167.60      3.00    118.14     56.80      2.00      2.00   2276.55
 3030.2000   9880.82   -999.25     14.56     12.20    168.42      3.00    119.17     58.95      2.00      2.00   2307.99
 3030.4000   9881.43   -999.25      6.41     12.00    169.60      3.00    116.11     46.32      2.00      2.00   2271.48
 3030.6000   9882.05   -999.25     11.24     11.80    171.60      3.00     96.60     39.17      2.00      2.00   2327.29
 3030.8000   9882.66   -999.25      1.72     11.59    160.79      2.79     77.08     37.52      2.00      2.00   2401.89
 3031.0000   9883.28   -999.25     69.79     11.40    120.09      2.08     57.57     35.87      2.00      2.00   2371.90
 3031.2000   9883.89   -999.25     53.14     11.20     79.39      1.38     38.06     34.21      2.00      2.00   2334.27
 3031.4000   9884.50   -999.25     47.28     10.99     38.68      0.67     18.55     32.56      2.00      2.00   2401.25
 3031.6000   9885.12   -999.25     20.58     10.80      2.85      0.04      0.67     30.91      2.00      2.00   2399.84
 3031.8000   9885.73   -999.25     22.30     10.60     60.32      0.89     14.26     32.18      2.00      2.00   2415.44
 3032.0000   9886.35   -999.25     29.70     10.40    117.78      1.73     27.86     37.03      2.00      2.00   2408.16
 3032.2000   9886.96   -999.25     12.00     10.19    175.25      2.58     41.45     41.88      2.00      2.00   2407.25
 3032.4000   9887.58   -999.25      7.75      9.99    201.18      3.00     55.04     46.50      2.00      2.00   2369.28
 3032.6000   9888.19   -999.25     11.33      9.79    195.53      3.00     68.63     49.83      2.00      2.00   2378.73
 3032.8000   9888.81   -999.25     10.65      9.59    189.88      3.00     82.22     38.31      2.00      2.00   2379.29
 3033.0000   9889.42   -999.25      7.78      9.39    184.23      3.00     95.81     34.56      2.00      2.00   2422.84
 3033.2000   9890.03   -999.25      8.21      9.19    178.84      3.00    105.88     35.43      2.00      2.00   2376.41
 3033.4000   9890.65   -999.25     12.07      8.99    174.23      3.00    105.42     35.02      2.00      2.00   2387.29
 3033.6000   9891.26   -999.25     24.42      8.79    169.61      3.00    104.96     32.23      2.00      2.00   2380.75
 3033.8000   9891.88   -999.25     11.09      8.59    172.63      3.00    104.50     28.72      2.00      2.00   2356.64
 3034.0000   9892.49   -999.25      6.12      8.39    179.75      3.00    104.03     22.32      2.00      2.00   2385.59
 3034.2000   9893.10   -999.25     18.29      8.19    186.86      3.00    103.57     28.00      2.00      2.00   2416.90
 3034.4000   9893.72   -999.25     20.70      7.99    193.98      3.00    103.11     34.05      2.00      2.00   2395.06
 3034.6000   9894.33   -999.25     12.66      7.80    201.10      3.00    102.65     35.05      2.00      2.00   2397.50
 3034.8000   9894.95   -999.25     17.98      7.60    208.22      3.00    102.18     36.05      2.00      2.00   2385.57
 3035.0000   9895.56   -999.25     11.15      7.39    210.47      3.00    103.01     37.05      2.00      2.00   2408.61
 3035.2000   9896.17   -999.25     51.92      7.20    211.11      3.00    104.68     38.03      2.00      2.00   2419.26
 3035.4000   9896.79   -999.25     33.94      6.99    211.74      3.00    106.36     38.57      2.00      2.00   2397.97
 3035.6000   9897.40   -999.25     26.02      6.79    212.37      3.00    108.03     39.11      2.00      2.00   2398.22
 3035.8000   9898.02   -999.25     14.96      6.60    213.00      3.00    109.71     39.65      2.00      2.00   2424.81
 3036.0000   9898.63   -999.25     15.64      6.39    206.54      3.00    111.38     40.00      2.00      2.00   2380.61
 3036.2000   9899.24   -999.25     10.56      6.19    200.08      3.00    113.06     40.00      2.00      2.00   2398.13
 3036.4000   9899.86   -999.25     10.94      5.99    193.63      3.00    114.73     40.00      2.00      2.00   2395.63
 3036.6000   9900.47   -999.25      9.22      5.80    187.17      3.00    116.41     41.43      2.00      2.00   2423.06
 3036.8000   9901.08   -999.25      8.79      5.59    180.98      3.00    117.97     44.29      2.00      2.00   2400.42
 3037.0000   9901.70   -999.25      9.51      5.40    175.86      3.00    117.35     46.00      2.00      2.00   2396.05
 3037.2000   9902.31   -999.25      9.20      5.19    171.01      3.00    116.73     46.00      2.00      2.00   2404.10
 3037.4000   9902.92   -999.25      8.78      4.99    171.24      3.00    116.11     46.00      2.00      2.00   2352.45
 3037.6000   9903.54   -999.25     10.59      4.79    171.47      3.00    115.49     44.72      2.00      2.00   2402.89
 3037.8000   9904.15   -999.25      8.77      4.60    171.70      3.00    114.87     41.10      2.00      2.00   2330.97
 3038.0000   9904.77   -999.25     10.00      4.39    171.93      3.00    114.25     35.10      2.00      2.00   2388.96
 3038.2000   9905.38   -999.25      9.56      4.19    171.35      3.00    113.61     31.05      2.00      2.00   2346.19
 3038.4000   9905.99   -999.25      8.69      3.99    170.42      3.00    112.95     38.05      2.00      2.00   2369.77
 3038.6000   9906.61   -999.25      9.05      3.79    170.00      3.00    112.30     44.00      2.00      2.00   2416.31
 3038.8000   9907.22   -999.25     11.05      3.59    170.00      3.00    111.64     44.00      2.00      2.00   2414.07
 3039.0000   9907.83   -999.25      8.25      3.39    170.00      3.00    110.98     52.69      2.00      2.00   2403.23
 3039.2000   9908.45   -999.25      9.45      3.19    170.00      3.00    110.33     54.00      2.00      2.00   2347.82
 3039.4000   9909.06   -999.25      9.00      3.00    171.71      3.00    110.00     54.00      2.00      2.00   2377.87
 3039.6000   9909.67   -999.25      8.77      2.79    174.81      3.00   -999.25     53.85      2.00      2.00   2411.68
 3039.8000   9910.29   -999.25     60.27      2.60    177.91      3.00   -999.25     50.89      2.00      2.00   2390.04
 3040.0000   9910.90   -999.25     73.48      2.39    181.02      3.00   -999.25     47.93      2.00      2.00   2390.30
 3040.2000   9911.51   -999.25     88.77      2.19    184.12      3.00   -999.25     44.96      2.00      2.00   2358.24
 3040.4000   9912.12   -999.25     81.64      1.99    187.22      3.00   -999.25     42.00      2.00      2.00   2387.59
 3040.6000   9912.74   -999.25     85.58      1.79    187.08      3.00   -999.25     39.04      2.00      2.00   2361.95
 3040.8000   9913.35   -999.25     65.77      1.60    185.85      3.00   -999.25     36.07      2.00      2.00   2425.56
 3041.0000   9913.96   -999.25     72.66      1.39    184.62      3.00   -999.25     33.11      2.00      2.00   2390.32
 3041.2000   9914.58   -999.25     62.10      1.20    183.39      3.00   -999.25     30.15      2.00      2.00   2392.24
 3041.4000   9915.19   -999.25      2.46     12.37    182.17      3.00   -999.25     27.18      2.00      2.00   2381.09
 3041.6000   9915.80   -999.25     97.01     29.27    180.94      3.00   -999.25     25.63      2.00      2.00   2378.78
 3041.8000   9916.42   -999.25    119.37     29.07    179.71      3.00   -999.25     25.02      2.00      2.00   2360.72
 3042.0000   9917.03   -999.25     18.39     28.88    178.48      3.00   -999.25     24.40      2.00      2.00   2394.46
 3042.2000   9917.64   -999.25     22.94     28.67    177.25      3.00   -999.25     23.78      2.00      2.00   2333.40
 3042.4000   9918.26   -999.25     75.47     28.47    176.03      3.00   -999.25     23.17      2.00      2.00   2392.64
 3042.6000   9918.87   -999.25     26.06     28.27    174.80      3.00   -999.25     22.55      2.00      2.00   2333.42
 3042.8000   9919.48   -999.25      9.55     28.07    175.82      3.00   -999.25     23.16      2.00      2.00   2322.17
 3043.0000   9920.09   -999.25     23.86     27.88    181.03      3.00   -999.25     34.74      2.00      2.00   2333.54
