~Version Information
VERS.                       2.00: SCHLUMBERGER LAS - Version 2.00
WRAP.                         NO: One line per depth step
~Well Information
STRT.FT                2400.0000: Start Depth
STOP.FT                3131.0000: End Depth
STEP.FT                   0.2000:  
NULL.                    -999.25:  
COMP.                    Bapetco: COMPANY
WELL.                   BED-18 M: WELL
FLD .                        BED: FLD
SRVC.               Schlumberger: SERVICE COMPANY
LOC .                           : LOCATION
DATE.                  23-Oct-19: LOG DATE
UWI .                  19EGP0341: API NUMBER
~Curve Information
DEPT.FT                         : MWD Tool Measurement Depth
MTTVD.FT                         : MWD Tool Measurement TVD
PSPD.M/MIN                      : Instantaneous Pipe Speed
ROP .M/HR                       : Rate of Penetration (MWD Depth Ave.)
KPOSI.M                          : Kelly Position (Raw)
SSS_H.                           : Stick Slip Percentage from HDS1
SSL_H.                           : Stick Slip Level from HDS1
RPM_H.                           : Average RPM from HDS1
VIBC.CPS                        : Vibration Count
VIBXYH.                           : Vibration XY
VIBZH.                           : Vibration Z
SPP I.PSI                        : Standpipe Pressure (Raw)
#     DEPT     MTTVD      PSPD       ROP     KPOSI     SSS_H     SSL_H     RPM_H      VIBC    VIBXYH     VIBZH     SPP I
#       FT        FT     M/MIN      M/HR         M                                     CPS                           PSI
#
# Relog Number     0         0         0         0         0         0         0         0         0         0         0
#
~ASCII Data
# ...
 2788.6000   9135.27   -999.25     60.87     23.49    131.85      3.00   -999.25     12.00      2.00      2.00   2115.19
 2788.8000   9135.90   -999.25     15.49     23.28   -999.25   -999.25   -999.25     12.00   -999.25   -999.25   2090.45
 2789.0000   9136.54   -999.25     43.51     23.08   -999.25   -999.25   -999.25     12.00   -999.25   -999.25   2132.85
 2789.2000   9137.17   -999.25     43.17     22.88   -999.25   -999.25   -999.25     12.00   -999.25   -999.25   2108.32
 2789.4000   9137.80   -999.25     26.74     22.69   -999.25   -999.25   -999.25     12.00   -999.25   -999.25   2072.51
 2789.6000   9138.44   -999.25     46.30     22.48   -999.25   -999.25   -999.25     12.00   -999.25   -999.25   2076.20
 2789.8000   9139.07   -999.25     45.87     22.29   -999.25   -999.25   -999.25     12.00   -999.25   -999.25   2088.83
 2790.0000   9139.70   -999.25     45.35     22.08   -999.25   -999.25   -999.25     12.00   -999.25   -999.25   2131.56
 2790.2000   9140.34   -999.25     30.66     21.88   -999.25   -999.25   -999.25     11.25   -999.25   -999.25   2081.14
 2790.4000   9140.97   -999.25     39.29     21.68   -999.25   -999.25   -999.25     10.47   -999.25   -999.25   2033.94
 2790.6000   9141.60   -999.25     46.32     21.48   -999.25   -999.25   -999.25      9.69   -999.25   -999.25   2120.44
 2790.8000   9142.24   -999.25     44.24     21.28   -999.25   -999.25   -999.25      8.90   -999.25   -999.25   2061.55
 2791.0000   9142.87   -999.25     35.86     21.08   -999.25   -999.25   -999.25      8.12   -999.25   -999.25   2122.06
 2791.2000   9143.50   -999.25     35.60     20.88   -999.25   -999.25   -999.25      8.49   -999.25   -999.25   2076.53
 2791.4000   9144.13   -999.25     40.09     20.68   -999.25   -999.25   -999.25      9.06   -999.25   -999.25   2072.69
 2791.6000   9144.77   -999.25     32.60     20.48   -999.25   -999.25   -999.25      9.64   -999.25   -999.25   2071.14
 2791.8000   9145.40   -999.25     25.00     20.28   -999.25   -999.25   -999.25     10.22      2.00      2.00   2075.65
 2792.0000   9146.03   -999.25     41.93     20.08    142.00      3.00   -999.25     10.79      2.00      2.00   2083.48
 2792.2000   9146.66   -999.25     47.40     19.89    147.80      3.00    114.00     11.37      2.00      2.00   2063.65
 2792.4000   9147.30   -999.25     38.38     19.68    156.10      3.00   -999.25     11.94      2.00      2.00   2059.65
 2792.6000   9147.93   -999.25     22.52     19.48    164.39      3.00   -999.25     12.60      2.00      2.00   2075.66
 2792.8000   9148.56   -999.25     32.68     19.29    172.68      3.00   -999.25     13.27      2.00      2.00   2101.33
 2793.0000   9149.19   -999.25     19.54     19.08    180.97      3.00   -999.25     13.93      2.00      2.00   2063.07
 2793.2000   9149.83   -999.25     26.63     18.88    189.27      3.00   -999.25     14.60      2.00      2.00   2030.93
 2793.4000   9150.46   -999.25     25.61     18.68   -999.25   -999.25   -999.25     15.27      2.00      2.00   2080.39
 2793.6000   9151.09   -999.25     25.91     18.48   -999.25   -999.25   -999.25     15.93      2.00      2.00   2068.75
 2793.8000   9151.72   -999.25     35.71     18.29   -999.25   -999.25   -999.25     16.00      2.00      2.00   2062.52
 2794.0000   9152.36   -999.25     28.23     18.09   -999.25   -999.25   -999.25     16.00      2.00      2.00   2093.16
 2794.2000   9152.99   -999.25     35.60     17.88   -999.25   -999.25   -999.25     16.00      2.00      2.00   2045.90
 2794.4000   9153.62   -999.25     29.25     17.68   -999.25   -999.25   -999.25     16.00      2.00      2.00   2067.88
 2794.6000   9154.25   -999.25     35.90     17.48   -999.25   -999.25   -999.25     15.20      2.00      2.00   2059.77
 2794.8000   9154.88   -999.25     38.72     17.28   -999.25   -999.25   -999.25     14.36      2.00      2.00   2038.80
 2795.0000   9155.52   -999.25     45.59     17.08   -999.25   -999.25   -999.25     13.52      2.00      2.00   2035.83
 2795.2000   9156.15   -999.25     50.54     16.88   -999.25   -999.25   -999.25     12.67      2.00      2.00   1989.73
 2795.4000   9156.78   -999.25     47.51     16.69   -999.25   -999.25   -999.25     11.82      2.00      2.00   2073.79
 2795.6000   9157.41   -999.25     31.17     16.48   -999.25   -999.25   -999.25     10.92      2.00      2.00   2054.91
 2795.8000   9158.05   -999.25     33.40     16.28   -999.25   -999.25   -999.25     10.02      2.00      2.00   2053.01
 2796.0000   9158.68   -999.25     21.42     16.08   -999.25   -999.25   -999.25      9.11      2.00      2.00   2053.81
 2796.2000   9159.31   -999.25     48.74     15.89   -999.25   -999.25   -999.25      8.21      2.00      2.00   2038.47
 2796.4000   9159.94   -999.25     25.64     15.68    190.72      3.00    104.00      7.31      2.00      2.00   2051.89
 2796.6000   9160.57   -999.25     47.83     15.48    190.17      3.00   -999.25      6.41      2.00      2.00   2026.15
 2796.8000   9161.21   -999.25     41.41     15.28    189.61      3.00   -999.25      7.17      2.00      2.00   2039.16
 2797.0000   9161.84   -999.25     48.81     15.10    189.06      3.00   -999.25      9.31      2.00      2.00   2089.80
 2797.2000   9162.47   -999.25     56.20     15.08    188.50      3.00   -999.25     11.44      2.00      2.00   2126.05
 2797.4000   9163.10   -999.25      4.40     14.89    187.95      3.00   -999.25     13.57      2.00      2.00   2112.37
 2797.6000   9163.73   -999.25     29.30     14.68    187.45      3.00   -999.25     14.00      2.00      2.00   2230.62
 2797.8000   9164.36   -999.25     46.76     14.49    186.95      3.00   -999.25     14.00      2.00      2.00   2269.40
 2798.0000   9164.99   -999.25     36.78     14.28    186.46      3.00   -999.25     14.00      2.00      2.00   2203.60
 2798.2000   9165.62   -999.25     37.79     14.08    185.96      3.00   -999.25     14.00      2.00      2.00   2264.95
 2798.4000   9166.26   -999.25     28.68     13.89    185.46      3.00   -999.25     14.00      2.00      2.00   2315.96
 2798.6000   9166.89   -999.25     32.16     13.68    184.96      3.00   -999.25     14.00      2.00      2.00   2211.84
 2798.8000   9167.52   -999.25     49.41     13.49    184.46      3.00   -999.25     14.00      2.00      2.00   2243.14
 2799.0000   9168.15   -999.25     48.34     13.28    183.97      3.00   -999.25     13.51      2.00      2.00   2278.44
 2799.2000   9168.78   -999.25     17.46     13.08    183.47      3.00   -999.25     12.99      2.00      2.00   2284.94
 2799.4000   9169.41   -999.25     44.51     12.88    182.97      3.00   -999.25     12.47      2.00      2.00   2254.46
 2799.6000   9170.04   -999.25     39.37     12.69    182.47      3.00   -999.25     11.95      2.00      2.00   2251.39
 2799.8000   9170.68   -999.25     37.06     12.48    181.63      3.00    106.00     11.43      2.00      2.00   2234.32
 2800.0000   9171.31   -999.25     39.31     12.28    174.29      3.00   -999.25     10.91      2.00      2.00   2215.37
 2800.2000   9171.94   -999.25     38.90     12.08    166.95      3.00   -999.25     10.39      2.00      2.00   2292.24
 2800.4000   9172.57   -999.25     36.08     11.88    159.60      3.00   -999.25     10.18      2.00      2.00   2239.28
 2800.6000   9173.20   -999.25     44.06     11.68    152.26      3.00   -999.25     10.90      2.00      2.00   2267.03
 2800.8000   9173.83   -999.25     37.65     11.48    144.91      3.00   -999.25     11.62      2.00      2.00   2256.64
 2801.0000   9174.46   -999.25     32.72     11.28    137.57      3.00   -999.25     12.34      2.00      2.00   2243.81
 2801.2000   9175.09   -999.25     39.41     11.08    130.22      3.00   -999.25     13.05      2.00      2.00   2265.77
 2801.4000   9175.72   -999.25     43.95     10.88    122.88      3.00   -999.25     13.77      2.00      2.00   2274.37
 2801.6000   9176.35   -999.25     38.81     10.68    117.00      3.00   -999.25     14.49   -999.25   -999.25   2267.93
 2801.8000   9176.99   -999.25     46.11     10.48   -999.25   -999.25   -999.25     15.21   -999.25   -999.25   2231.86
