~Version Information
VERS.                       2.00: SCHLUMBERGER LAS - Version 2.00
WRAP.                         NO: One line per depth step
~Well Information
STRT.FT                2400.0000: Start Depth
STOP.FT                3131.0000: End Depth
STEP.FT                   0.2000:  
NULL.                    -999.25:  
COMP.                    Bapetco: COMPANY
WELL.                   BED-18 M: WELL
FLD .                        BED: FLD
SRVC.               Schlumberger: SERVICE COMPANY
LOC .                           : LOCATION
DATE.                  23-Oct-19: LOG DATE
UWI .                  19EGP0341: API NUMBER
~Curve Information
DEPT.FT                         : MWD Tool Measurement Depth
MTTVD.FT                         : MWD Tool Measurement TVD
PSPD.M/MIN                      : Instantaneous Pipe Speed
ROP .M/HR                       : Rate of Penetration (MWD Depth Ave.)
KPOSI.M                          : Kelly Position (Raw)
SSS_H.                           : Stick Slip Percentage from HDS1
SSL_H.                           : Stick Slip Level from HDS1
RPM_H.                           : Average RPM from HDS1
VIBC.CPS                        : Vibration Count
VIBXYH.                           : Vibration XY
VIBZH.                           : Vibration Z
SPP I.PSI                        : Standpipe Pressure (Raw)
#     DEPT     MTTVD      PSPD       ROP     KPOSI     SSS_H     SSL_H     RPM_H      VIBC    VIBXYH     VIBZH     SPP I
#       FT        FT     M/MIN      M/HR         M                                     CPS                           PSI
#
# Relog Number     0         0         0         0         0         0         0         0         0         0         0
#
~ASCII Data
# ...
 2453.6000   8047.69   -999.25     28.55     11.73    214.57      3.00     83.88     59.35      2.00      2.00   1869.55
 2453.8000   8048.35   -999.25     25.78     11.53    219.00      3.00     82.58     55.88      2.00      2.00   1923.60
 2454.0000   8049.00   -999.25     23.91     11.32    221.43      3.00     83.04     52.42      2.00      2.00   1901.92
 2454.2000   8049.66   -999.25     21.38     11.12    223.86      3.00     84.92     49.37      2.00      2.00   1883.99
 2454.4000   8050.31   -999.25     24.34     10.92    226.29      3.00     86.81     47.26      2.00      2.00   1900.54
 2454.6000   8050.97   -999.25     19.34     10.72    228.72      3.00     88.69     45.16      2.00      2.00   1909.22
 2454.8000   8051.63   -999.25     27.92     10.52    231.15      3.00     90.58     43.05      2.00      2.00   1878.55
 2455.0000   8052.28   -999.25     22.74     10.32    232.00      3.00     92.46     42.00      2.00      2.00   1839.46
 2455.2000   8052.94   -999.25      8.14     10.12    232.00      3.00     94.35     42.00      2.00      2.00   1926.25
 2455.4000   8053.60   -999.25     36.17      9.92    232.00      3.00     96.24     44.42      2.00      2.00   1872.06
 2455.6000   8054.25   -999.25     31.60      9.72    232.00      3.00     98.12     54.14      2.00      2.00   1921.29
 2455.8000   8054.91   -999.25     28.37      9.52    232.00      3.00    100.01     63.85      2.00      2.00   1927.90
 2456.0000   8055.56   -999.25     24.46      9.33    232.00      3.00    101.89     73.57      2.00      2.00   1941.83
 2456.2000   8056.22   -999.25     20.14      9.12    232.00      3.00    103.78     73.09      2.00      2.00   1890.16
 2456.4000   8056.88   -999.25     25.61      8.92    232.00      3.00    105.66     69.21      2.00      2.00   1861.03
 2456.6000   8057.53   -999.25     26.15      8.73    232.00      3.00    107.55     65.32      2.00      2.00   1910.96
 2456.8000   8058.19   -999.25     28.76      8.53    230.72      3.00    109.43     61.44      2.00      2.00   1881.53
 2457.0000   8058.84   -999.25     28.23      8.32    217.91      3.00   -999.25     57.55      2.00      2.00   1899.15
 2457.2000   8059.50   -999.25     21.04      8.13    205.09      3.00   -999.25     56.24      2.00      2.00   1859.58
 2457.4000   8060.16   -999.25     20.04      7.93    192.27      3.00   -999.25     56.64      2.00      2.00   1921.42
 2457.6000   8060.81   -999.25     28.93      7.73    179.46      3.00   -999.25     57.04      2.00      2.00   1829.81
 2457.8000   8061.47   -999.25     20.56      7.53    166.64      3.00   -999.25     57.44      2.00      2.00   1872.73
 2458.0000   8062.12   -999.25     24.12      7.33    166.00      3.00   -999.25     57.84      2.00      2.00   1874.98
 2458.2000   8062.78   -999.25     22.59      7.12    166.00      3.00   -999.25     58.00      2.00      2.00   1919.05
 2458.4000   8063.44   -999.25     24.88      6.92    166.00      3.00   -999.25     58.00      2.00      2.00   1895.61
 2458.6000   8064.09   -999.25     25.65      6.72    166.00      3.00   -999.25     58.00      2.00      2.00   1917.79
 2458.8000   8064.75   -999.25     24.05      6.52    166.00      3.00   -999.25     55.47      2.00      2.00   1902.09
 2459.0000   8065.41   -999.25     28.62      6.32    166.00      3.00   -999.25     49.84      2.00      2.00   1914.48
 2459.2000   8066.06   -999.25     19.67      6.12    166.00      3.00   -999.25     44.22      2.00      2.00   1913.43
 2459.4000   8066.72   -999.25     23.08      5.93    166.00      3.00   -999.25     40.09      2.00      2.00   1934.93
 2459.6000   8067.37   -999.25     30.21      5.72    166.00      3.00   -999.25     40.46      2.00      2.00   1938.56
 2459.8000   8068.03   -999.25     21.04      5.52    166.00      3.00   -999.25     40.83      2.00      2.00   1894.31
 2460.0000   8068.69   -999.25     30.57      5.32    166.00      3.00   -999.25     41.19      2.00      2.00   1887.98
 2460.2000   8069.34   -999.25     29.25      5.13    164.94      3.00    108.00     41.56      2.00      2.00   1926.55
 2460.4000   8070.00   -999.25     24.55      4.92    163.32      3.00   -999.25     41.93      2.00      2.00   1900.10
 2460.6000   8070.66   -999.25     33.32      4.73    161.69      3.00   -999.25     41.16      2.00      2.00   1921.38
 2460.8000   8071.31   -999.25     24.37      4.52    160.07      3.00   -999.25     40.11      2.00      2.00   1870.96
 2461.0000   8071.97   -999.25     25.52      4.33    158.44      3.00   -999.25     39.05      2.00      2.00   1889.80
 2461.2000   8072.62   -999.25     24.40      4.12    156.81      3.00   -999.25     38.00      2.00      2.00   1897.04
 2461.4000   8073.28   -999.25     14.52      3.93    156.08      3.00   -999.25     36.95      2.00      2.00   1896.29
 2461.6000   8073.94   -999.25     33.27      3.73    156.25      3.00   -999.25     36.00      2.00      2.00   1946.75
 2461.8000   8074.59   -999.25     44.22      3.52    156.41      3.00   -999.25     36.00      2.00      2.00   1939.06
 2462.0000   8075.25   -999.25     38.81      3.33    156.58      3.00   -999.25     36.00      2.00      2.00   1918.00
 2462.2000   8075.90   -999.25     37.89      3.12    156.74      3.00   -999.25     36.00      2.00      2.00   1954.56
 2462.4000   8076.56   -999.25     31.88      2.92    156.91      3.00   -999.25     38.94      2.00      2.00   1955.53
 2462.6000   8077.22   -999.25     29.60      2.73    157.07      3.00   -999.25     46.31      2.00      2.00   1907.95
 2462.8000   8077.87   -999.25     25.78      2.52    157.24      3.00   -999.25     53.68      2.00      2.00   1921.67
 2463.0000   8078.53   -999.25     25.77      2.32    157.40      3.00   -999.25     61.05      2.00      2.00   1934.79
 2463.2000   8079.19   -999.25     23.07      2.12    157.57      3.00   -999.25     63.09      2.00      2.00   1877.42
 2463.4000   8079.84   -999.25     30.49      1.92    157.74      3.00   -999.25     61.57      2.00      2.00   1955.28
 2463.6000   8080.50   -999.25     31.11      1.73    157.90      3.00   -999.25     60.05      2.00      2.00   1913.10
 2463.8000   8081.15   -999.25     13.48      1.52    158.00      3.00    110.00     58.53   -999.25   -999.25   1917.30
 2464.0000   8081.81   -999.25     29.77      1.33   -999.25   -999.25   -999.25     57.00   -999.25   -999.25   1926.64
 2464.2000   8082.47   -999.25     31.72      1.12   -999.25   -999.25   -999.25     55.48   -999.25   -999.25   1945.87
 2464.4000   8083.12   -999.25     23.44      0.93   -999.25   -999.25   -999.25     53.96   -999.25   -999.25   1902.01
 2464.6000   8083.78   -999.25     12.83     29.39   -999.25   -999.25   -999.25     52.44   -999.25   -999.25   1958.98
 2464.8000   8084.44   -999.25     29.96     29.18   -999.25   -999.25   -999.25     50.92   -999.25   -999.25   1926.43
 2465.0000   8085.09   -999.25     18.90     28.98   -999.25   -999.25   -999.25     49.40   -999.25   -999.25   1967.80
 2465.2000   8085.75   -999.25     24.91     28.78   -999.25   -999.25   -999.25     47.88   -999.25   -999.25   1946.47
 2465.4000   8086.40   -999.25     35.77     28.59   -999.25   -999.25   -999.25     46.36   -999.25   -999.25   1980.98
 2465.6000   8087.06   -999.25     21.85     28.38   -999.25   -999.25   -999.25     44.84   -999.25   -999.25   1936.30
 2465.8000   8087.72   -999.25     29.55     28.19   -999.25   -999.25   -999.25     44.37   -999.25   -999.25   1952.70
 2466.0000   8088.37   -999.25     27.99     27.99   -999.25   -999.25   -999.25     45.18   -999.25   -999.25   1934.64
 2466.2000   8089.03   -999.25     35.68     27.79   -999.25   -999.25   -999.25     45.99   -999.25   -999.25   2010.72
 2466.4000   8089.68   -999.25     31.14     27.58   -999.25   -999.25   -999.25     46.80   -999.25   -999.25   1978.96
 2466.6000   8090.34   -999.25     34.48     27.38   -999.25   -999.25   -999.25     47.61   -999.25   -999.25   1973.02
 2466.8000   8091.00   -999.25     41.67     27.18   -999.25   -999.25   -999.25     48.42   -999.25   -999.25   1979.91
