~Version Information
VERS.                       2.00: SCHLUMBERGER LAS - Version 2.00
WRAP.                         NO: One line per depth step
~Well Information
STRT.FT                2400.0000: Start Depth
STOP.FT                3131.0000: End Depth
STEP.FT                   0.2000:  
NULL.                    -999.25:  
COMP.                    Bapetco: COMPANY
WELL.                   BED-18 M: WELL
FLD .                        BED: FLD
SRVC.               Schlumberger: SERVICE COMPANY
LOC .                           : LOCATION
DATE.                  23-Oct-19: LOG DATE
UWI .                  19EGP0341: API NUMBER
~Curve Information
DEPT.FT                         : MWD Tool Measurement Depth
MTTVD.FT                         : MWD Tool Measurement TVD
PSPD.M/MIN                      : Instantaneous Pipe Speed
ROP .M/HR                       : Rate of Penetration (MWD Depth Ave.)
KPOSI.M                          : Kelly Position (Raw)
SSS_H.                           : Stick Slip Percentage from HDS1
SSL_H.                           : Stick Slip Level from HDS1
RPM_H.                           : Average RPM from HDS1
VIBC.CPS                        : Vibration Count
VIBXYH.                           : Vibration XY
VIBZH.                           : Vibration Z
SPP I.PSI                        : Standpipe Pressure (Raw)
#     DEPT     MTTVD      PSPD       ROP     KPOSI     SSS_H     SSL_H     RPM_H      VIBC    VIBXYH     VIBZH     SPP I
#       FT        FT     M/MIN      M/HR         M                                     CPS                           PSI
#
# Relog Number     0         0         0         0         0         0         0         0         0         0         0
#
~ASCII Data
# ...
 3070.0000  10002.60   -999.25      5.91     29.40   -999.25   -999.25   -999.25     27.90   -999.25   -999.25   2336.32
 3070.2000  10003.21   -999.25     13.76     29.20   -999.25   -999.25   -999.25     33.54   -999.25   -999.25   2355.16
 3070.4000  10003.82   -999.25     38.49     29.00   -999.25   -999.25   -999.25     39.18   -999.25   -999.25   2331.97
 3070.6000  10004.43   -999.25     28.53     28.80   -999.25   -999.25   -999.25     39.98   -999.25   -999.25   2409.13
 3070.8000  10005.04   -999.25     10.69     28.60   -999.25   -999.25   -999.25     35.93   -999.25   -999.25   2353.52
 3071.0000  10005.65   -999.25     23.25     28.40      0.00      0.00   -999.25     31.89      2.00      2.00   2400.22
 3071.2000  10006.26   -999.25     36.99     28.20     24.95      0.39    160.00     27.84      2.00      2.00   2382.18
 3071.4000  10006.87   -999.25     15.04     28.00     63.35      0.99    154.02     24.03      2.00      2.00   2408.49
 3071.6000  10007.48   -999.25     28.19     27.80    101.75      1.59    145.49     24.53      2.00      2.00   2395.72
 3071.8000  10008.09   -999.25     13.14     27.60    140.15      2.19    136.95     25.03      2.00      2.00   2371.93
 3072.0000  10008.70   -999.25     31.10     27.40    178.55      2.79    128.41     25.53      2.00      2.00   2374.46
 3072.2000  10009.31   -999.25     33.21     27.20    176.31      2.75    119.87     25.92      2.00      2.00   2362.92
 3072.4000  10009.92   -999.25      2.87     27.00    152.16      2.38    111.34     24.36      2.00      2.00   2348.57
 3072.6000  10010.53   -999.25     16.36     26.80    128.00      2.00    102.80     22.80      2.00      2.00   2371.58
 3072.8000  10011.14   -999.25     13.87     26.60    103.85      1.62     94.26     21.25      2.00      2.00   2379.86
 3073.0000  10011.75   -999.25     68.65     26.40     79.70      1.25     85.72     20.31      2.00      2.00   2384.14
 3073.2000  10012.36   -999.25     35.77     26.20     55.54      0.87     77.19     21.85      2.00      2.00   2394.86
 3073.4000  10012.97   -999.25     35.41     26.00     31.39      0.49     68.65     23.38      2.00      2.00   2393.32
 3073.6000  10013.58   -999.25     17.94     25.80      7.24      0.11     60.11     24.92      2.00      2.00   2371.60
 3073.8000  10014.19   -999.25     41.59     25.60     21.73      0.39     52.13     26.46      2.00      2.00   2390.37
 3074.0000  10014.80   -999.25     20.51     25.40     52.76      0.95     54.71     28.00      2.00      2.00   2375.82
 3074.2000  10015.41   -999.25     29.42     25.20     83.78      1.51     57.29     25.17      2.00      2.00   2425.21
 3074.4000  10016.02   -999.25     17.76     25.00    114.81      2.07     59.87     22.34      2.00      2.00   2342.28
 3074.6000  10016.63   -999.25     17.81     24.80    145.84      2.64     62.45     19.52      2.00      2.00   2384.74
 3074.8000  10017.24   -999.25     26.50     24.60    165.89      3.00     65.03     16.69      2.00      2.00   2374.15
 3075.0000  10017.85   -999.25     25.82     24.40    165.56      3.00     67.61     14.18      2.00      2.00   2410.39
 3075.2000  10018.46   -999.25     28.33     24.20    165.24      3.00     70.19     17.68      2.00      2.00   2355.22
 3075.4000  10019.07   -999.25     26.15     24.00    164.91      3.00     72.77     21.19      2.00      2.00   2374.07
 3075.6000  10019.68   -999.25     14.99     23.80    164.59      3.00     75.35     24.47      2.00      2.00   2387.58
 3075.8000  10020.29   -999.25     24.05     23.60    164.26      3.00     77.93     26.82      2.00      2.00   2395.39
 3076.0000  10020.90   -999.25     16.55     23.40    163.94      3.00     80.52     29.18      2.00      2.00   2356.72
 3076.2000  10021.51   -999.25     12.89     23.20    163.62      3.00     83.10     14.38      2.00      2.00   2378.19
 3076.4000  10022.12   -999.25     70.81     23.00    163.29      3.00     85.68     16.91      2.00      2.00   2348.55
 3076.6000  10022.73   -999.25     13.11     22.80    163.00      3.00     88.25     19.44      2.00      2.00   2382.83
 3076.8000  10023.33   -999.25     28.93     22.60    163.00      3.00     90.75     21.98      2.00      2.00   2384.15
 3077.0000  10023.95   -999.25     24.01     22.40    163.00      3.00     93.25     23.91      2.00      2.00   2391.35
 3077.2000  10024.55   -999.25     20.04     22.20    163.00      3.00     95.75     23.46      2.00      2.00   2388.34
 3077.4000  10025.17   -999.25     27.90     22.00    163.00      3.00     98.25     23.01      2.00      2.00   2406.85
 3077.6000  10025.77   -999.25     15.91     21.80    163.56      3.00    100.75     22.56      2.00      2.00   2373.12
 3077.8000  10026.38   -999.25     40.18     21.60    165.42      3.00    103.25     22.11      2.00      2.00   2398.47
 3078.0000  10026.99   -999.25     16.52     21.40    167.28      3.00    105.75     22.00      2.00      2.00   2388.10
 3078.2000  10027.60   -999.25     19.64     21.20    169.14      3.00    108.25     22.00      2.00      2.00   2376.68
 3078.4000  10028.21   -999.25     53.56     21.00    171.00      3.00    110.75     22.00      2.00      2.00   2410.22
 3078.6000  10028.82   -999.25     71.01     20.80    172.86      3.00    113.25     22.30      2.00      2.00   2393.54
 3078.8000  10029.43   -999.25     33.66     20.60    174.72      3.00    115.75     23.06      2.00      2.00   2391.97
 3079.0000  10030.04   -999.25     10.00     20.40    176.58      3.00    118.25     23.81      2.00      2.00   2350.97
 3079.2000  10030.65   -999.25     19.50     20.20    178.44      3.00    120.75     20.94      2.00      2.00   2392.48
 3079.4000  10031.26   -999.25      6.97     20.00    166.08      3.00    121.70     16.86      2.00      2.00   2392.11
 3079.6000  10031.87   -999.25      9.52     19.80    147.61      3.00    121.11     14.37      2.00      2.00   2391.70
 3079.8000  10032.48   -999.25     25.08     19.60    129.15      3.00    120.52     15.63      2.00      2.00   2344.04
 3080.0000  10033.09   -999.25      8.58     19.40    123.96      3.00    119.93     16.88      2.00      2.00   2388.90
 3080.2000  10033.70   -999.25    108.61     19.20    134.96      3.00    119.33     18.00      2.00      2.00   2351.26
 3080.4000  10034.31   -999.25     92.89     19.00    145.97      3.00    118.74     18.00      2.00      2.00   2359.52
 3080.6000  10034.92   -999.25     50.93     18.80    156.97      3.00    118.15     18.00      2.00      2.00   2379.71
 3080.8000  10035.53   -999.25     12.36     18.60    167.97      3.00    117.56     18.54      2.00      2.00   2413.47
 3081.0000  10036.13   -999.25     31.49     18.40    178.98      3.00    116.96     20.08      2.00      2.00   2365.35
 3081.2000  10036.74   -999.25     68.70     18.20    189.98      3.00    116.37     21.62      2.00      2.00   2401.24
 3081.4000  10037.35   -999.25      8.58     18.00    200.99      3.00    115.78     23.88      2.00      2.00   2389.14
 3081.6000  10037.96   -999.25     34.79     18.20    211.99      3.00    115.19     26.38      2.00      2.00   2340.85
 3081.8000  10038.57   -999.25     60.99     18.00    223.00      3.00    114.59     28.28      2.00      2.00   2328.40
 3082.0000  10039.18   -999.25     87.20     17.80    234.00      3.00    114.00     29.08      2.00      2.00   2387.26
 3082.2000  10039.79   -999.25      3.31     17.60    244.43      3.00    121.14     29.88      2.00      2.00   2387.47
 3082.4000  10040.40   -999.25     72.83     17.40    235.68      3.00   -999.25     30.68      2.00      2.00   2353.71
 3082.6000  10041.01   -999.25     31.73     17.20    226.92      3.00   -999.25     31.48      2.00      2.00   2402.73
 3082.8000  10041.62   -999.25     60.87     17.00    218.16      3.00   -999.25     32.28      2.00      2.00   2379.75
 3083.0000  10042.23   -999.25     46.58     16.80    209.40      3.00   -999.25     33.08      2.00      2.00   2408.52
 3083.2000  10042.84   -999.25     25.77     16.60    200.64      3.00   -999.25     33.88      2.00      2.00   2379.89
