~Version Information											
VERS.                       2.00: SCHLUMBERGER LAS - Version 2.00											
WRAP.                         NO: One line per depth step											
~Well Information											
STRT.FT                1135.0000: Start Depth											
STOP.FT                2399.0000: End Depth											
STEP.FT                   0.2000:  											
											
COMP.                    Bapetco: COMPANY											
WELL.                   BED-18 M: WELL											
FLD .                        BED: FLD											
SRVC.               Schlumberger: SERVICE COMPANY											
LOC .                           : LOCATION											
DATE.                  20-Oct-19: LOG DATE											
UWI .                  19EGP0341: API NUMBER											
~Curve Information											
DEPT.FT                         : MWD Tool Measurement Depth											
MTTVD.FT                         : MWD Tool Measurement TVD											
PSPD.M/MIN                      : Instantaneous Pipe Speed											
ROP .M/HR                       : Rate of Penetration (MWD Depth Ave.)											
KPOSI.M                          : Kelly Position (Raw)											
SSS_H.                           : Stick Slip Percentage from HDS1											
SSL_H.                           : Stick Slip Level from HDS1											
RPM_H.                           : Average RPM from HDS1											
VIBC.CPS                        : Vibration Count											
VIBXYH.                           : Vibration XY											
VIBZH.                           : Vibration Z											
SPP I.PSI                        : Standpipe Pressure (Raw)											
DEPT	MTTVD	PSPD	ROP	KPOSI	SSS_H	SSL_H	RPM_H	VIBC	VIBXYH	VIBZH	SPP
M	FT	M/MIN	M/HR	M				CPS			PSI
#											
# Relog Number     0         0         0         0         0         0         0         0         0         0         0											
#											
~ASCII Data											
# ...
1755.2	5757.95		27.67	21.67	10.27	0	102.07	394	12.29	4	2695.48
1755.4	5758.61		36.39	21.47	11.63	0	102.48	385.06	11.28	4	2695.72
1755.6	5759.27		26.6	21.27	12.98	0	103.01	367.16	10.26	4	2723.58
1755.8	5759.92		15.29	21.07	13.55	0	103.55	360	10.3	4	2671.07
1756	5760.58		6.42	20.87	11.71	0	104.08	398.25	13.19	4	2677.59
1756.2	5761.23		42.63	20.68	9.76	0	104.64	462	14.44	4	2675.24
1756.4	5761.89		62.44	20.47	7.82	0	105.19	462	15.69	4	2690.94
1756.6	5762.55		68.24	20.27	5.87	0	105.75	462	16.94	4	2720.51
1756.8	5763.2		12.55	20.07	6.33	0	106	462	16.65	4	2723.91
1757	5763.86		80.51	19.87	8.74	0	106	431.86	15.09	4	2687.7
1757.2	5764.52		83.42	19.67	11.16	0	106	398.37	13.54	4	2697.18
1757.4	5765.17		20.72	19.47	11.41	0	106	390	12.3	4	2698.98
1757.6	5765.83		40.24	19.28	10.5	0	106	374.88	11.22	4	2684.37
1757.8	5766.48		11.96	17.09	11.62	0	105.82	347.38	10.15	4	2686.5
1758	5767.14		19.14	16.88	15.21	0	105.29	346	9.5	4	2675.15
1758.2	5767.8		60.67	16.68	16.23	0	104.76	346	9.5	4	2707.77
1758.4	5768.45		17.59	16.49	14.69	0	104.24	354.66	9.5	4	2682.15
1758.6	5769.11		13.76	16.28	14.2	0	103.57	372	10.3	4	2748.44
1758.8	5769.76		98.73	16.08	14.55	0	102.78	372	11.76	4	2721.37
1759	5770.42		38.8	15.89	14.91	0	102	372	13	4	2691.92
1759.2	5771.08		21.23	15.68	16.1	0	101.22	378.92	13	4	2702.84
1759.4	5771.73		26.67	15.49	17.56	0	100.43	384.25	12.86	3.92	2727.34
1759.6	5772.39		25.22	15.29	16.6	0	99.25	374.68	11.49	3.14	2684.41
1759.8	5773.04		33.26	15.09	14.6	0	97.58	365.1	10.12	2.35	2718.56
1760	5773.7		31.57	13.87	12.75	0	95.92	356	9.5	2.45	2701.53
1760.2	5774.36		29.88	13.67	11.5	0	94.25	356	9.5	3.27	2681.89
1760.4	5775.01		29.36	13.47	10.25	0	92.58	356	9.5	4	2702.05
1760.6	5775.67		11.12	13.27	16.62	0	93.93	393.99	9.5	4	2667.3
1760.8	5776.32		38.75	13.07	22	0	96.89	408	9.5	4	2678.67
1761	5776.98		19.15	12.87	22	0	99.85	408	9.5	4	2716.27
1761.2	5777.64		27.83	12.67	22	0	102.81	399.79	9.5	4	2662.52
1761.4	5778.29		21.85	12.46	21.26	0	104	394	9.5	4	2693.39
1761.6	5778.95		32.98	12.27	20.52	0	104	394	9.5	4	2727.95
1761.8	5779.6		19.81	12.06	20	0	104	394	10.53	4	2721.98
1762	5780.26		27.75	11.86	20	0	104	391.84	12.59	4	2692.84
1762.2	5780.92		21.73	11.67	17.33	0	104	381.08	13	4	2705.72
1762.4	5781.57		19.93	11.46	10.67	0		380	13	4	2720.03
1762.6	5782.23										
1762.8	5782.89										
1763	5783.54										
1763.2	5784.2										
1763.4	5784.85										
1763.6	5785.51										
1763.8	5786.17										
1764	5786.82										
1764.2	5787.48										
1764.4	5788.13										
1764.6	5788.79										
1764.8	5789.45										
1765	5790.1										
1765.2	5790.76										
1765.4	5791.42										
1765.6	5792.07										
1765.8	5792.73										
1766	5793.38										
1766.2	5794.04										
1766.4	5794.7										
1766.6	5795.35										
1766.8	5796.01										
1767	5796.66							380			
1767.2	5797.32										
1767.4	5797.98										
1767.6	5798.63										
1767.8	5799.29										
1768	5799.94										
1768.2	5800.6										
1768.4	5801.26										
1768.6	5801.91										
1768.8	5802.57										
1769	5803.22										
1769.2	5803.88										
1769.4	5804.54										
1769.6	5805.19										
1769.8	5805.85										
1770	5806.51										
1770.2	5807.16										
1770.4	5807.82										
1770.6	5808.47										
1770.8	5809.13										
1771	5809.79										
1771.2	5810.44										
1771.4	5811.1										
1771.6	5811.75		4.68	11.26							2668.73
1771.8	5812.41		75.27	11.05					13	4	2695.02
1772	5813.07		50.95	10.85	9.12	0	104	374	11.73	4	2690.29
1772.2	5813.72		21.52	10.66	12.84	0	104	374	10.45	4	2700.03
1772.4	5814.38		20.03	10.45	17.06	0	104	374	10	4	2683.37
1772.6	5815.03		23.12	10.25	18.33	0	104	374	12	4	2687.53
1772.8	5815.69		3.42	10.05	12.51	0	101.26	351.5	11.75	4	2726.99
1773	5816.35		31.88	9.85	16.3	0	94.42	326.5	9.35	3.9	2688.83
1773.2	5817		20.63	9.65	18	0	87.58	342.95	7.89	2.93	2712.34
1773.4	5817.66		26.37	9.45	18	0	80.74	344	6.7	2.06	2686.63
1773.6	5818.31		15.39	9.25	21.52	0	78.79	332.08	10.64	3.27	2754.87
1773.8	5818.97		12.81	9.05	24	0	80.1	318	10.92	3.36	2747.09
1774	5819.63		19.19	8.85	24	0	81.41	318	6.5	2.17	2701.38
1774.2	5820.28		17.94	8.65	21.05	0	81.62	314.35	6.5	3.28	2738.12
1774.4	5820.94		21.57	8.46	16.84	0	80.93	304	6.5	3.3	2693.17
1774.6	5821.6		10.48	8.25	18	0	80.24	303.4	6.5	2	2591.26
1774.8	5822.25		10.56	8.06	18	0	80	292	6.5	2	2669.13
1775	5822.91		13.61	7.85	15.12	0	80	269.69	6.5	2	2679.23
1775.2	5823.56		11.42	7.65	16.83	0	80	240	6.5	2	2684.36
1775.4	5824.22		11.84	7.45	17	0	80	240	6.5	3.05	2723.34
1775.6	5824.88		11.09	7.26	15	0	79.88	310	6.5	3.51	2709.16
1775.8	5825.53		59.02	7.05	15	0	79.39	310	6.5	2.54	2701.72
1776	5826.19		31.55	6.85	15.08	0	78.9	310	6.5	2	2721.06
1776.2	5826.84		22.03	6.65	15.59	0	78.41	310	6.5	2	2722.78
1776.4	5827.5		18.03	6.46	15.76	0	78.15	304.93	6.5	2	2683.18
1776.6	5828.16		42.68	6.26	14.56	0	79.18	302	6.5	2	2713.22
1776.8	5828.81		24.5	6.06	13.36	0	80.21	302	6.5	2	2657.4
1777	5829.47		22.87	5.85	15.41	0	81.23	302	6.5	2	2718.86
1777.2	5830.12		10.55	5.65	17.82	0	81.9	294.73	6.5	2	2699.61
1777.4	5830.78		69.95	5.46	17.09	0	81.51	282	6.5	2	2703.46
1777.6	5831.44		29.77	5.25	16.36	0	81.11	282	6.5	2	2685.75
1777.8	5832.09		31.15	5.05	17.39	0	80.71	282	6.5	3.13	2709.57
1778	5832.75		15.41	4.86	20.17	0	80.32	263.25	6.5	3.7	2691.9
1778.2	5833.41		15.79	4.65	19	0	80	270.97	6.5	2.7	2733.03
1778.4	5834.06		17.72	4.45	17	0	80	302	6.5	2	2683.01
1778.6	5834.72		22.67	4.26	17	0	80	302	6.5	2	2700.69
1778.8	5835.37		15.63	4.06	16.73	0	80	289.07	6.5	2	2694.52
1779	5836.03		11.65	3.85	16.13	0	80	260	6.5	2	2711.91
1779.2	5836.69		11.64	3.66	19.67	0	80	260	6.5	2	2693.56
1779.4	5837.34		32.4	3.45	25.26	0	80	266.43	6.5	2	2691.79
1779.6	5838		15.08	3.25	30	0	80	280	6.5	2	2667.62
1779.8	5838.65		28.28	3.06	30	0	80	280	6.5	2	2659.42
1780	5839.31		15.4	2.85	29.15	0	80.09	290.24	6.5	2.25	2691.51
1780.2	5839.97		34.54	2.65	24.89	0	80.54	296	6.5	3.25	2694.24
1780.4	5840.62		24.99	2.45	20.64	0	80.99	296	6.5	3.73	2703.75
1780.6	5841.28		14.43	2.25	18.21	0	81.44	296	6.5	2.65	2686.57
1780.8	5841.93		47.13	2.06	16.11	0	81.89	273.64	6.5	2	2671.44
1781	5842.59		16.98	1.85	17.16	0	79.61	258	6.5	2	2722.46
1781.2	5843.25		48.56	1.66	18.39	0	76.43	258	6.5	2	2666.67
1781.4	5843.9		25.79	1.45	39.74	0.75	73.25	258	6.5	2	2678.26
1781.6	5844.56		21.27	1.25	81.26	2.25	70.07	194.23	6.5	2	2694.77
1781.8	5845.21		4.37	29.44	83.82	2.09	69.53	132.04	5.39	2	2780.61
1782	5845.87		10.92	29.23	51.42	0.74	73.89	284	4.86	2	2733.95
1782.2	5846.53		36.43	29.04	24.97	0.1	78.25	289.86	6.5	2	2712.19
1782.4	5847.18		21.46	28.84	20.4	0	79.81	294	6.5	2	2743.74
1782.6	5847.84		25.53	28.63	19.7	0	79.48	294	6.5	2	2749.3
1782.8	5848.5		44.15	28.43	19	0	79.16	294	5.99	2	2690.7
1783	5849.15		37.24	28.24	18.7	0	78.84	294	5.21	2	2761.96
1783.2	5849.81		48.31	28.04	18.39	0	78.52	294	4.43	2	2762.35
1783.4	5850.46		30.81	27.83	18.09	0	78.19	280.63	4	2	2729.38
1783.6	5851.12		25.95	27.63	16.77	0	77.86	268	4	2	2749.9
1783.8	5851.78		29.27	27.44	15.02	0	77.5	268	4	2	2765.07
1784	5852.43		33.34	27.23	13.26	0	77.14	268	4.21	2	2727.45
1784.2	5853.09		23.3	27.04	14.55	0	76.79	268	5.06	2	2228.05
1784.4	5853.74		48.52	26.83	16.36	0	76.43	260	5.91	2	2077.55
1784.6	5854.4		22.79	26.64	18.26	0	76.07	219.99	6.23	2	2022.02
1784.8	5855.06		24.48	26.43	20.85	0	75.71	198	5.32	2	2074.95
1785	5855.71		49.1	26.24	23.44	0	75.35	198	4.41	2	2066.34
1785.2	5856.37		28.88	26.03	25	0	74.99	198	4	2	2073.87
1785.4	5857.02		29.55	25.83	25	0	74.63	198	4	2	2058.87
1785.6	5857.68		25.99	25.63	25	0	74.27	192.37	4	2	2041.2
1785.8	5858.34		27.42	25.44	24.05	0	74.32	186	4	2	2042.01
1786	5858.99		28.48	25.24	22.6	0	75.6	186	4	2	2093.84
1786.2	5859.65		27.67	25.04	21.15	0	76.87	186	4	2	2079.64
1786.4	5860.31		28.16	24.83	21.41	0	78.15	186	4	2	2089.69
1786.6	5860.96		26.14	24.63	21.86	0	79.43	198.07	4	2	2058.31
1786.8	5861.62		16.82	24.43	22	0	79.77	212	4	2	2099.37
1787	5862.27		31.42	24.24	22	0	79.34	212	4	2	2068.19
1787.2	5862.93		23.68	24.04	21.5	0	78.91	217	4	2	2107.51
1787.4	5863.59		22.44	23.83	20.07	0	78.49	222	4	2	2063.47
