~Version Information
VERS.                       2.00: SCHLUMBERGER LAS - Version 2.00
WRAP.                         NO: One line per depth step
~Well Information
STRT.FT                2400.0000: Start Depth
STOP.FT                3131.0000: End Depth
STEP.FT                   0.2000:  
NULL.                    -999.25:  
COMP.                    Bapetco: COMPANY
WELL.                   BED-18 M: WELL
FLD .                        BED: FLD
SRVC.               Schlumberger: SERVICE COMPANY
LOC .                           : LOCATION
DATE.                  23-Oct-19: LOG DATE
UWI .                  19EGP0341: API NUMBER
~Curve Information
DEPT.FT                         : MWD Tool Measurement Depth
MTTVD.FT                         : MWD Tool Measurement TVD
PSPD.M/MIN                      : Instantaneous Pipe Speed
ROP .M/HR                       : Rate of Penetration (MWD Depth Ave.)
KPOSI.M                          : Kelly Position (Raw)
SSS_H.                           : Stick Slip Percentage from HDS1
SSL_H.                           : Stick Slip Level from HDS1
RPM_H.                           : Average RPM from HDS1
VIBC.CPS                        : Vibration Count
VIBXYH.                           : Vibration XY
VIBZH.                           : Vibration Z
SPP I.PSI                        : Standpipe Pressure (Raw)
#     DEPT     MTTVD      PSPD       ROP     KPOSI     SSS_H     SSL_H     RPM_H      VIBC    VIBXYH     VIBZH     SPP I
#       FT        FT     M/MIN      M/HR         M                                     CPS                           PSI
#
# Relog Number     0         0         0         0         0         0         0         0         0         0         0
#
~ASCII Data
# ...
 2694.8000   8835.11   -999.25     18.21      2.33    181.31      3.00     99.42     34.73      2.00      2.00   2329.17
 2695.0000   8835.76   -999.25     19.50      2.13    182.03      3.00     98.81     33.54      2.00      2.00   2315.42
 2695.2000   8836.40   -999.25     13.30      1.93    182.75      3.00     98.21     32.78      2.00      2.00   2278.00
 2695.4000   8837.05   -999.25      7.40      1.74   -999.25   -999.25   -999.25     32.02   -999.25   -999.25   2337.70
 2695.6000   8837.69   -999.25     28.59      1.53   -999.25   -999.25   -999.25     31.27   -999.25   -999.25   2350.01
 2695.8000   8838.34   -999.25     64.71      1.33   -999.25   -999.25   -999.25     30.51   -999.25   -999.25   2360.13
 2696.0000   8838.98   -999.25     59.11      1.13   -999.25   -999.25   -999.25     29.75   -999.25   -999.25   2305.05
 2696.2000   8839.63   -999.25     49.90      0.93   -999.25   -999.25   -999.25     28.99   -999.25   -999.25   2342.40
 2696.4000   8840.27   -999.25     16.11     29.31   -999.25   -999.25   -999.25     28.23   -999.25   -999.25   2321.21
 2696.6000   8840.92   -999.25     27.89     29.11   -999.25   -999.25   -999.25     28.00   -999.25   -999.25   2300.09
 2696.8000   8841.56   -999.25     10.99     28.92   -999.25   -999.25   -999.25     27.96   -999.25   -999.25   2343.32
 2697.0000   8842.21   -999.25     59.55     28.74   -999.25   -999.25   -999.25     27.54   -999.25   -999.25   2332.07
 2697.2000   8842.85   -999.25    524.60     28.69   -999.25   -999.25   -999.25     27.12   -999.25   -999.25   2342.05
 2697.4000   8843.50   -999.25     69.86     28.56   -999.25   -999.25   -999.25     26.69   -999.25   -999.25   2302.34
 2697.6000   8844.14   -999.25     47.59     28.36   -999.25   -999.25   -999.25     26.27   -999.25   -999.25   2304.19
 2697.8000   8844.79   -999.25     33.06     28.16   -999.25   -999.25   -999.25     25.81   -999.25   -999.25   2342.73
 2698.0000   8845.43   -999.25     26.59     27.96   -999.25   -999.25   -999.25     25.27   -999.25   -999.25   2334.13
 2698.2000   8846.07   -999.25     34.11     27.77   -999.25   -999.25   -999.25     24.73   -999.25   -999.25   2338.15
 2698.4000   8846.72   -999.25     53.74     27.57   -999.25   -999.25   -999.25     24.19   -999.25   -999.25   2326.28
 2698.6000   8847.36   -999.25     35.08     27.36   -999.25   -999.25   -999.25     23.65      2.00      2.00   2366.69
 2698.8000   8848.01   -999.25     44.17     27.16   -999.25   -999.25   -999.25     23.11      2.00      2.00   2290.13
 2699.0000   8848.65   -999.25     48.01     26.96      0.00      0.00   -999.25     22.57      2.00      2.00   2312.02
 2699.2000   8849.30   -999.25     43.89     26.76      8.77      0.21    216.00     22.03      2.00      2.00   2329.37
 2699.4000   8849.94   -999.25     63.13     26.56     18.00      0.43   -999.25     21.49      2.00      2.00   2333.57
 2699.6000   8850.59   -999.25     69.79     26.36     27.23      0.65   -999.25     20.95      2.00      2.00   2354.41
 2699.8000   8851.23   -999.25     64.56     26.17     36.46      0.87   -999.25     20.41      2.00      2.00   2385.31
 2700.0000   8851.88   -999.25     27.39     25.96     45.69      1.09   -999.25     19.96      2.00      2.00   2341.42
 2700.2000   8852.52   -999.25     62.26     25.77     54.92      1.31   -999.25     19.79      2.00      2.00   2328.76
 2700.4000   8853.17   -999.25     54.50     25.56     64.15      1.53   -999.25     19.62      2.00      2.00   2374.59
 2700.6000   8853.81   -999.25     77.04     25.36     73.38      1.75   -999.25     19.46      2.00      2.00   2316.36
 2700.8000   8854.45   -999.25     82.03     25.16     82.62      1.97   -999.25     19.29      2.00      2.00   2307.93
 2701.0000   8855.10   -999.25     90.20     24.96     91.85      2.19   -999.25     19.12      2.00      2.00   2353.87
 2701.2000   8855.74   -999.25     83.38     24.76    101.08      2.41   -999.25     18.95      2.00      2.00   2317.68
 2701.4000   8856.39   -999.25     48.82     24.57    110.31      2.63   -999.25     18.79      2.00      2.00   2315.56
 2701.6000   8857.03   -999.25     71.01     24.37    119.54      2.85   -999.25     18.62      2.00      2.00   2351.93
 2701.8000   8857.67   -999.25     71.72     24.16    126.00      3.00   -999.25     18.45   -999.25   -999.25   2309.38
 2702.0000   8858.32   -999.25     78.52     23.96   -999.25   -999.25   -999.25     18.28   -999.25   -999.25   2361.63
 2702.2000   8858.96   -999.25     77.87     23.76   -999.25   -999.25   -999.25     18.12   -999.25   -999.25   2324.28
 2702.4000   8859.61   -999.25     61.92     23.56   -999.25   -999.25   -999.25     18.46   -999.25   -999.25   2381.35
 2702.6000   8860.25   -999.25     67.12     23.36   -999.25   -999.25   -999.25     20.00   -999.25   -999.25   2373.42
 2702.8000   8860.90   -999.25     58.67     23.16   -999.25   -999.25   -999.25     21.54   -999.25   -999.25   2328.03
 2703.0000   8861.54   -999.25     41.77     22.97   -999.25   -999.25   -999.25     23.08   -999.25   -999.25   2361.41
 2703.2000   8862.18   -999.25     52.48     22.76   -999.25   -999.25   -999.25     24.62   -999.25   -999.25   2364.46
 2703.4000   8862.83   -999.25     54.12     22.56   -999.25   -999.25   -999.25     26.15   -999.25   -999.25   2337.53
 2703.6000   8863.47   -999.25     47.08     22.36   -999.25   -999.25   -999.25     27.69   -999.25   -999.25   2383.38
 2703.8000   8864.12   -999.25     67.52     22.16   -999.25   -999.25   -999.25     29.23   -999.25   -999.25   2361.62
 2704.0000   8864.76   -999.25     67.36     21.96   -999.25   -999.25   -999.25     29.38   -999.25   -999.25   2343.73
 2704.2000   8865.41   -999.25     70.58     21.76   -999.25   -999.25   -999.25     28.14   -999.25   -999.25   2334.81
 2704.4000   8866.05   -999.25     72.76     21.56   -999.25   -999.25   -999.25     26.90   -999.25   -999.25   2338.04
 2704.6000   8866.69   -999.25     62.49     21.36   -999.25   -999.25   -999.25     25.66   -999.25   -999.25   2361.72
 2704.8000   8867.34   -999.25     55.98     21.16   -999.25   -999.25   -999.25     24.42   -999.25   -999.25   2383.33
 2705.0000   8867.98   -999.25     35.64     20.97   -999.25   -999.25   -999.25     23.18   -999.25   -999.25   2308.67
 2705.2000   8868.63   -999.25     80.08     20.76   -999.25   -999.25   -999.25     21.96   -999.25   -999.25   2349.08
 2705.4000   8869.27   -999.25     77.31     20.56   -999.25   -999.25   -999.25     21.20   -999.25   -999.25   2331.22
 2705.6000   8869.91   -999.25     14.63     20.36   -999.25   -999.25   -999.25     20.43   -999.25   -999.25   2328.90
 2705.8000   8870.56   -999.25     53.20     20.16   -999.25   -999.25   -999.25     19.67   -999.25   -999.25   2310.71
 2706.0000   8871.20   -999.25     51.48     19.97   -999.25   -999.25   -999.25     18.90      2.00      2.00   2310.84
 2706.2000   8871.85   -999.25     47.79     19.76   -999.25   -999.25   -999.25     18.14      2.00      2.00   2287.68
 2706.4000   8872.49   -999.25     42.52     19.56    109.40      3.00   -999.25     17.38      2.00      2.00   2340.97
 2706.6000   8873.13   -999.25     47.90     19.37    117.24      3.00     93.96     16.61      2.00      2.00   2369.21
 2706.8000   8873.78   -999.25     67.24     19.16    125.08      3.00     93.80     16.06      2.00      2.00   2393.44
 2707.0000   8874.42   -999.25     62.40     18.96    132.92      3.00     93.65     16.38      2.00      2.00   2392.58
 2707.2000   8875.07   -999.25     57.06     18.76    140.76      3.00     93.49     16.70      2.00      2.00   2359.15
 2707.4000   8875.71   -999.25     53.36     18.56    148.60      3.00     93.33     17.02      2.00      2.00   2389.64
 2707.6000   8876.35   -999.25     50.79     18.36    156.44      3.00     93.18     17.34      2.00      2.00   2376.13
 2707.8000   8877.00   -999.25      7.76     18.16    168.38      3.00     93.02     17.66      2.00      2.00   2344.55
 2708.0000   8877.64   -999.25     55.30     17.96    181.34      3.00     92.86     17.98      2.00      2.00   2354.68
