~Version Information											
VERS.                       2.00: SCHLUMBERGER LAS - Version 2.00											
WRAP.                         NO: One line per depth step											
~Well Information											
STRT.FT                1135.0000: Start Depth											
STOP.FT                2399.0000: End Depth											
STEP.FT                   0.2000:  											
											
COMP.                    Bapetco: COMPANY											
WELL.                   BED-18 M: WELL											
FLD .                        BED: FLD											
SRVC.               Schlumberger: SERVICE COMPANY											
LOC .                           : LOCATION											
DATE.                  20-Oct-19: LOG DATE											
UWI .                  19EGP0341: API NUMBER											
~Curve Information											
DEPT.FT                         : MWD Tool Measurement Depth											
MTTVD.FT                         : MWD Tool Measurement TVD											
PSPD.M/MIN                      : Instantaneous Pipe Speed											
ROP .M/HR                       : Rate of Penetration (MWD Depth Ave.)											
KPOSI.M                          : Kelly Position (Raw)											
SSS_H.                           : Stick Slip Percentage from HDS1											
SSL_H.                           : Stick Slip Level from HDS1											
RPM_H.                           : Average RPM from HDS1											
VIBC.CPS                        : Vibration Count											
VIBXYH.                           : Vibration XY											
VIBZH.                           : Vibration Z											
SPP I.PSI                        : Standpipe Pressure (Raw)											
DEPT	MTTVD	PSPD	ROP	KPOSI	SSS_H	SSL_H	RPM_H	VIBC	VIBXYH	VIBZH	SPP
M	FT	M/MIN	M/HR	M				CPS			PSI
#											
# Relog Number     0         0         0         0         0         0         0         0         0         0         0											
#											
~ASCII Data											
# ...
2042.4	6699.7		16.13	28.22	229.42	3	28.8	35.73	2.19	2.19	2248.11
2042.6	6700.35		9.02	28.01	232.25	3	52.8	38	2	2	2258.41
2042.8	6701.01		33.93	27.82	235.35	3	72.34	38	2	2	2278.98
2043	6701.66		13.97	27.61	243	3	74.04	38	2	2	2254.64
2043.2	6702.32		15.68	27.41	237.75	3	75.74	20	2	2	2274.5
2043.4	6702.97		9.22	27.22	233.6	3	76	20	2.94	2	2159.44
2043.6	6703.63		29.88	27.02	222.55	3	76	95.57	4	2	2140.08
2043.8	6704.28		20.71	26.81	131.07	1.64	76.48	156	4	2	2135.29
2044	6704.94		21.73	26.61	35.37	0.21	77.55	156	4	2	2107.82
2044.2	6705.6		18.67	26.41	19.58	0	78.61	156	4	3.06	2105.9
2044.4	6706.25		18.31	26.21	18	0	79.68	149.72	4	3.78	2146.44
2044.6	6706.91		17.34	26.02	18	0	80	144	4	2.7	2192.78
2044.8	6707.56		23.12	25.81	18	0	80	144	4	2.41	2158.63
2045	6708.22		15.33	25.61	4.66	0	80	127.72	4	3.59	2150.19
2045.2	6708.87		18.39	25.42	14.77	0	85.71	106	2.75	2.75	2204.3
2045.4	6709.53		18.13	25.22	14.28	0	88.11	106	4	4	2168.37
2045.6	6710.18		6.17	25.02	41.85	0.84	85.89	76.9	4	2.95	2161.04
2045.8	6710.84		40.3	24.82	103.73	2.72	83.67	126	4	2	2196.78
2046	6711.49		18.28	24.62	113	3	81.44	126	4	2	2170.56
2046.2	6712.15		15.95	24.41	99.86	2.49	79.82	126	4	2.4	2194.73
2046.4	6712.8		21.59	24.22	62.3	1.02	79.3	121.86	4	3.54	2171.18
2046.6	6713.46		19.37	24.02	32.34	0	78.78	118	3.33	4	2164.73
2046.8	6714.11		21.33	23.81	20.11	0	78.26	113.13	2.22	4	2198.08
2047	6714.77		8.28	23.62	171.26	2.73	79.62	30	2	3.74	2164.52
2047.2	6715.42		16.99	23.42	208.92	3	82.86	31.14	2	2.45	2149.93
2047.4	6716.08		8.75	23.22	216	3	80.7	34	2	2	2159.84
2047.6	6716.73		25.4	23.02	218.21	3	75.62	34	2	2	2164.68
2047.8	6717.39		22.55	22.81	227.4	3	70.54	34	2	2	2188.21
2048	6718.05		16.56	22.62	232	3	68.27	34	2	2	2208.65
2048.2	6718.7		36.55	22.42	232	3	68.81	34	2	2	2189.08
2048.4	6719.36		14.14	22.22	218.88	3	69.35	34	2	2	2214.16
2048.6	6720.01		21.27	22.01	195.01	3	69.89	30.09	2	2	2211.34
2048.8	6720.67		18.42	21.82	213.28	3	71.1	28	2	2	2205.58
2049	6721.32		10.69	21.62	222.31	3	72.48	28	2	2	2177.23
2049.2	6721.98		17.95	21.41	216.94	3	73.86	28	2	2	2208.5
2049.4	6722.63		25.42	21.22	227.92	3	75.83	28	2	2	2186.11
2049.6	6723.29		20.92	21.02	238.9	3	77.86	28	2	2	2199.93
2049.8	6723.94		11.51	20.81	240	3	79.9	24	2	2	2179.4
2050	6724.6		17.37	20.62	239.57	3	77.43	25.46	2	2	2224.25
2050.2	6725.25		28.16	20.41	239.13	3	74.73	30.3	2	2	2205.7
2050.4	6725.91		19.73	20.22	227	3	72.03	32	2	2	2191.56
2050.6	6726.56		14.25	20.02	221	3	70.36	32	2	2	2178.6
2050.8	6727.22		19.04	19.81	221	3	71.82	30.36	2	2	2214.9
2051	6727.87		10.67	19.61	228.5	3	73.27	30	2	2	2188.93
2051.2	6728.53		17.6	19.42	232	3	75.16	30.94	2	2	2227.94
2051.4	6729.18		18.3	19.21	232	3	77.48	34.69	2	2	2198.79
2051.6	6729.84		18.44	19.02	231.51	3	79.8	36	2	2	2221.47
2051.8	6730.5		13.68	18.81	230.23	3	81.73	36	2	2	2215.73
2052	6731.15		19.38	18.61	214.85	3	76.36	36	2	2	2193.64
2052.2	6731.81		13.8	18.41	229.64	3	70.98	36	2	2	2213.98
2052.4	6732.46		24.79	18.21	252	3	65.61	36	2	2	2188.36
2052.6	6733.12		17.75	18.02	252	3	64.81	36	2	2	2214.02
2052.8	6733.77		21.04	17.81	250.74	3	65.97	36	2	2	2182.6
2053	6734.43		18.5	17.62	225.35	3	67.13	33.33	2	2	2148.83
2053.2	6735.08		13.46	17.41	222.75	3	68	24	2	2	2171.18
2053.4	6735.74		17.75	17.22	227.48	3	68	24	2	2	2188.48
2053.6	6736.39		14.15	17.02	230.71	3	68	28.8	2	2	2179.41
2053.8	6737.05		18.28	16.82	232	3	68	40	2	2	2163.83
2054	6737.7		17.36	16.62	232	3	68	40	2	2	2164.38
2054.2	6738.36		14.4	16.42	218.43	3	68	39.33	2	2	2171.28
2054.4	6739.01		10.05	16.22	227.28	3	69.74	38	2	2	2184.53
2054.6	6739.67		9.8	16.02	234.34	3	73.61	38	2	2	2165.17
2054.8	6740.32		10.14	15.81	227.67	3	77.21	28.25	2	2	2197.28
2055	6740.98		14.62	15.61	212.27	3	80.79	26	2	2	2193.63
2055.2	6741.63		18.5	15.42	201.45	3	83.56	26	2	2	2160.16
2055.4	6742.29		19.45	15.21	207.26	3	79.2	29.08	2	2	2170.24
2055.6	6742.94		13.75	15.01	212.36	3	74.84	30	2	2	2168.54
2055.8	6743.6		13.96	14.82	215	3	71.77	31.2	2	2	2160.97
2056	6744.25		14.29	14.61	215	3	71.13	39.2	2	2	2161.52
2056.2	6744.91		16.56	14.41	213.59	3	70.48	39.33	2	2	2154.3
2056.4	6745.57		12.74	14.21	218.45	3	70.2	36	2	2	2218.81
2056.6	6746.22		24.37	14.02	227.54	3	71	36	2	2	2147.7
2056.8	6746.88		10.25	13.82	230	3	71.8	36	2.33	2	2213.36
2057	6747.53		5.46	13.62	189.73	2.79	71.46	83.28	4	2	2259.14
2057.2	6748.19		55.5	13.41	124.73	1.96	69.3	118	4	2	2231.77
2057.4	6748.84		18.74	13.21	59.73	1.12	67.13	118	3.81	2	2226.76
2057.6	6749.5		11.82	13.02	203.9	2.62	64.97	88.75	2	2	2209.44
2057.8	6750.15		16.26	12.82	241.66	3	63.52	40	2	2	2215.83
2058	6750.81		15.59	12.62	245.95	3	62.65	40	2	2	2161.38
2058.2	6751.46		9.59	12.41	244.15	3	62.94	36	2.67	2	2169.31
2058.4	6752.12		14.71	12.21	227	3	66.69	39.04	3.83	2	2167.69
2058.6	6752.77		15.99	12.02	217.34	3	70.44	40	2.17	2	2150.29
2058.8	6753.43		15.94	11.82	216.33	3	73.97	38.89	2	2	2143.23
2059	6754.08		23.7	11.62	222.39	3	73.26	34.44	2	2	2220.81
2059.2	6754.74		14.72	11.41	223	3	72.56	34	2	2	2154.27
2059.4	6755.39		12.37	11.22	231.88	3	72	34	2	2	2217.65
2059.6	6756.05		14.46	11.02	246.64	3	72	34	2	2	2192.22
2059.8	6756.7		15.25	10.82	244.21	3	72	36.87	2	2	2182.1
2060	6757.36		16.98	10.62	239.33	3	59.99	40	2	2	2204.25
2060.2	6758.02		17.17	10.42	232	3	29.99	40	2	2	2191.78
2060.4	6758.67		27.43	10.22	220.67	3	0.02	40	2	2	2117.91
2060.6	6759.33		6.47	10.01	226.99	3	33	36	2	2	2189.09
2060.8	6759.98		8.51	9.82	233	3	65.99	33.33	2	2	2139.87
2061	6760.64		20.44	9.61	233	3	67.74	32	2	2	2213.25
2061.2	6761.29		43.31	9.42	233	3	69.48	32	2	2	2190.19
2061.4	6761.95		15.44	9.22	221.43	3	71.22	31.5	2	2	2172.85
2061.6	6762.6		17.93	9.01	220.12	3	71.4	30	2	2	2211.3
2061.8	6763.26		21.38	8.81	221.51	3	70.3	30	2	2	2197.91
2062	6763.91		20.48	8.61	213	3	69.21	30	2	2	2147.47
2062.2	6764.57		14.06	8.41	206.84	3	68.11	28.53	2	2	2161.07
2062.4	6765.22		20.04	8.21	214.93	3	68.55	28	2	2	2198.63
2062.6	6765.88		21.05	8.02	221	3	69.17	30.18	2	2	2174.98
2062.8	6766.53		11.43	7.81	220.6	3	69.78	32	2	2	2154.52
2063	6767.19		26.43	7.62	218.6	3	70.72	29.2	2	2	2205.05
2063.2	6767.84		12.5	7.41	217.11	3	71.83	22	2	2	2214.97
2063.4	6768.5		26.33	7.22	217.65	3	72.94	22	2	2	2203.13
2063.6	6769.15		22.82	7.02	207.36	3	73.92	22.89	2	2	2178.46
2063.8	6769.81		10.75	6.82	184.13	3	72.29	27.33	2	2	2188.85
2064	6770.46		15.86	6.61	225.51	3	70.65	28	2	2	2202.71
2064.2	6771.12		9	6.42	230.61	3	71	36.13	2	2	2184.58
2064.4	6771.78		12.84	6.22	228.36	3	72.67	36.94	2	2	2172.39
2064.6	6772.43		16.74	6.02	227.42	3	73.69	32	2	2	2148.97
2064.8	6773.09		17.24	5.81	225	3	72.15	32	2	2	2162.49
2065	6773.74		10.99	5.61	199.41	3	70.62	31.33	2	2	2217.41
2065.2	6774.4		24.25	5.42	207.51	3	70.91	30	2	2	2203.25
2065.4	6775.05		10.87	5.21	217.45	3	72.41	30	2	2	2196.35
2065.6	6775.71		16.24	5.02	231.67	3	73.92	26.7	2	2	2152.53
2065.8	6776.36		11.86	4.81	218.34	3	75.78	26	2	2	2199.98
2066	6777.02		19.45	4.62	220.41	3	77.66	26	2	2	2184.46
2066.2	6777.67		21.76	4.41	223.81	3	79.53	31.72	2	2	2140.74
2066.4	6778.33		13.02	4.22	220.06	3	77.78	32	2	2	2200.71
2066.6	6778.98		14.57	4.01	231.5	3	74.82	34.65	2	2	2177.27
2066.8	6779.64		14.08	3.82	236.06	3	72	36	2	2	2156.24
2067	6780.29		15.28	3.62	219.81	3	72	37.81	2	2	2191.37
2067.2	6780.95		10	3.41	212	3	72	38	2	2	2146.37
2067.4	6781.6		28.22	3.22	212	3	71.45	34.69	2	2	2145.98
2067.6	6782.26		12.97	3.01	217.65	3	70.81	30	2	2	2171.25
2067.8	6782.91		13.18	2.81	237.7	3	70.16	30	2	2	2143.33
2068	6783.57		11.56	2.62	234.74	3	71.03	35.4	2	2	2173.99
2068.2	6784.23		20.84	2.42	234	3	72.41	36	2	2	2135.5
2068.4	6784.88		17.58	2.22	232.82	3	73.79	34	2	2	2162.76
2068.6	6785.54		12.12	2.01	229.88	3	73.57	34	2	2	2179.66
2068.8	6786.19		31.91	1.81	231.74	3	73.07	34	2	2	2166.03
2069	6786.85		42.19	1.79	235.65	3	72.57	34.71	2	2	2179.65
2069.2	6787.5		15.82	1.67	241.46	3	72.07	37.57	2	2	2192.76
2069.4	6788.16		14.89	1.47	250.14	3	72	38	2	2	2179.1
2069.6	6788.81		13.65	1.27	242	3	72	38	2	2	2161.74
2069.8	6789.47		0.7	15.32	215.64	2.79	72.19	88.41	3.05	2.47	2210.08
2070	6790.12		14.71	29.53	123.82	1.77	75.91	138.85	5.14	3.4	2207.31
2070.2	6790.78		13.11	29.33	49.18	0.86	79.63	154	6.03	3.62	2228.4
