~Version Information
VERS.                       2.00: SCHLUMBERGER LAS - Version 2.00
WRAP.                         NO: One line per depth step
~Well Information
STRT.FT                2400.0000: Start Depth
STOP.FT                3131.0000: End Depth
STEP.FT                   0.2000:  
NULL.                    -999.25:  
COMP.                    Bapetco: COMPANY
WELL.                   BED-18 M: WELL
FLD .                        BED: FLD
SRVC.               Schlumberger: SERVICE COMPANY
LOC .                           : LOCATION
DATE.                  23-Oct-19: LOG DATE
UWI .                  19EGP0341: API NUMBER
~Curve Information
DEPT.FT                         : MWD Tool Measurement Depth
MTTVD.FT                         : MWD Tool Measurement TVD
PSPD.M/MIN                      : Instantaneous Pipe Speed
ROP .M/HR                       : Rate of Penetration (MWD Depth Ave.)
KPOSI.M                          : Kelly Position (Raw)
SSS_H.                           : Stick Slip Percentage from HDS1
SSL_H.                           : Stick Slip Level from HDS1
RPM_H.                           : Average RPM from HDS1
VIBC.CPS                        : Vibration Count
VIBXYH.                           : Vibration XY
VIBZH.                           : Vibration Z
SPP I.PSI                        : Standpipe Pressure (Raw)
#     DEPT     MTTVD      PSPD       ROP     KPOSI     SSS_H     SSL_H     RPM_H      VIBC    VIBXYH     VIBZH     SPP I
#       FT        FT     M/MIN      M/HR         M                                     CPS                           PSI
#
# Relog Number     0         0         0         0         0         0         0         0         0         0         0
#
~ASCII Data
# ...
 2936.0000   9592.27   -999.25      8.40     20.39    163.74      3.00    119.28     36.13      2.00      2.00   2239.95
 2936.2000   9592.88   -999.25      9.46     20.19    160.44      3.00    119.62     41.47      2.00      2.00   2229.14
 2936.4000   9593.49   -999.25     12.14     19.99    155.31      3.00    117.12     54.31      2.00      2.00   2233.07
 2936.6000   9594.10   -999.25     11.81     19.79    155.52      3.00    114.62     67.99      2.00      2.00   2248.81
 2936.8000   9594.71   -999.25      7.84     19.59    160.10      3.00    112.12     68.00      2.00      2.00   2275.40
 2937.0000   9595.32   -999.25     15.12     19.40    164.69      3.00    109.62     60.45      2.00      2.00   2231.00
 2937.2000   9595.94   -999.25     10.66     19.19    169.27      3.00    107.12     49.80      2.00      2.00   2239.37
 2937.4000   9596.55   -999.25      7.95     18.99    173.86      3.00    104.62     47.80      2.00      2.00   2274.70
 2937.6000   9597.16   -999.25      9.68     18.79    173.85      3.00    104.46     46.30      2.00      2.00   2252.93
 2937.8000   9597.77   -999.25     10.81     18.60    172.31      3.00    105.07     49.30      2.00      2.00   2240.87
 2938.0000   9598.38   -999.25     10.51     18.39    172.00      3.00    105.68     52.00      2.00      2.00   2245.11
 2938.2000   9598.99   -999.25      9.92     18.19    172.00      3.00    106.29     52.00      2.00      2.00   2258.30
 2938.4000   9599.60   -999.25      7.28     18.00    172.00      3.00    106.90     50.83      2.00      2.00   2276.25
 2938.6000   9600.21   -999.25     15.69     17.80    172.00      3.00    107.51     51.90      2.00      2.00   2260.61
 2938.8000   9600.83   -999.25      8.26     17.59    170.48      3.00    107.79     56.67      2.00      2.00   2242.21
 2939.0000   9601.44   -999.25      6.22     17.39    166.13      3.00    106.72     60.00      2.00      2.00   2206.79
 2939.2000   9602.05   -999.25     17.09     17.19    162.15      3.00    105.65     60.00      2.00      2.00   2246.84
 2939.4000   9602.66   -999.25     11.89     16.99    165.12      3.00    104.59     56.57      2.00      2.00   2226.46
 2939.6000   9603.27   -999.25     10.42     16.80    168.09      3.00    103.52     48.00      2.00      2.00   2231.98
 2939.8000   9603.88   -999.25     11.79     16.60    171.06      3.00    102.45     50.67      2.00      2.00   2240.55
 2940.0000   9604.50   -999.25      9.67     16.39    174.03      3.00    101.39     52.00      2.00      2.00   2263.62
 2940.2000   9605.11   -999.25     13.42     16.19    177.00      3.00    100.32     52.00      2.00      2.00   2247.18
 2940.4000   9605.72   -999.25      9.38     16.00    174.50      3.00    100.22     51.32      2.00      2.00   2232.54
 2940.6000   9606.33   -999.25     11.47     15.80    172.00      3.00    100.54     48.59      2.00      2.00   2245.87
 2940.8000   9606.94   -999.25      9.14     15.59    171.87      3.00    100.86     45.91      2.00      2.00   2272.41
 2941.0000   9607.55   -999.25      7.80     15.40    173.31      3.00    101.17     44.09      2.00      2.00   2242.13
 2941.2000   9608.16   -999.25     12.44     15.19    174.76      3.00    101.49     46.92      2.00      2.00   2239.71
 2941.4000   9608.77   -999.25     11.76     15.00    176.20      3.00    101.81     42.22      2.00      2.00   2280.83
 2941.6000   9609.39   -999.25      8.94     14.79    177.49      3.00    101.84     33.34      2.00      2.00   2182.90
 2941.8000   9610.00   -999.25     23.32     14.59    178.59      3.00    101.44     24.45      2.00      2.00   2255.64
 2942.0000   9610.61   -999.25     13.96     14.40    179.68      3.00    101.04     28.22      2.00      2.00   2226.12
 2942.2000   9611.22   -999.25     15.25     14.19    180.78      3.00    100.64     32.66      2.00      2.00   2223.10
 2942.4000   9611.83   -999.25     11.57     13.99    183.05      3.00    100.24     37.72      2.00      2.00   2289.57
 2942.6000   9612.44   -999.25     10.08     13.79    185.62      3.00     99.84     44.62      2.00      2.00   2257.67
 2942.8000   9613.05   -999.25     14.31     13.59    188.18      3.00     99.44     36.00      2.00      2.00   2249.09
 2943.0000   9613.66   -999.25      9.80     13.39    190.74      3.00     99.04     25.89      2.00      2.00   2229.12
 2943.2000   9614.28   -999.25     14.78     13.19    193.31      3.00     98.64     25.32      2.00      2.00   2255.00
 2943.4000   9614.89   -999.25     21.52     13.00    195.87      3.00     98.24     24.76      2.00      2.00   2267.08
 2943.6000   9615.50   -999.25     31.05     12.80    191.43      3.00     98.90     24.20      2.00      2.00   2217.37
 2943.8000   9616.11   -999.25     28.56     12.60    186.62      3.00    101.15     23.71      2.00      2.00   2264.68
 2944.0000   9616.72   -999.25     19.17     12.40    181.81      3.00    103.40     23.26      2.00      2.00   2261.19
 2944.2000   9617.33   -999.25      8.82     12.19    177.00      3.00    105.65     22.81      2.00      2.00   2243.78
 2944.4000   9617.94   -999.25     44.70     11.99    177.61      3.00    107.90     22.36      2.00      2.00   2282.43
 2944.6000   9618.56   -999.25     27.66     11.79    178.23      3.00    110.16     22.44      2.00      2.00   2294.74
 2944.8000   9619.17   -999.25     20.65     11.59    178.84      3.00    112.41     24.62      2.00      2.00   2279.36
 2945.0000   9619.78   -999.25     20.76     11.39    179.45      3.00    114.66     26.80      2.00      2.00   2286.32
 2945.2000   9620.39   -999.25     17.82     11.19    180.07      3.00    116.91     33.53      2.00      2.00   2283.25
 2945.4000   9621.00   -999.25     12.33     11.00    180.68      3.00    119.16     45.84      2.00      2.00   2287.86
 2945.6000   9621.61   -999.25     15.60     10.79    181.29      3.00    121.41     49.20      2.00      2.00   2315.02
 2945.8000   9622.22   -999.25     13.62     10.59    181.91      3.00    123.66     43.60      2.00      2.00   2247.99
 2946.0000   9622.83   -999.25      9.84     10.40    182.00      3.00    121.56     38.00      2.00      2.00   2281.52
 2946.2000   9623.45   -999.25     12.32     10.19    182.00      3.00    118.69     43.71      2.00      2.00   2284.52
 2946.4000   9624.06   -999.25     10.13      9.99    182.45      3.00    115.82     49.43      2.00      2.00   2282.68
 2946.6000   9624.67   -999.25     16.31      9.80    183.73      3.00    112.95     50.70      2.00      2.00   2297.29
 2946.8000   9625.28   -999.25     32.21      9.59    185.01      3.00    110.08     34.18      2.00      2.00   2300.96
 2947.0000   9625.89   -999.25     14.31      9.39    186.29      3.00    107.21     17.65      2.00      2.00   2300.57
 2947.2000   9626.50   -999.25     28.30      9.20    187.58      3.00    104.33     25.48      2.00      2.00   2284.95
 2947.4000   9627.11   -999.25     12.38      8.99    188.86      3.00    101.46     36.00      2.00      2.00   2304.38
 2947.6000   9627.72   -999.25     15.07      8.79    190.14      3.00     98.59     36.62      2.00      2.00   2318.69
 2947.8000   9628.34   -999.25     16.82      8.59    191.42      3.00     95.72     37.23      2.00      2.00   2339.23
 2948.0000   9628.95   -999.25     12.23      8.39    192.00      3.00     94.90     37.85      2.00      2.00   2321.78
 2948.2000   9629.56   -999.25     12.49      8.19    192.00      3.00     97.13     38.00      2.00      2.00   2316.90
 2948.4000   9630.17   -999.25     41.81      7.99    192.00      3.00     99.37     38.00      2.00      2.00   2315.41
 2948.6000   9630.78   -999.25      9.51      7.80    192.16      3.00    101.60     38.00      2.00      2.00   2366.99
 2948.8000   9631.39   -999.25      8.71      7.60    192.56      3.00    103.84     38.00      2.00      2.00   2337.10
 2949.0000   9632.00   -999.25     15.72      7.39    192.96      3.00    106.07     35.82      2.00      2.00   2302.48
 2949.2000   9632.62   -999.25     13.18      7.20    193.36      3.00    108.31     30.97      2.00      2.00   2317.18
