~Version Information											
VERS.                       2.00: SCHLUMBERGER LAS - Version 2.00											
WRAP.                         NO: One line per depth step											
~Well Information											
STRT.FT                1135.0000: Start Depth											
STOP.FT                2399.0000: End Depth											
STEP.FT                   0.2000:  											
											
COMP.                    Bapetco: COMPANY											
WELL.                   BED-18 M: WELL											
FLD .                        BED: FLD											
SRVC.               Schlumberger: SERVICE COMPANY											
LOC .                           : LOCATION											
DATE.                  20-Oct-19: LOG DATE											
UWI .                  19EGP0341: API NUMBER											
~Curve Information											
DEPT.FT                         : MWD Tool Measurement Depth											
MTTVD.FT                         : MWD Tool Measurement TVD											
PSPD.M/MIN                      : Instantaneous Pipe Speed											
ROP .M/HR                       : Rate of Penetration (MWD Depth Ave.)											
KPOSI.M                          : Kelly Position (Raw)											
SSS_H.                           : Stick Slip Percentage from HDS1											
SSL_H.                           : Stick Slip Level from HDS1											
RPM_H.                           : Average RPM from HDS1											
VIBC.CPS                        : Vibration Count											
VIBXYH.                           : Vibration XY											
VIBZH.                           : Vibration Z											
SPP I.PSI                        : Standpipe Pressure (Raw)											
DEPT	MTTVD	PSPD	ROP	KPOSI	SSS_H	SSL_H	RPM_H	VIBC	VIBXYH	VIBZH	SPP
M	FT	M/MIN	M/HR	M				CPS			PSI
#											
# Relog Number     0         0         0         0         0         0         0         0         0         0         0											
#											
~ASCII Data											
# ...
1279	4195.98		47.17	14.2	8.39	0	109.52	38.48	2	2	1992.03
1279.2	4196.64		58.11	14	8.21	0	109.32	35.72	2	2	1951.02
1279.4	4197.29		53.34	13.8	8.03	0	109.12	32.97	2	2	1935.67
1279.6	4197.95		52.64	13.59	8.35	0	108.93	32	2	2	1995.2
1279.8	4198.61		66.48	13.39	8.77	0	108.73	32	2	2	1949.54
1280	4199.26		50.25	13.19	9.19	0	108.53	32	2	2	1992.56
1280.2	4199.92		54.26	12.99	9.6	0	108.33	32	2	2	1967.82
1280.4	4200.57		51.54	12.79	10.03	0	108.13	32	2	2	1907.62
1280.6	4201.23		51.79	12.59	10.57	0	108.08	32	2	2	2015.6
1280.8	4201.89		59.62	12.4	11.12	0	108.3	33.14	2	2	1962.76
1281	4202.54		53.36	12.19	11.66	0	108.53	34.57	2	2	2015.04
1281.2	4203.2		47.43	11.99	12.21	0	108.75	36	2	2	2001.46
1281.4	4203.85		58.3	11.79	12.75	0	108.98	37.43	2	2	1968
1281.6	4204.51		56.86	11.59	12.83	0	109.2	38	2	2	2011.95
1281.8	4205.17		24.33	11.39	12.53	0	109.43	38	2	2	2002.4
1282	4205.82		48.22	11.19	12.23	0	109.65	38	2	2	1946.99
1282.2	4206.48		48.37	10.99	11.87	0	109.88	38	2	2	1975.21
1282.4	4207.13		59.77	10.79	11.36	0	109.92	38	2	2	2001.67
1282.6	4207.79		51.79	10.59	10.86	0	109.73	38.74	2	2	1978.38
1282.8	4208.45		57.64	10.39	10.35	0	109.54	39.67	2	2	2018.39
1283	4209.1		64.09	10.19	9.84	0	109.35	40.6	2	2	1974.37
1283.2	4209.76		58.63	9.99	9.33	0	109.16	41.53	2	2	1916.48
1283.4	4210.41		47.14	9.79	9	0	108.97	42	2	2	1972.77
1283.6	4211.07		55.2	9.59	9	0	108.78	42	2	2	1927.95
1283.8	4211.73		53.93	9.39	9	0	108.59	42	2	2	1954.94
1284	4212.38		58.12	9.19	9	0	108.41	42	2	2	1986.17
1284.2	4213.04		57.97	8.99	9	0	108.22	42	2	2	1985.68
1284.4	4213.69		53.64	8.79	9.13	0	108.03	42	2	2	1982.08
1284.6	4214.35		57.5	8.59	9.31	0	108.18	42	2	2	2006.51
1284.8	4215.01		59.93	8.39	9.49	0	108.38	42	2	2	2013.69
1285	4215.66		58.04	8.19	9.67	0	108.59	42	2	2	2000.75
1285.2	4216.32		50.1	7.99	9.85	0	108.8	42	2	2	2009.62
1285.4	4216.97		49.45	7.79	10.39	0	109.01	42	2	2	2007.69
1285.6	4217.63		49.56	7.59	13.01	0	109.21	42	2	2	2000.43
1285.8	4218.29		50.38	7.39	15.63	0	109.42	42	2	2	1966.76
1286	4218.94		48.22	7.19	18.25	0	109.63	42.41	2	2	2020.34
1286.2	4219.6		44.69	6.99	20.87	0	109.83	43.15	2	2	1972.17
1286.4	4220.25		48.15	6.79	21.22	0	109.96	43.89	2	2	2027.66
1286.6	4220.91		49.34	6.59	21.45	0	109.75	44	2	2	2018.96
1286.8	4221.57		40.8	6.39	21.68	0	109.55	44	2	2	1994.01
1287	4222.22		44.99	6.19	21.91	0	109.34	44	2	2	1937.89
1287.2	4222.88		35.8	5.99	20.47	0	109.13	44	2	2	2005.82
1287.4	4223.53		63.44	5.79	17.92	0	108.93	44	2	2	1945.38
1287.6	4224.19		73.78	5.59	15.37	0	108.72	44	2	2	1933.74
1287.8	4224.85		61.05	5.4	12.82	0	108.52	40.39	2	2	1955.8
1288	4225.5		43.29	5.19	10.27	0	108.31	31.35	2	2	1946.56
1288.2	4226.16		74.87	4.99	9	0	108.1	22.32	2	2	1985.6
1288.4	4226.81		49.07	4.79	9	0	108	16	2	2	1991.29
1288.6	4227.47		68.16	4.6	9	0	108	16	2	2	1996.52
1288.8	4228.13		40.61	4.39	9	0	108	16	2	2	1978.4
1289	4228.78		61.96	4.19	9	0	108	16	2	2	1988.64
1289.2	4229.44		79.92	3.99	9	0	108	16	2	2	1987.51
1289.4	4230.09		57.39	3.8	8.74	0	108	16	2	2	1973.39
1289.6	4230.75		42.78	3.6	8.34	0	108	16	2	2	2028.67
1289.8	4231.41		63.75	3.39	7.94	0	108	16	2	2	2004.38
1290	4232.06		60.13	3.19	7.54	0	108	23.01	2	2	2041.86
1290.2	4232.72		71.41	2.99	7.14	0	108	30.4	2	2	1984.56
1290.4	4233.38		61.05	2.79	8.47	0	108	37.79	2	2	1994.08
1290.6	4234.03		53.11	2.59	10.73	0		40	2	2	1988.44
1290.8	4234.69		70.14	2.39	12.99	0		40	2	2	1972.87
1291	4235.34		34.38	2.19	15.25	0		40	2	2	1958.62
1291.2	4236		89.97	2	17.51	0		40	2	2	1981.2
1291.4	4236.65		65.12	1.79	19.77	0		40	2	2	1936.7
1291.6	4237.31		72.69	1.59				40	2	2	1968.02
1291.8	4237.97		71.46	1.4				40	2	2	1951.27
1292	4238.62		65.76	1.19				35.33	2	2	2004.51
1292.2	4239.28		6.44	29.62				33.51	2	2	2243.63
1292.4	4239.94		73.28	29.41				39.35	2	2	2288.89
1292.6	4240.59		67.68	29.21				45.2	2	2	2262.75
1292.8	4241.25		31.29	29.02				51.05	2	2	2226.7
1293	4241.9		53.58	28.81				56.89	2	2	2263.94
1293.2	4242.56		54.9	28.62				62.74	2	2	2307.58
1293.4	4243.21		60.02	28.41				68	2	2	2256.22
1293.6	4243.87		66.52	28.21				68	2	2	2264.41
1293.8	4244.53		57.68	28.01				68	2	2	2288.9
1294	4245.18		59.33	27.81				68	2	2	2271.96
1294.2	4245.84		57.6	27.61				68	2	2	2238.8
1294.4	4246.5		44.56	27.41				68	2	2	2184.18
1294.6	4247.15		46.83	27.21				68	2	2	2230
1294.8	4247.81		47.67	27.01				68	2	2	2257.09
1295	4248.46		50.88	26.81				68	2	2	2299.86
1295.2	4249.12		66	26.61	38	0		68	2	2	2261.66
1295.4	4249.78		59.91	26.41	34.32	0	104	68	2	2	2251.12
1295.6	4250.43		53.68	26.21	29.41	0	104	63.81	2	2	2254.09
1295.8	4251.09		46.55	26.01	24.5	0	104	56.84	2	2	2303.87
1296	4251.74		52.29	25.81	19.59	0	104	49.86	2	2	2317.79
1296.2	4252.4		54.32	25.61	14.68	0	104	42.88	2	2	2301.17
1296.4	4253.06		58.85	25.41	11.36	0	104	38	2	2	2295.1
1296.6	4253.71		54.49	25.21	12.81	0	104	38	2	2	2316.08
1296.8	4254.37		25.26	25.01	14.26	0	104	38	2	2	2298.81
1297	4255.02		50.51	24.81	15.71	0	104	38	2	2	2231.23
1297.2	4255.68		42.68	24.61	16	0	104.09	38	2	2	2298.36
1297.4	4256.34		48.37	24.42	16	0	104.47	40.66	2	2	2221.28
1297.6	4256.99		58.95	24.21	16	0	104.85	46.57	2	2	2259.58
1297.8	4257.65		78.47	24.02	16	0	105.22	52.48	2	2	2230.07
1298	4258.3		64.2	23.82	16	0	105.6	58.39	2	2	2189.48
1298.2	4258.96		58.15	23.62	15.94	0	105.97	64	2	2	2155.42
1298.4	4259.62		54.15	23.41	14.82	0	106.35	64	2	2	2219.21
1298.6	4260.27		40.11	23.21	13.7	0	106.72	64	2	2	2158.48
1298.8	4260.93		49.85	23.02	12.57	0	107.1	61.6	2	2	2198.65
1299	4261.58		64.4	22.82	11.45	0	107.47	57.6	2	2	2197.68
1299.2	4262.24		62.77	22.61	13.33	0	107.85	54	2	2	2202.23
1299.4	4262.9		57.24	22.42	17.22	0	108	54	2	2	2197.39
1299.6	4263.55		21.22	22.21	21.11	0	108	54	2	2	2269.24
1299.8	4264.21		35.68	22.01	25	0	108	54	2	2	2242.58
1300	4264.86		40.4	21.81	25	0	108	54	2	2	2250.52
1300.2	4265.52		49.8	21.61	25	0	108	54	2	2	2258.65
1300.4	4266.18		62.81	21.41	25	0	108	56.79	2	2	2251.21
1300.6	4266.83		63.2	21.21	25	0	108	61.87	2	2	2208.98
1300.8	4267.49		55.34	21.01	24.22	0	108	66.95	2	2	2246.59
1301	4268.14		43.56	20.81	22.25	0	108	70	2	2	2256.85
1301.2	4268.8		54.75	20.62	20.29	0	108	70	2	2	2258.33
1301.4	4269.46		53.36	20.42	18.33	0	108	70	2	2	2236.87
1301.6	4270.11		50.13	20.22	16.37	0	108	70	2	2	2254.97
1301.8	4270.77		52.14	20.02	15	0	108	70	2	2	2257.65
1302	4271.42		58.48	19.81	15	0	108	70	2	2	2269.65
1302.2	4272.08		54.97	19.61	15	0	108	70	2	2	2259.72
1302.4	4272.74		54.32	19.42	15	0	108	66.77	2	2	2263.81
1302.6	4273.39		57.42	19.21	15	0	108	57.54	2	2	2251.5
1302.8	4274.05		58.14	19.01	14.75	0	108	48.31	2	2	2292.25
1303	4274.7		52.84	18.81	14.02	0	108	40	2	2	2295.56
1303.2	4275.36		56.49	18.61	13.29	0	108	40	2	2	2266.47
1303.4	4276.02		53.52	18.41	12.56	0	108	40	2	2	2266.98
1303.6	4276.67		53.34	18.21	11.84	0	108	40	2	2	2236.35
1303.8	4277.33		58.26	18.01	11.11	0	108	40	2	2	2209.8
1304	4277.98		52.67	17.81	10.31	0	108	40	2	2	2279.04
1304.2	4278.64		52.51	17.61	9.49	0	108	40	2	2	2241.08
1304.4	4279.3		56.25	17.41	8.67	0	108	40	2	2	2315.73
1304.6	4279.95		56.95	17.21	7.86	0	108	41.82	2	2	2243.74
1304.8	4280.61		55.64	17.02	7.04	0	108	43.64	2	2	2195.33
1305	4281.26		55.51	16.81	6.83	0	108	45.45	2	2	2273.31
1305.2	4281.92		56.25	16.61	6.66	0	108	46	2	2	2244.31
1305.4	4282.58		57.16	16.41	6.49	0	108	46	2	2	2278.76
1305.6	4283.23		57.31	16.21	6.31	0	108	46	2	2	2246.81
1305.8	4283.89		58.78	16.02	6.14	0	108	46	2	2	2283.65
1306	4284.54		58.08	15.81	6.17	0	108	46	2	2	2225.11
1306.2	4285.2		55.51	15.62	7	0	108	46	2	2	2277.18
1306.4	4285.86		54.09	15.42	7.83	0	108	46	2	2	2240.94
1306.6	4286.51		53.82	15.21	8.67	0	108	46	2	2	2222.11
1306.8	4287.17		54.52	15.01	9.5	0	108	46	2	2	2244.07
1307	4287.82		54.09	14.82	10	0	108	46	2	2	2226.51
1307.2	4288.48		53.34	14.61	10	0	108	46	2	2	2213.88
1307.4	4289.14		51.38	14.41	10	0	108	46	2	2	2272.1
1307.6	4289.79		54.52	14.22	10	0	108	46	2	2	2271.26
1307.8	4290.45		53.95	14.01	10	0	108	46	2	2	2301.39
1308	4291.1		60.28	13.81	10	0	108	46	2	2	2241.28
1308.2	4291.76		56.08	13.62	9.81	0	108	46.9	2	2	2291.06
1308.4	4292.42		54.12	13.41	9.59	0	108	47.9	2	2	2228.31
1308.6	4293.07		54.56	13.21	9.38	0	108	48	2	2	2252.87
1308.8	4293.73		54.56	13.01	9.16	0	108	48	2	2	2250.82
