~Version Information											
VERS.                       2.00: SCHLUMBERGER LAS - Version 2.00											
WRAP.                         NO: One line per depth step											
~Well Information											
STRT.FT                1135.0000: Start Depth											
STOP.FT                2399.0000: End Depth											
STEP.FT                   0.2000:  											
											
COMP.                    Bapetco: COMPANY											
WELL.                   BED-18 M: WELL											
FLD .                        BED: FLD											
SRVC.               Schlumberger: SERVICE COMPANY											
LOC .                           : LOCATION											
DATE.                  20-Oct-19: LOG DATE											
UWI .                  19EGP0341: API NUMBER											
~Curve Information											
DEPT.FT                         : MWD Tool Measurement Depth											
MTTVD.FT                         : MWD Tool Measurement TVD											
PSPD.M/MIN                      : Instantaneous Pipe Speed											
ROP .M/HR                       : Rate of Penetration (MWD Depth Ave.)											
KPOSI.M                          : Kelly Position (Raw)											
SSS_H.                           : Stick Slip Percentage from HDS1											
SSL_H.                           : Stick Slip Level from HDS1											
RPM_H.                           : Average RPM from HDS1											
VIBC.CPS                        : Vibration Count											
VIBXYH.                           : Vibration XY											
VIBZH.                           : Vibration Z											
SPP I.PSI                        : Standpipe Pressure (Raw)											
DEPT	MTTVD	PSPD	ROP	KPOSI	SSS_H	SSL_H	RPM_H	VIBC	VIBXYH	VIBZH	SPP
M	FT	M/MIN	M/HR	M				CPS			PSI
#											
# Relog Number     0         0         0         0         0         0         0         0         0         0         0											
#											
~ASCII Data											
# ...
1507.4	4945.14		50.51	14.39	100.14	2.14	106.31	32	2	3.58	2403.72
1507.6	4945.79		11.08	14.19	100.36	2.36	99.55	34.78	2	3.82	2377.61
1507.8	4946.45		44.89	13.99	100.58	2.58	92.79	36	2	2.91	2383.82
1508	4947.1		60.88	13.79	100.79	2.79	86.03	36	2	2	2410.67
1508.2	4947.76		74.92	13.59	101.18	3	79.27	40	2	2	2413.62
1508.4	4948.42		17.98	13.39	104.73	3	72.51	44	2	2	2415.84
1508.6	4949.07		39.31	13.2	108.29	3	65.75	44	2	2.1	2427.73
1508.8	4949.73		38.39	12.99	109	3	60.8	44	2	2.58	2393.6
1509	4950.38		31.34	12.79	109	3	66.11	66.33	2	3.06	2402.82
1509.2	4951.04		51.79	12.6	109	3	71.43	92.6	2	3.54	2420.08
1509.4	4951.7		52.39	12.4	109	3	76.74	118.87	2	4	2426.8
1509.6	4952.35		49.8	12.19	109.26	3	82.06	132	2	4	2406.47
1509.8	4953.01		23.16	11.99	110.02	3	87.37	132	2	4	2400.3
1510	4953.66		33.34	11.8	110.77	3	92.69	132	2.18	4	2381.03
1510.2	4954.32		42.65	11.59	111	3	98	132	3.36	4	2374.14
1510.4	4954.98		40.53	11.39	111	3	99.08	132	4.55	4	2419.99
1510.6	4955.63		41.72	11.19	111	3	100.16	132	5.73	4	2428.61
1510.8	4956.29		24.46	10.99	105.36	2.82	101.24	132	7.34	4	2387.85
1511	4956.94		33.16	10.8	67.76	1.62	102.32	132	9.75	4	2373.82
1511.2	4957.6		37.65	10.6	30.16	0.42	103.41	132	12.16	4	2413.56
1511.4	4958.26		19.14	10.39	22.83	0.22	105.09	132	12.07	4	2428.22
1511.6	4958.91		26.26	10.19	31.79	0.57	107.51	197.45	10.64	4	2406.86
1511.8	4959.57		31.72	9.99	40.76	0.91	109.94	274.46	9.88	4	2394.65
1512	4960.22		25.83	9.79	43	1	112.36	286	11.79	4	2397.46
1512.2	4960.88		32.06	9.59	41.4	0.93	114.79	321.99	13.69	4	2399.05
1512.4	4961.54		22.8	9.4	30.7	0.47	116.38	364	15.6	4	2413.68
1512.6	4962.19		7.34	9.19	20	0	117.13	364.01	17.5	4	2365.22
1512.8	4962.85		32.77	8.99	18.3	0	117.89	436	17.5	4	1929.93
1513	4963.5		9.88	8.8	20.45	0	112.21	436	17.5	4	2018.81
1513.2	4964.16		21.46	8.6	23.48	0	105.41	436	17.5	4	2076.67
1513.4	4964.81		7.7	8.39	25	0	102.48	298	13	6.5	2116.93
1513.6	4965.47		12.99	8.19	24.35	0	103.43	306.02	16.75	6.5	1970.33
1513.8	4966.13		18.55	7.99	24	0	101.74	391.75	15.25	5.25	1919.35
1514	4966.78		1.63	7.79	24.53	0.03	96.09	358.77	13	4	1937.94
1514.2	4967.44		34.6	7.6	35.08	0.58	90.43	325.78	13	4	2011.19
1514.4	4968.1		15.53	7.39	43	1	84.78	306	13	4	1997.77
1514.6	4968.75		16.1	7.19	41.64	0.93	79.13	301.6	13	4.33	1973.38
1514.8	4969.41		23.76	6.99	28.07	0.21	75.61	298	13	6	1990.65
1515	4970.06		12.34	6.79	24	0	72.63	298	14.54	6.5	2151.96
1515.2	4970.72		21.64	6.59	24	0	69.64	213.58	16.73	6.5	2134.4
1515.4	4971.38		22.81	6.39	30.68	0.26	67.14	108	12.73	5.42	2151.84
1515.6	4972.03		14.28	6.2	45.54	0.83	65.24	108	6.3	4	2148.06
1515.8	4972.69		16.53	5.99	50	1	63.33	108	4.95	4	2100
1516	4973.34		18.55	5.79	49.12	1	65.53	161.05	4.44	4	2162.23
1516.2	4974		16.62	5.59	46.18	1	77.29	164	5.91	4	2190.47
1516.4	4974.65		7.05	5.39	32.27	0.64	81.69	314.8	6.5	4	2143.81
1516.6	4975.31		17.49	5.2	11.06	0.03	81.17	340	6.5	4	2124.4
1516.8	4975.97		12.75	4.99	15.81	0	80.65	270	6.5	4	2113.9
1517	4976.62		37.35	4.8	21.6	0	80.13	268.84	6.5	4	2149.74
1517.2	4977.28		13.56	4.59	25.6	0	79.22	261.1	6.5	4	2155.21
1517.4	4977.94		16.01	4.39	23.1	0	78.18	258	6.5	4	2124.49
1517.6	4978.59		71.97	4.19	17.1	0	77.14	258	6.5	4	2174.48
1517.8	4979.25		22.09	3.99	15.66	0	76.1	258	6.5	4	2121.48
1518	4979.9		45.46	3.79	16.67	0	75.38	255.77	6.5	4	2157.8
1518.2	4980.56		42.11	3.59	17.68	0	74.7	240.88	6.5	4	2184.48
1518.4	4981.21		44.52	3.39	18.7	0	74.02	226	6.5	4	2176.23
1518.6	4981.87		15.15	3.19	20.65	0	73.33	226	6.5	4	2119.68
1518.8	4982.53		24.44	3	23	0	72.65	226	6.5	4	2134.43
1519	4983.18		23.63	2.8	23.97	0	71.87	221.36	6.5	4	2144.73
1519.2	4983.84		31.85	2.59	24.94	0	69.34	205.91	6.5	4	2156.98
1519.4	4984.49		39.06	2.39	25.9	0	66.81	192	5.84	4	2114.21
1519.6	4985.15		17.78	2.19	21.85	0	64.28	192	4.37	4	2139.9
1519.8	4985.81		19.61	1.99	22.51	0	62.5	228.42	4.82	4	2194.49
1520	4986.46		29.69	1.8	26.7	0	67.5	66.36	5.9	4	2165.15
1520.2	4987.12		10.22	1.59	30.29	0	72.5	238	5.25	4	2165.82
1520.4	4987.77		19.39	1.39	35.78	0.08	77.5	188.41	3.48	3.48	2150.75
1520.6	4988.43		10.03	29.8	91.46	1.7	76.58	133.32	2.52	2.52	2214.64
1520.8	4989.09		17.8	29.6	136	3	75	92	2	2	2168.3
1521	4989.74		21.63	29.4	136	3	73.42	92	2	2	2216.66
1521.2	4990.4		21.39	29.2	136.33	3	71.91	92	2	2	2175.46
1521.4	4991.05		22.03	29	137.14	3	70.98	84	2	2	2243.11
1521.6	4991.71		28.14	28.8	137.96	3	70.05	74	2	2	2193.47
1521.8	4992.37		19.59	28.6	147.5	3	69.12	74	2	2	2239.74
1522	4993.02		20.62	28.4	155	3	68.19	69.55	2	2	2260.91
1522.2	4993.68		31.7	28.21	155	3	69.04	68	2	2	2307.05
1522.4	4994.33		18.81	28	155	3	70.35	68	2	2	2210.78
1522.6	4994.99		25.57	27.81	149.54	3	71.65	68	2	2	2200.78
1522.8	4995.65		30.56	27.6	142.27	3	72.96	30	2	2	2192.55
1523	4996.3		6.86	27.4	148.56	3	76.18	30	2	2.73	2133.71
1523.2	4996.96		23.98	27.2	135.88	3	87.09	38.57	2	3.64	2068.71
1523.4	4997.61		23.96	27	127	3	98	72.85	2	3.43	2154.85
1523.6	4998.27		24.22	26.8	127	3	97.54	78	2	2.48	2175.09
1523.8	4998.93		14.01	26.6	129.55	3	97.08	78	2	2	2146.25
1524	4999.58		32.02	26.4	135.94	3	96.62	75.94	2	2	2154.47
1524.2	5000.24		31.09	26.2	141.95	3	96.16	62.23	2	2	2177.42
1524.4	5000.89		29.36	26	140.91	3	96	54	2	2	2146.94
1524.6	5001.55		30.34	25.8	139.88	3	96	54	2	2	2135.85
1524.8	5002.21		28.14	25.6	139	3	96	54	2	2	2150.82
1525	5002.86		28.45	25.4	139	3	96	54	2	2	2148
1525.2	5003.52		32.48	25.2	139	3	96	70.36	2	2	2212.44
1525.4	5004.17		26.87	25	137.08	3	96.05	103.08	2	2	2175.6
1525.6	5004.83		26.4	24.8	134.13	3	96.41	108	2	2	2213.18
1525.8	5005.49		32.58	24.6	131.18	3	96.76	108	2	2	2155.34
1526	5006.14		27.83	24.4	128.42	3	97.12	88.17	2	2	2187.24
1526.2	5006.8		32.1	24.2	125.77	3	97.47	70	2	2	2164.81
1526.4	5007.45		33.44	24	123.13	3	97.82	70	2	2.11	2184.9
1526.6	5008.11		31.22	23.8	123	3	98.35	70.8	2	2.87	2149.44
1526.8	5008.77		24.28	23.61	123	3	99.05	73.47	2	3.62	2161.9
1527	5009.42		30.8	23.4	123	3	99.75	76	2	4	2150.58
1527.2	5010.08		31.66	23.2	121.62	3	100.46	76	2	4	2175.21
1527.4	5010.73		30.64	23	120.24	3	101.16	76	2	4	2166.35
1527.6	5011.39		32.88	22.8	118.8	3	101.86	76	2	3.64	2176.8
1527.8	5012.05		34.36	22.6	116.8	3	102	71.38	2	2.91	2190.97
1528	5012.7		38.87	22.4	114.8	3	102	59.82	2	2.18	2172.59
1528.2	5013.36		18.25	22.2	118.5	3	102	50	2	2	2179.86
1528.4	5014.01		23.26	22.01	126	3	102	50	2	2	2138.16
1528.6	5014.67		26.55	21.8	130.88	3	102	50	2	2.39	2161.23
1528.8	5015.33		18.61	21.6	125.28	3	102.62	54.29	2	3.18	2188.69
1529	5015.98		38.97	21.4	119.68	3	103.51	60	2	3.96	2129.29
1529.2	5016.64		30.7	21.2	118	3	104.4	62	2	3.21	2176.29
1529.4	5017.29		33.52	21	118	3	105.29	62	2	2.37	2186.93
1529.6	5017.95		16.73	20.8	115.74	3	105.94	85.03	2	2.59	2198.24
1529.8	5018.61		24.9	20.6	111.64	3	105.64	94	2	3.68	2211.95
1530	5019.26		17.66	20.4	110	3	105.33	94	2	3.65	2159.77
1530.2	5019.92		45.91	20.21	110	3	105.03	94	2	3.14	2169.03
1530.4	5020.57		71.06	20	110	3	104.73	93.1	2	2.63	2170.48
1530.6	5021.23		71.24	19.8	110	3	104.42	75.17	2	2.13	2203.92
1530.8	5021.89		34.07	19.6	109.21	3	104.12	57.24	2	2	2171.22
1531	5022.54		46.67	19.4	107.46	3	104.44	42	2	2	2153.6
1531.2	5023.2		58.85	19.2	105.71	3	105.17	42	2	2	2186.92
1531.4	5023.85		46.42	19	103.96	3	105.9	42	2	2	2185.2
1531.6	5024.51		22.85	18.8	100.44	2.78	106.63	42	2	2.39	2175.44
1531.8	5025.17		54.14	18.6	94.77	2.28	107.37	42	2	2.96	2164.9
1532	5025.82		33.21	18.4	89.09	1.79	108.1	41.41	2	3.52	2211.39
1532.2	5026.48		49.38	18.2	83.41	1.3	108.83	37.49	2	3.93	2169.25
1532.4	5027.13		61.85	18	80.21	1.1	109.56	33.57	2	3.48	2202.88
1532.6	5027.79		70.31	17.8	80.72	1.36	110.59	32	2	3.02	2229.89
1532.8	5028.45		47.44	17.6	81.23	1.62	112.07	32	2	2.57	2201.15
1533	5029.1		27.52	17.4	81.74	1.87	113.56	32	2	2.11	2205.61
1533.2	5029.76		23.64	17.2	84.44	2	115.04	32	2	2.81	2185.78
1533.4	5030.41		19.29	17	89.32	2	116.52	39.59	2	3.89	2193.64
1533.6	5031.07		22.66	16.8	97.17	2.17	118	52	2	3.32	2190.25
1533.8	5031.73		32.16	16.6	108.65	2.54	104.67	52	2	2.57	2226.78
1534	5032.38		27.89	16.4	120.13	2.91	91.33	52	2	2.29	2189.42
1534.2	5033.04		15.64	16.2	143.17	3	78	38	2	3.47	2219.98
1534.4	5033.69		17.74	16	162	3	66.44	38	2	4	2293.8
