~Version Information											
VERS.                       2.00: SCHLUMBERGER LAS - Version 2.00											
WRAP.                         NO: One line per depth step											
~Well Information											
STRT.FT                1135.0000: Start Depth											
STOP.FT                2399.0000: End Depth											
STEP.FT                   0.2000:  											
											
COMP.                    Bapetco: COMPANY											
WELL.                   BED-18 M: WELL											
FLD .                        BED: FLD											
SRVC.               Schlumberger: SERVICE COMPANY											
LOC .                           : LOCATION											
DATE.                  20-Oct-19: LOG DATE											
UWI .                  19EGP0341: API NUMBER											
~Curve Information											
DEPT.FT                         : MWD Tool Measurement Depth											
MTTVD.FT                         : MWD Tool Measurement TVD											
PSPD.M/MIN                      : Instantaneous Pipe Speed											
ROP .M/HR                       : Rate of Penetration (MWD Depth Ave.)											
KPOSI.M                          : Kelly Position (Raw)											
SSS_H.                           : Stick Slip Percentage from HDS1											
SSL_H.                           : Stick Slip Level from HDS1											
RPM_H.                           : Average RPM from HDS1											
VIBC.CPS                        : Vibration Count											
VIBXYH.                           : Vibration XY											
VIBZH.                           : Vibration Z											
SPP I.PSI                        : Standpipe Pressure (Raw)											
DEPT	MTTVD	PSPD	ROP	KPOSI	SSS_H	SSL_H	RPM_H	VIBC	VIBXYH	VIBZH	SPP
M	FT	M/MIN	M/HR	M				CPS			PSI
#											
# Relog Number     0         0         0         0         0         0         0         0         0         0         0											
#											
~ASCII Data											
# ...
2361.2	7744.6		10.39	27.28	205	3	84	30	2	2	2231.13
2361.4	7745.26		13.03	27.08	205.01	3	78.28	34.13	2	2	2252.77
2361.6	7745.91		14.99	26.87	226.82	3	80.08	36	2	2	2245
2361.8	7746.57		22.58	26.68	226.68	3	86.87	38.86	2	2	2252.94
2362	7747.23		12.06	26.47	196	3	93.66	40	2	2	2228.67
2362.2	7747.88		16.24	26.27	196	3	87.09	27.81	2	2	2214.65
2362.4	7748.54		12.4	26.08	231.34	3	79.82	24	2	2	2247.34
2362.6	7749.19		16.14	25.87	249	3	74.52	27.13	2	2	2244.92
2362.8	7749.85		11.99	25.68	246.21	3	77.13	36	2	2	2215.63
2363	7750.51		14.09	25.48	236.93	3	79.74	36	2	2	2228.52
2363.2	7751.16		9.53	25.28	242	3	86.13	58.8	2	2	2268.75
2363.4	7751.82		13.86	25.08	242	3	92.94	55.73	2	2	2241.82
2363.6	7752.47		12.44	24.88	220.66	3	95.59	40	2	2	2252.63
2363.8	7753.13		11.38	24.68	204.2	3	94.85	40	2	2	2221.83
2364	7753.78		26.24	24.48	200.2	3	94.11	33.6	2	2	2277.44
2364.2	7754.44		10.83	24.27	217.42	3	86.71	32	2	2	2245.05
2364.4	7755.1		9.25	24.08	222.01	3	78.14	37.09	2	2	2257.97
2364.6	7755.75		12.46	23.87	243.89	3	82.82	40	2	2	2216.18
2364.8	7756.41		9.7	23.68	234.31	3	91.91	29.24	2	2	2263.41
2365	7757.06		15.36	23.48	191.54	3	92.03	32	2	2	2256.37
2365.2	7757.72		2.13	23.28	180.93	2.68	84.82	33.31	2	2	2271.25
2365.4	7758.38		34.44	23.08	84.81	1.39	77.61	38	2	2	2261.63
2365.6	7759.03		7.55	22.88	185.64	2.87	74.93	60.87	2	2	2260.93
2365.8	7759.69		15.03	22.68	229.73	3	76.79	70	2	2	2257.63
2366	7760.34		9.95	22.47	248	3	82.35	60.4	2	2	2286.17
2366.2	7761		8.49	22.28	212.7	3	94.76	36.49	2	2	2239.17
2366.4	7761.66		9.1	22.08	241.76	3	86.1	34	2	2	2259.94
2366.6	7762.31		14.7	21.88	253.87	3	75.11	36.15	2	2	2268.28
2366.8	7762.97		11.15	21.68	254	3	74	48	2	2	2276.42
2367	7763.62		15.8	21.48	248.92	3	74	48	2	2	2219.26
2367.2	7764.28		11.46	21.28	245	3	74	46	2	2	2248.86
2367.4	7764.94		11.34	21.08	245.2	3	74	46	2	2	2266.5
2367.6	7765.59		18.63	20.87	249.2	3	74	42.43	2	2	2244.69
2367.8	7766.25		15.2	20.68	248.77	3	76.29	36	2	2	2251.15
2368	7766.9		12.26	20.48	248	3	85.46	36	2	2	2235.61
2368.2	7767.56		17.34	20.28	248	3	94.63	32.89	2	2	2267.39
2368.4	7768.21		11.36	20.08	250.94	3	88.21	32	2	2	2272.37
2368.6	7768.87		15.51	19.88	246.65	3	79.04	44	2	2	2253.13
2368.8	7769.53		15.66	19.68	242.37	3	73.59	45.43	2	2	2242.69
2369	7770.18		10.4	19.48	239.62	3	72.68	54	2	2	2213.48
2369.2	7770.84		10.33	19.27	215.7	3	72	54	2	2	2249.05
2369.4	7771.49		21.34	19.07	234.44	3	72	40.69	2	2	2223.65
2369.6	7772.15		13.62	18.88	250.1	3	72	36	2	2	2239.34
2369.8	7772.81		11.97	18.68	252.5	3	73.6	36.71	2	2	2259.61
2370	7773.46		9.83	18.48	244.66	3	76.51	38	2	2	2243.95
2370.2	7774.12		19.87	18.27	234	3	79.42	39.07	2	2	2247.14
2370.4	7774.77		20.77	18.08	234	3	78.59	40	2	2	2262.84
2370.6	7775.43		27.86	17.87	234	3	76.82	40	2	2	2265.4
2370.8	7776.09		12.03	17.68	247.9	3	75.06	38.94	2	2	2230.24
2371	7776.74		15.86	17.48	251	3	77.27	34	2	2	2243.88
2371.2	7777.4		8.55	17.28	251	3	85.45	34	2	2	2266.58
2371.4	7778.05		15.52	17.08	238.34	3	92.72	26	2	2	2256.77
2371.6	7778.71		104.42	16.88	209.96	3	96.31	22	2	2	2248.03
2371.8	7779.36		12.89	16.68	182.45	3	99.9	22	2	2	2221.5
2372	7780.02		31.52	16.48	171.34	3	103.49	22	2	2	2212.46
2372.2	7780.68		16.64	16.28	172.05	3	104.76	22	2	2	2238.53
2372.4	7781.33		20.89	16.08	177.84	3	100.62	22	2	2	2221.44
2372.6	7781.99		11.9	15.87	179.84	3	96.48	22	2	2	2237.86
2372.8	7782.65		10.51	15.68	186.07	3	94	22	2	2	2252.83
2373	7783.3		14.03	15.48	195.21	3	94	24	2	2	2242.89
2373.2	7783.96		12.73	15.28	191.88	3	93.09	23.52	2	2	2249.23
2373.4	7784.61		12.18	15.08	172.74	3	90.48	22	2	2	2230.68
2373.6	7785.27		11.58	14.88	154.14	3	88.09	22	2	2	2253.61
2373.8	7785.92		8.63	14.68	169.51	2.89	89.91	28	2	2	2216.94
2374	7786.58		2.26	14.47	39.15	0.67	91.73	18	2	2	2195.12
2374.2	7787.24		14.68	14.28	182.98	2.8	93.55	21.39	2	2	2229.3
2374.4	7787.89		12.61	14.07	190.37	3	94	40	2	2	2226.62
2374.6	7788.55		9.87	13.88	209.61	3	94	40	2	2	2230.63
2374.8	7789.2		10.93	13.68	238.74	3	94.44	46	2	2	2257.5
2375	7789.86		10.22	13.48	251	3	95.41	46.13	2	2	2206.98
2375.2	7790.52		11.69	13.28	246.87	3	95.29	48	2	2	2239.7
2375.4	7791.17		14.98	13.08	239.94	3	93.51	48	2	2	2230.96
2375.6	7791.83		9.4	12.88	228.04	3	92.38	38	2	2	2236.3
2375.8	7792.48		14.26	12.68	207	3	94.94	36	2	2	2218.84
2376	7793.14		13.85	12.48	227	3	97.49	34	2	2	2237.74
2376.2	7793.79		12.5	12.28	208.24	3	97.36	30	2	2	2208.57
2376.4	7794.45		9.38	12.08	212.5	3	96.56	28	2	2	2262.83
2376.6	7795.11		23.91	11.88	230.42	3	96.24	29.04	2	2	2238.96
2376.8	7795.76		11.83	11.67	245	3	97.02	32	2	2	2200.14
2377	7796.42		14.73	11.48	245	3	97.8	32	2	2	2248.54
2377.2	7797.07		13.37	11.28	229.4	3	91.34	32	2	2	2253.12
2377.4	7797.73		15.27	11.08	219	3	82.45	32	2	2	2241.4
2377.6	7798.39		14.33	10.88	224.41	3	74.37	42.49	2	2	2212.44
2377.8	7799.04		9.33	10.68	243.84	3	81.87	44	2	2	2246.16
2378	7799.7		12.1	10.48	220.7	3	89.37	39	2	2	2206.68
2378.2	7800.35		13	10.27	198.7	3	90.34	34	2	2	2223.95
2378.4	7801.01		13.45	10.08	220.1	3	87.79	38.26	2	2	2254.66
2378.6	7801.67		11.35	9.88	238	3	87.76	50	2	2	2278.17
2378.8	7802.32		19.91	9.68	237.3	3	93.61	50	2	2	2217.79
2379	7802.98		9.47	9.48	235.23	3	95.8	44	2	2	2232.21
2379.2	7803.63		16.2	9.27	232.15	3	87.03	44	2	2	2230.59
2379.4	7804.29		8.13	9.08	236.69	3	81	52	2	2	2384.12
2379.6	7804.95		10.91	8.88	245.51	3	86	49.78	2	2	2376.26
2379.8	7805.6		13.54	8.67	217	3	91	42	2	2	2368.93
2380	7806.26		12.06	8.48	217	3	91.26	52	2	2	2386.1
2380.2	7806.91		12.7	8.28	192.83	3	90.33	54	2	2	2334.44
2380.4	7807.57		10.53	8.08	206.82	3	90.96	48	3.42	2	2383.21
2380.6	7808.23		15.97	7.88	206.89	3	92.44	40	2.92	2	2306.72
2380.8	7808.88		16.35	7.68	184.1	3	93.93	28.16	2	2	2251.13
2381	7809.54		11.43	7.48	184.79	3	87.02	26	2	2	2269.88
2381.2	7810.19		11.31	7.28	242.76	3	79.68	30.46	2	2	2258.41
2381.4	7810.85		19.35	7.08	45.58	0.54	47.11	40	2	2	2273.38
2381.6	7811.5		5.94	6.88	184.78	2.67	45.53	40	2	2	2279.37
2381.8	7812.16		13.17	6.68	192.58	3	81.42	47.34	2	2	2257.18
2382	7812.82		11.09	6.48	235.58	3	90.2	62	2	2	2244.31
2382.2	7813.47		11.08	6.28	251.14	3	84.34	63	2	2	2249.63
2382.4	7814.13		12.32	6.08	252	3	83.95	66	2	2	2257.47
2382.6	7814.78		7.67	5.88	229.07	3	87.19	66	2	2	2247.22
2382.8	7815.44		11.59	5.68	226	3	83.38	63.11	2	2	2244.42
2383	7816.1		10.1	5.48	223.35	3	77.23	62	2	2	2266.7
2383.2	7816.75		8.2	5.28	251	3	84.59	44	2	2	2211.3
2383.4	7817.41		12.33	5.08	249.95	3	95.32	44	2	2	2235.97
2383.6	7818.06		10.73	4.88	229.1	3	88.57	55.99	2	2	2257.83
2383.8	7818.72		10.22	4.67	227.63	3	76	75.08	2.25	2	2220.83
2384	7819.38		8.11	4.48	233	3	87.43	86	3.29	2	2248.25
2384.2	7820.03		14.72	4.28	234.22	3	98.86	70.29	2	2	2246.25
2384.4	7820.69		11.46	4.07	246.4	3	89.71	64	2	2	2250.92
2384.6	7821.34		12.72	3.88	246.05	3	78.28	58	2	2	2257.83
2384.8	7822		12.46	3.68	246	3	83.33	46	2	2	2281.48
2385	7822.65		8.65	3.47	236	3	92.5	40.62	2	2	2284.07
2385.2	7823.31		9.99	3.28	211.39	3	99.2	36	2	2	2264.16
2385.4	7823.97		13.26	3.08	204	3	102.2	30	2	2	2267.33
2385.6	7824.62		14.36	2.88	196.66	3	100.54	30	2	2	2273.1
2385.8	7825.28		11.8	2.68	187.37	3	91.89	30	2	2	2243.64
2386	7825.93		9.67	2.48	182.64	3	89.69	30.42	2	2	2270.65
2386.2	7826.59		16.43	2.28	180.2	3	92.77	38	2	2	2230.69
2386.4	7827.25		10.64	2.08	195.82	3	95.85	38	2	2	2233.6
2386.6	7827.9		16.45	1.88	222.89	3	96	44.96	2	2	2279.6
2386.8	7828.56		10.2	1.68	231	3	96	51.69	2	2	2227.77
2387	7829.21		10.71	1.48	216.34	3	96	64	2	2	2217.11
2387.2	7829.87		11.1	1.27	204.06	3	96	62.72	2	2	2232.66
2387.4	7830.53		7.93	3.5	202.94	3	83.62	45.76	2	2	2288.1
2387.6	7831.18		4.75	29.61	204.19	3	62.97	37.27	2	2	2311.43
2387.8	7831.84		18.98	29.41	205.44	3	42.32	46.56	2	2	2322.56
2388	7832.49		22	29.26	206.69	3	21.67	54	2	2	2300.26
2388.2	7833.15		11.82	29.2	207.94	3	1.03	54	2	2	2301.69
2388.4	7833.81		8.09	29.01	250	3	44.33	74	2	2	2359.84
2388.6	7834.46		10.61	28.81	241.72	3	83.59	66.78	2	2	2338.1
2388.8	7835.12		10.95	28.61	230	3	80.86	48	2	2	2333.5
2389	7835.77		12.67	28.41	230	3	78.14	66.91	2	2	2334.78
2389.2	7836.43		7.71	28.21	224.01	3	78	74	2	2	2376.15
2389.4	7837.08		9.59	28.01	254	3	77.94	82	2	2	2384.45
