~Version Information
VERS.                       2.00: SCHLUMBERGER LAS - Version 2.00
WRAP.                         NO: One line per depth step
~Well Information
STRT.FT                2400.0000: Start Depth
STOP.FT                3131.0000: End Depth
STEP.FT                   0.2000:  
NULL.                    -999.25:  
COMP.                    Bapetco: COMPANY
WELL.                   BED-18 M: WELL
FLD .                        BED: FLD
SRVC.               Schlumberger: SERVICE COMPANY
LOC .                           : LOCATION
DATE.                  23-Oct-19: LOG DATE
UWI .                  19EGP0341: API NUMBER
~Curve Information
DEPT.FT                         : MWD Tool Measurement Depth
MTTVD.FT                         : MWD Tool Measurement TVD
PSPD.M/MIN                      : Instantaneous Pipe Speed
ROP .M/HR                       : Rate of Penetration (MWD Depth Ave.)
KPOSI.M                          : Kelly Position (Raw)
SSS_H.                           : Stick Slip Percentage from HDS1
SSL_H.                           : Stick Slip Level from HDS1
RPM_H.                           : Average RPM from HDS1
VIBC.CPS                        : Vibration Count
VIBXYH.                           : Vibration XY
VIBZH.                           : Vibration Z
SPP I.PSI                        : Standpipe Pressure (Raw)
#     DEPT     MTTVD      PSPD       ROP     KPOSI     SSS_H     SSL_H     RPM_H      VIBC    VIBXYH     VIBZH     SPP I
#       FT        FT     M/MIN      M/HR         M                                     CPS                           PSI
#
# Relog Number     0         0         0         0         0         0         0         0         0         0         0
#
~ASCII Data
# ...
 2828.8000   9261.78   -999.25     11.60     12.58    180.89      3.00     91.70     29.38      2.00      2.00   2008.97
 2829.0000   9262.40   -999.25     16.39     12.38    181.11      3.00     91.00     27.60      2.00      2.00   1988.01
 2829.2000   9263.03   -999.25     18.26     12.19    181.34      3.00     90.31     25.76      2.00      2.00   1971.61
 2829.4000   9263.66   -999.25     23.26     11.99    181.57      3.00     89.61     23.32      2.00      2.00   1992.96
 2829.6000   9264.28   -999.25     18.25     11.79    181.80      3.00     88.91     20.88      2.00      2.00   1961.17
 2829.8000   9264.91   -999.25     27.96     11.58    182.14      3.00     88.21     18.44      2.00      2.00   1994.62
 2830.0000   9265.53   -999.25      9.69     11.38    183.53      3.00   -999.25     16.00      2.00      2.00   1991.44
 2830.2000   9266.16   -999.25    106.71     11.18    184.92      3.00   -999.25     14.37      2.00      2.00   2029.12
 2830.4000   9266.78   -999.25     82.48     10.98    186.31      3.00   -999.25     12.73      2.00      2.00   1993.97
 2830.6000   9267.41   -999.25     13.49     10.78    187.70      3.00   -999.25     11.10      2.00      2.00   2004.63
 2830.8000   9268.03   -999.25    106.33     10.58    189.10      3.00   -999.25      9.47      2.00      2.00   1986.36
 2831.0000   9268.66   -999.25     19.91     10.39    189.18      3.00   -999.25      8.21      2.00      2.00   2020.76
 2831.2000   9269.28   -999.25     42.45     10.18    186.85      3.00   -999.25     10.28      2.00      2.00   2015.68
 2831.4000   9269.91   -999.25     59.30      9.98    184.51      3.00   -999.25     12.34      2.00      2.00   2041.70
 2831.6000   9270.53   -999.25      7.69      9.79    182.18      3.00   -999.25     14.22      2.00      2.00   2033.17
 2831.8000   9271.16   -999.25     58.54      9.58    179.84      3.00   -999.25     15.33      2.00      2.00   1997.12
 2832.0000   9271.78   -999.25     68.82      9.38    177.51      3.00   -999.25     16.44      2.00      2.00   2047.09
 2832.2000   9272.41   -999.25     10.72      9.18    175.17      3.00   -999.25     17.56      2.00      2.00   2017.51
 2832.4000   9273.03   -999.25     87.13      8.98    172.84      3.00   -999.25     18.00      2.00      2.00   2051.60
 2832.6000   9273.65   -999.25     98.21      8.78    170.50      3.00   -999.25     18.00      2.00      2.00   2042.44
 2832.8000   9274.28   -999.25     52.60      8.59    168.17      3.00   -999.25     18.00      2.00      2.00   2034.76
 2833.0000   9274.90   -999.25     13.29      8.38    167.20      3.00    114.00     18.00      2.00      2.00   2024.98
 2833.2000   9275.53   -999.25     73.43      8.19    167.59      3.00    114.31     18.00      2.00      2.00   1986.80
 2833.4000   9276.15   -999.25     42.32      7.99    167.99      3.00    114.66     17.77      2.00      2.00   2025.36
 2833.6000   9276.78   -999.25     28.57      7.78    168.39      3.00    115.00     17.27      2.00      2.00   1972.91
 2833.8000   9277.40   -999.25      7.19      7.59    168.78      3.00    115.35     16.76      2.00      2.00   2008.09
 2834.0000   9278.03   -999.25     72.87      7.39    170.97      3.00    115.70     16.25      2.00      2.00   1984.31
 2834.2000   9278.65   -999.25     15.01      7.18    175.35      3.00    116.04     18.81      2.00      2.00   2010.84
 2834.4000   9279.28   -999.25     60.40      6.99    179.73      3.00    116.39     24.42      2.00      2.00   2031.44
 2834.6000   9279.90   -999.25     18.78      6.78    184.11      3.00    116.74     30.04      2.00      2.00   1998.06
 2834.8000   9280.52   -999.25     13.38      6.58    188.49      3.00    117.08     38.69      2.00      2.00   1967.27
 2835.0000   9281.15   -999.25     12.51      6.38    192.87      3.00    117.43     48.97      2.00      2.00   2047.09
 2835.2000   9281.77   -999.25      8.59      6.19    197.25      3.00    117.77     42.29      2.00      2.00   1981.82
 2835.4000   9282.40   -999.25     12.94      5.98    193.12      3.00    117.07     33.71      2.00      2.00   1956.48
 2835.6000   9283.02   -999.25      7.71      5.78    183.32      3.00    114.43     37.60      2.00      2.00   2001.64
 2835.8000   9283.65   -999.25     12.83      5.58    174.06      3.00    111.78     44.60      2.00      2.00   1966.28
 2836.0000   9284.27   -999.25      6.68      5.39    175.21      3.00    109.13     46.00      2.00      2.00   1949.57
 2836.2000   9284.89   -999.25     14.06      5.18    176.36      3.00    106.49     43.11      2.00      2.00   1964.28
 2836.4000   9285.52   -999.25      7.60      4.98    177.51      3.00    103.84     39.80      2.00      2.00   1988.55
 2836.6000   9286.14   -999.25     18.72      4.79    178.66      3.00    101.19     39.00      2.00      2.00   1959.40
 2836.8000   9286.77   -999.25     14.33      4.58    181.64      3.00     99.88     38.20      2.00      2.00   1935.73
 2837.0000   9287.39   -999.25     10.16      4.38    185.41      3.00     99.65     33.18      2.00      2.00   1945.29
 2837.2000   9288.01   -999.25     12.26      4.18    189.17      3.00     99.43     26.75      2.00      2.00   1939.33
 2837.4000   9288.64   -999.25     24.99      3.99    192.00      3.00     99.21     20.32      2.00      2.00   1942.56
 2837.6000   9289.26   -999.25     19.36      3.78    192.00      3.00     98.98     21.73      2.00      2.00   1948.99
 2837.8000   9289.88   -999.25      9.32      3.59    192.00      3.00     98.76     23.54      2.00      2.00   1968.41
 2838.0000   9290.51   -999.25     14.00      3.38    192.00      3.00     98.54     26.81      2.00      2.00   1925.08
 2838.2000   9291.13   -999.25     13.62      3.18    192.00      3.00     98.31     29.71      2.00      2.00   1985.65
 2838.4000   9291.76   -999.25     14.03      2.98    192.00      3.00     98.09     27.76      2.00      2.00   1923.67
 2838.6000   9292.38   -999.25      7.91      2.78    187.45      3.00    100.11     26.34      2.00      2.00   1922.76
 2838.8000   9293.00   -999.25      9.42      2.58    180.95      3.00    103.63     29.77      2.00      2.00   1956.82
 2839.0000   9293.63   -999.25      7.73      2.38    177.68      3.00    107.14     32.00      2.00      2.00   1904.78
 2839.2000   9294.25   -999.25      4.04      2.19    175.79      3.00    110.66     24.00      2.00      2.00   1964.21
 2839.4000   9294.88   -999.25      5.69      1.98    174.27      3.00    113.42     28.44      2.00      2.00   1968.23
 2839.6000   9295.50   -999.25     13.55      1.78    179.55      3.00    101.90     30.92      2.00      2.00   1931.22
 2839.8000   9296.12   -999.25     12.69      1.58    184.83      3.00     90.38     25.54      2.00      2.00   1920.99
 2840.0000   9296.75   -999.25     23.11      1.38    157.89      2.52     78.86     20.16      2.00      2.00   1907.80
 2840.2000   9297.37   -999.25     12.78      1.18     82.69      1.32     67.34     18.00      2.00      2.00   1915.75
 2840.4000   9297.99   -999.25      1.11     22.65      7.49      0.12     55.82     23.99      2.00      2.00   1974.70
 2840.6000   9298.62   -999.25     32.90     29.66     58.72      0.83     44.30     30.90      2.00      2.00   1942.28
 2840.8000   9299.24   -999.25     95.23     29.46    123.94      1.75     49.23     24.69      2.00      2.00   1948.88
 2841.0000   9299.86   -999.25      6.04     29.26    189.15      2.68     58.26     18.48      2.00      2.00   1983.69
 2841.2000   9300.49   -999.25      5.34     29.06    206.34      3.00     67.30     34.35      2.00      2.00   1989.83
 2841.4000   9301.11   -999.25      5.88     28.86    197.62      3.00     76.33     30.26      2.00      2.00   2004.73
 2841.6000   9301.73   -999.25     13.11     28.66    188.90      3.00     85.36     24.96      2.00      2.00   2110.68
 2841.8000   9302.35   -999.25     15.33     28.46    180.18      3.00     94.39     26.56      2.00      2.00   2164.40
 2842.0000   9302.98   -999.25     19.53     28.26    179.27      3.00     98.13     28.16      2.00      2.00   2129.27
