~Version Information
VERS.                       2.00: SCHLUMBERGER LAS - Version 2.00
WRAP.                         NO: One line per depth step
~Well Information
STRT.FT                2400.0000: Start Depth
STOP.FT                3131.0000: End Depth
STEP.FT                   0.2000:  
NULL.                    -999.25:  
COMP.                    Bapetco: COMPANY
WELL.                   BED-18 M: WELL
FLD .                        BED: FLD
SRVC.               Schlumberger: SERVICE COMPANY
LOC .                           : LOCATION
DATE.                  23-Oct-19: LOG DATE
UWI .                  19EGP0341: API NUMBER
~Curve Information
DEPT.FT                         : MWD Tool Measurement Depth
MTTVD.FT                         : MWD Tool Measurement TVD
PSPD.M/MIN                      : Instantaneous Pipe Speed
ROP .M/HR                       : Rate of Penetration (MWD Depth Ave.)
KPOSI.M                          : Kelly Position (Raw)
SSS_H.                           : Stick Slip Percentage from HDS1
SSL_H.                           : Stick Slip Level from HDS1
RPM_H.                           : Average RPM from HDS1
VIBC.CPS                        : Vibration Count
VIBXYH.                           : Vibration XY
VIBZH.                           : Vibration Z
SPP I.PSI                        : Standpipe Pressure (Raw)
#     DEPT     MTTVD      PSPD       ROP     KPOSI     SSS_H     SSL_H     RPM_H      VIBC    VIBXYH     VIBZH     SPP I
#       FT        FT     M/MIN      M/HR         M                                     CPS                           PSI
#
# Relog Number     0         0         0         0         0         0         0         0         0         0         0
#
~ASCII Data
# ...
 2641.2000   8661.62   -999.25     37.05     26.98    155.93      2.60   -999.25     15.11      2.00      2.00   2279.90
 2641.4000   8662.27   -999.25     23.62     26.78    179.72      3.00   -999.25     14.32      2.00      2.00   2210.65
 2641.6000   8662.92   -999.25     42.13     26.58    174.11      3.00   -999.25     16.59      2.00      2.00   2214.90
 2641.8000   8663.57   -999.25      7.33     26.38    168.51      3.00   -999.25     20.92      2.00      2.00   2205.64
 2642.0000   8664.22   -999.25     18.06     26.18    162.91      3.00   -999.25     20.46      2.00      2.00   2233.82
 2642.2000   8664.87   -999.25     36.83     25.98    157.30      3.00   -999.25     18.41      2.00      2.00   2261.06
 2642.4000   8665.52   -999.25     36.60     25.78    151.70      3.00   -999.25     16.36      2.00      2.00   2188.09
 2642.6000   8666.17   -999.25     23.13     25.58    146.10      3.00   -999.25     14.31      2.00      2.00   2216.83
 2642.8000   8666.82   -999.25     42.03     25.38    140.49      3.00   -999.25     14.24      2.00      2.00   2222.63
 2643.0000   8667.47   -999.25     49.39     25.18    134.89      3.00   -999.25     14.52      2.00      2.00   2196.03
 2643.2000   8668.12   -999.25     36.96     24.98    129.29      3.00   -999.25     14.80      2.00      2.00   2181.67
 2643.4000   8668.77   -999.25     39.94     24.78    123.68      3.00   -999.25     15.08      2.00      2.00   2168.95
 2643.6000   8669.42   -999.25     45.19     24.58    118.08      3.00   -999.25     15.37      2.00      2.00   2217.19
 2643.8000   8670.06   -999.25     20.80     24.38    115.84      3.00    106.00     15.65      2.00      2.00   2151.33
 2644.0000   8670.71   -999.25     27.85     24.18    117.71      3.00   -999.25     15.93      2.00      2.00   2241.53
 2644.2000   8671.36   -999.25     38.86     23.98    119.58      3.00   -999.25     15.77      2.00      2.00   2236.77
 2644.4000   8672.01   -999.25     40.92     23.78    121.45      3.00   -999.25     15.46      2.00      2.00   2234.45
 2644.6000   8672.66   -999.25     30.80     23.58    123.32      3.00   -999.25     15.15      2.00      2.00   2198.98
 2644.8000   8673.31   -999.25     30.42     23.38    125.19      3.00   -999.25     14.85      2.00      2.00   2222.86
 2645.0000   8673.96   -999.25     28.16     23.18    127.06      3.00   -999.25     14.54      2.00      2.00   2200.14
 2645.2000   8674.61   -999.25     38.53     22.98    128.00      3.00   -999.25     14.23      2.00      2.00   2226.15
 2645.4000   8675.26   -999.25     41.66     22.78    128.00      3.00   -999.25     14.13      2.00      2.00   2225.26
 2645.6000   8675.91   -999.25     17.61     22.58    128.00      3.00   -999.25     14.66      2.00      2.00   2169.85
 2645.8000   8676.56   -999.25     36.69     22.38    128.00      3.00   -999.25     15.18      2.00      2.00   2197.17
 2646.0000   8677.21   -999.25     44.00     22.18    128.00      3.00   -999.25     15.71      2.00      2.00   2190.89
 2646.2000   8677.86   -999.25     38.43     21.98    128.00      3.00   -999.25     17.37      2.00      2.00   2214.40
 2646.4000   8678.51   -999.25     16.73     21.78    128.00      3.00   -999.25     20.40      2.00      2.00   2224.92
 2646.6000   8679.16   -999.25     32.20     21.58    128.00      3.00   -999.25     23.44      2.00      2.00   2220.28
 2646.8000   8679.81   -999.25     41.67     21.38    128.00      3.00   -999.25     26.48      2.00      2.00   2239.55
 2647.0000   8680.46   -999.25     47.93     21.18    128.00      3.00   -999.25     27.85      2.00      2.00   2199.28
 2647.2000   8681.10   -999.25     15.70     20.98    128.00      3.00   -999.25     27.56      2.00      2.00   2215.61
 2647.4000   8681.75   -999.25     47.70     20.78    128.00      3.00   -999.25     27.26      2.00      2.00   2193.19
 2647.6000   8682.40   -999.25     53.00     20.59    128.00      3.00   -999.25     26.96      2.00      2.00   2168.30
 2647.8000   8683.05   -999.25     51.04     20.38    128.00      3.00   -999.25     26.67      2.00      2.00   2207.48
 2648.0000   8683.70   -999.25     13.34     20.18    128.00      3.00     96.00     26.37      2.00      2.00   2212.47
 2648.2000   8684.35   -999.25     50.29     19.98    128.00      3.00   -999.25     26.07      2.00      2.00   2247.81
 2648.4000   8685.00   -999.25     42.55     19.78    128.00      3.00   -999.25     25.51      2.00      2.00   2232.78
 2648.6000   8685.65   -999.25     38.67     19.59    128.00      3.00   -999.25     24.86      2.00      2.00   2175.46
 2648.8000   8686.30   -999.25     21.92     19.38    128.00      3.00   -999.25     24.21      2.00      2.00   2233.49
 2649.0000   8686.95   -999.25     53.61     19.18    128.00      3.00   -999.25     23.56      2.00      2.00   2204.59
 2649.2000   8687.60   -999.25     49.27     18.98    128.00      3.00   -999.25     22.91      2.00      2.00   2208.85
 2649.4000   8688.25   -999.25     21.59     18.78    130.60      3.00   -999.25     22.26      2.00      2.00   2237.98
 2649.6000   8688.89   -999.25     29.04     18.58    134.94      3.00   -999.25     22.00      2.00      2.00   2235.73
 2649.8000   8689.54   -999.25     35.86     18.38    139.28      3.00   -999.25     22.00      2.00      2.00   2200.73
 2650.0000   8690.19   -999.25     19.60     18.18    143.61      3.00   -999.25     22.00      2.00      2.00   2212.71
 2650.2000   8690.84   -999.25     40.19     17.98    147.95      3.00   -999.25     22.00      2.00      2.00   2263.64
 2650.4000   8691.49   -999.25     41.04     17.79    152.29      3.00   -999.25     20.52      2.00      2.00   2188.57
 2650.6000   8692.14   -999.25     18.81     17.58    156.63      3.00   -999.25     18.96      2.00      2.00   2240.55
 2650.8000   8692.79   -999.25     29.25     17.38    160.96      3.00   -999.25     17.40      2.00      2.00   2174.83
 2651.0000   8693.44   -999.25     24.83     17.18    165.30      3.00   -999.25     16.00      2.00      2.00   2189.99
 2651.2000   8694.09   -999.25     19.00     16.98    169.64      3.00   -999.25     16.00      2.00      2.00   2239.27
 2651.4000   8694.74   -999.25     50.50     16.78    173.98      3.00   -999.25     16.00      2.00      2.00   2244.92
 2651.6000   8695.38   -999.25     36.09     16.58    178.31      3.00   -999.25     16.00      2.00      2.00   2233.13
 2651.8000   8696.03   -999.25     16.38     16.38    181.82      3.00     96.00     16.00      2.00      2.00   2203.85
 2652.0000   8696.68   -999.25     13.66     16.18    180.61      3.00   -999.25     16.00      2.00      2.00   2275.43
 2652.2000   8697.33   -999.25     34.91     15.98    179.39      3.00   -999.25     16.00      2.00      2.00   2256.57
 2652.4000   8697.98   -999.25     22.57     15.78    178.18      3.00   -999.25     16.00      2.00      2.00   2234.19
 2652.6000   8698.63   -999.25     32.24     15.58    176.97      3.00   -999.25     16.00      2.00      2.00   2214.94
 2652.8000   8699.28   -999.25     32.52     15.38    176.14      3.00   -999.25     16.00      2.00      2.00   2218.26
 2653.0000   8699.93   -999.25     19.02     15.18    176.87      3.00   -999.25     16.00      2.00      2.00   2259.94
 2653.2000   8700.57   -999.25     22.08     14.98    177.59      3.00   -999.25     16.00      2.00      2.00   2269.04
 2653.4000   8701.22   -999.25     22.99     14.78    178.32      3.00   -999.25     16.00      2.00      2.00   2224.17
 2653.6000   8701.87   -999.25     29.73     14.58    179.04      3.00   -999.25     16.72      2.00      2.00   2257.27
 2653.8000   8702.52   -999.25     23.76     14.38    179.76      3.00   -999.25     20.30      2.00      2.00   2227.54
 2654.0000   8703.17   -999.25     22.93     14.18    180.49      3.00   -999.25     23.88      2.00      2.00   2261.42
 2654.2000   8703.82   -999.25     28.05     13.98    181.21      3.00   -999.25     27.46      2.00      2.00   2291.37
 2654.4000   8704.47   -999.25     26.98     13.78    181.94      3.00   -999.25     26.43      2.00      2.00   2272.27
