~Version Information
VERS.                       2.00: SCHLUMBERGER LAS - Version 2.00
WRAP.                         NO: One line per depth step
~Well Information
STRT.FT                2400.0000: Start Depth
STOP.FT                3131.0000: End Depth
STEP.FT                   0.2000:  
NULL.                    -999.25:  
COMP.                    Bapetco: COMPANY
WELL.                   BED-18 M: WELL
FLD .                        BED: FLD
SRVC.               Schlumberger: SERVICE COMPANY
LOC .                           : LOCATION
DATE.                  23-Oct-19: LOG DATE
UWI .                  19EGP0341: API NUMBER
~Curve Information
DEPT.FT                         : MWD Tool Measurement Depth
MTTVD.FT                         : MWD Tool Measurement TVD
PSPD.M/MIN                      : Instantaneous Pipe Speed
ROP .M/HR                       : Rate of Penetration (MWD Depth Ave.)
KPOSI.M                          : Kelly Position (Raw)
SSS_H.                           : Stick Slip Percentage from HDS1
SSL_H.                           : Stick Slip Level from HDS1
RPM_H.                           : Average RPM from HDS1
VIBC.CPS                        : Vibration Count
VIBXYH.                           : Vibration XY
VIBZH.                           : Vibration Z
SPP I.PSI                        : Standpipe Pressure (Raw)
#     DEPT     MTTVD      PSPD       ROP     KPOSI     SSS_H     SSL_H     RPM_H      VIBC    VIBXYH     VIBZH     SPP I
#       FT        FT     M/MIN      M/HR         M                                     CPS                           PSI
#
# Relog Number     0         0         0         0         0         0         0         0         0         0         0
#
~ASCII Data
# ...
 2493.8000   8179.58   -999.25     21.12     28.85   -999.25   -999.25   -999.25     41.27   -999.25   -999.25   2015.50
 2494.0000   8180.24   -999.25     42.03     28.66   -999.25   -999.25   -999.25     40.27   -999.25   -999.25   1991.24
 2494.2000   8180.89   -999.25     48.16     28.46   -999.25   -999.25   -999.25     39.26   -999.25   -999.25   2019.59
 2494.4000   8181.55   -999.25     44.12     28.26   -999.25   -999.25   -999.25     38.26   -999.25   -999.25   1999.66
 2494.6000   8182.20   -999.25     40.28     28.05   -999.25   -999.25   -999.25     37.26   -999.25   -999.25   2006.73
 2494.8000   8182.86   -999.25     28.23     27.86   -999.25   -999.25   -999.25     36.25   -999.25   -999.25   1977.02
 2495.0000   8183.52   -999.25     43.64     27.66   -999.25   -999.25   -999.25     38.59   -999.25   -999.25   1999.43
 2495.2000   8184.17   -999.25     42.60     27.46   -999.25   -999.25   -999.25     42.04   -999.25   -999.25   1991.94
 2495.4000   8184.83   -999.25     40.89     27.26   -999.25   -999.25   -999.25     45.49   -999.25   -999.25   1996.21
 2495.6000   8185.48   -999.25     46.93     27.06   -999.25   -999.25   -999.25     48.94   -999.25   -999.25   2060.93
 2495.8000   8186.14   -999.25     58.28     26.86   -999.25   -999.25   -999.25     52.39   -999.25   -999.25   1993.56
 2496.0000   8186.80   -999.25     53.34     26.66   -999.25   -999.25   -999.25     55.85   -999.25   -999.25   1994.97
 2496.2000   8187.45   -999.25     39.75     26.46   -999.25   -999.25   -999.25     59.30   -999.25   -999.25   1989.19
 2496.4000   8188.11   -999.25     41.66     26.26   -999.25   -999.25   -999.25     62.75   -999.25   -999.25   2045.95
 2496.6000   8188.77   -999.25     26.13     26.06   -999.25   -999.25   -999.25     66.20   -999.25   -999.25   1979.23
 2496.8000   8189.42   -999.25     28.69     25.86   -999.25   -999.25   -999.25     69.65   -999.25   -999.25   2009.45
 2497.0000   8190.08   -999.25     28.86     25.66   -999.25   -999.25   -999.25     60.29   -999.25   -999.25   1984.81
 2497.2000   8190.73   -999.25     26.22     25.46   -999.25   -999.25   -999.25     49.49   -999.25   -999.25   2028.59
 2497.4000   8191.39   -999.25     10.68     25.26   -999.25   -999.25   -999.25     38.70   -999.25   -999.25   1991.81
 2497.6000   8192.05   -999.25     41.40     25.06   -999.25   -999.25   -999.25     38.57   -999.25   -999.25   2035.49
 2497.8000   8192.70   -999.25     30.83     24.86   -999.25   -999.25   -999.25     42.00      2.00      2.00   1990.29
 2498.0000   8193.36   -999.25     16.00     24.65    149.13      3.00      0.00     45.43      2.00      2.00   2000.80
 2498.2000   8194.01   -999.25     31.14     24.46    150.43      3.00   -999.25     48.86      2.00      2.00   2024.28
 2498.4000   8194.67   -999.25     30.69     24.26    151.74      3.00   -999.25     52.29      2.00      2.00   2043.10
 2498.6000   8195.33   -999.25     28.53     24.06    153.04      3.00   -999.25     53.24      2.00      2.00   2057.00
 2498.8000   8195.98   -999.25     39.00     23.86    154.35      3.00   -999.25     51.71      2.00      2.00   2031.03
 2499.0000   8196.64   -999.25     33.23     23.66    155.65      3.00   -999.25     50.19      2.00      2.00   2018.39
 2499.2000   8197.30   -999.25     24.79     23.46    156.96      3.00   -999.25     48.67      2.00      2.00   1993.23
 2499.4000   8197.95   -999.25     19.04     23.26    155.67      2.96   -999.25     47.14      2.00      2.00   1967.82
 2499.6000   8198.61   -999.25     18.15     23.06    143.96      2.73   -999.25     45.15      2.00      2.00   2047.78
 2499.8000   8199.26   -999.25     27.51     22.86    132.26      2.51   -999.25     41.73      2.00      2.00   2002.50
 2500.0000   8199.92   -999.25     42.29     22.66    120.55      2.29   -999.25     38.32      2.00      2.00   2036.95
 2500.2000   8200.58   -999.25     38.38     22.46    108.85      2.07   -999.25     34.90      2.00      2.00   2028.92
 2500.4000   8201.23   -999.25     57.80     22.26     97.15      1.84   -999.25     32.32      2.00      2.00   2010.98
 2500.6000   8201.89   -999.25     62.48     22.05     85.44      1.62   -999.25     34.45      2.00      2.00   2016.65
 2500.8000   8202.54   -999.25     55.81     21.86     73.74      1.40   -999.25     36.57      2.00      2.00   2025.76
 2501.0000   8203.20   -999.25     29.50     21.66     62.03      1.18   -999.25     38.70      2.00      2.00   2036.92
 2501.2000   8203.86   -999.25     37.05     21.46     50.33      0.96   -999.25     40.83      2.00      2.00   1963.68
 2501.4000   8204.51   -999.25     44.92     21.26     38.63      0.73   -999.25     42.00      2.00      2.00   2051.13
 2501.6000   8205.17   -999.25     28.54     21.06     26.92      0.51   -999.25     42.00      2.00      2.00   2010.92
 2501.8000   8205.83   -999.25     16.33     20.86     15.22      0.29   -999.25     42.00      2.00      2.00   2010.78
 2502.0000   8206.48   -999.25     26.44     20.66      3.51      0.07   -999.25     42.00      2.00      2.00   2020.62
 2502.2000   8207.14   -999.25     24.73     20.46     10.50      0.21    154.00     42.00      2.00      2.00   1952.10
 2502.4000   8207.79   -999.25     31.04     20.25     25.50      0.51   -999.25     42.00      2.00      2.00   2039.93
 2502.6000   8208.45   -999.25     63.13     20.06     40.50      0.81   -999.25     42.00      2.00      2.00   2031.87
 2502.8000   8209.11   -999.25     63.36     19.86     55.50      1.11   -999.25     42.00      2.00      2.00   1997.07
 2503.0000   8209.76   -999.25    113.38     19.66     70.50      1.41   -999.25     42.50      2.00      2.00   2058.36
 2503.2000   8210.42   -999.25     53.68     19.46     85.50      1.71   -999.25     43.05      2.00      2.00   2043.29
 2503.4000   8211.08   -999.25     70.65     19.26    100.50      2.01   -999.25     43.60      2.00      2.00   2014.89
 2503.6000   8211.73   -999.25     44.12     19.06    115.50      2.31   -999.25     44.15      2.00      2.00   1958.42
 2503.8000   8212.39   -999.25     38.10     18.85    130.50      2.61   -999.25     44.70      2.00      2.00   2070.29
 2504.0000   8213.04   -999.25     27.58     18.65    145.50      2.91   -999.25     45.26      2.00      2.00   1989.83
 2504.2000   8213.70   -999.25     18.86     18.45    150.67      3.00   -999.25     45.81      2.00      2.00   2075.98
 2504.4000   8214.36   -999.25     21.34     18.25    151.62      3.00   -999.25     46.41      2.00      2.00   1995.08
 2504.6000   8215.01   -999.25     41.01     18.06    152.57      3.00   -999.25     47.03      2.00      2.00   2001.47
 2504.8000   8215.67   -999.25     20.18     17.85    153.52      3.00   -999.25     47.66      2.00      2.00   2032.77
 2505.0000   8216.32   -999.25     25.23     17.66    154.48      3.00   -999.25     47.78      2.00      2.00   2020.19
 2505.2000   8216.98   -999.25     31.14     17.46    155.43      3.00   -999.25     47.29      2.00      2.00   2041.17
 2505.4000   8217.64   -999.25     42.18     17.26    156.38      3.00   -999.25     46.80      2.00      2.00   2026.89
 2505.6000   8218.29   -999.25     26.26     17.06    157.33      3.00   -999.25     46.32      2.00      2.00   2040.09
 2505.8000   8218.95   -999.25     52.39     16.86    158.29      3.00   -999.25     46.25      2.00      2.00   1967.61
 2506.0000   8219.61   -999.25     35.07     16.66    159.24      3.00   -999.25     46.96      2.00      2.00   1983.55
 2506.2000   8220.26   -999.25     29.14     16.46    160.19      3.00   -999.25     47.68      2.00      2.00   2018.80
 2506.4000   8220.92   -999.25     26.81     16.26    161.14      3.00   -999.25     48.39      2.00      2.00   1993.04
 2506.6000   8221.57   -999.25     24.42     16.06    161.93      3.00    114.00     49.11      2.00      2.00   2062.72
 2506.8000   8222.23   -999.25     23.98     15.85    161.22      3.00   -999.25     49.82      2.00      2.00   2014.73
 2507.0000   8222.89   -999.25     24.81     15.66    160.52      3.00   -999.25     52.16      2.00      2.00   1997.01
