~Version Information
VERS.                       2.00: SCHLUMBERGER LAS - Version 2.00
WRAP.                         NO: One line per depth step
~Well Information
STRT.M                 1790.0000: Start Depth
STOP.M                 3303.0000: End Depth
STEP.M                    0.2000:  
NULL.                    -999.25:  
COMP.                    Bapetco: COMPANY
WELL.                  BED-15-13: WELL
FLD .                        BED: FLD
SRVC.               Schlumberger: SERVICE COMPANY
LOC .                           : LOCATION
DATE.                  05-Aug-20: LOG DATE
UWI .                  20EGP0554: API NUMBER
~Curve Information
DEPT.M                          : MWD Tool Measurement Depth
BDEP.M                          : Bit Depth
KPOSI.M                          : Kelly Position (Raw)
HKL .KLBF                       : Hook Load
SPP .PSI                        : Standpipe Pressure
ROP .M/HR                       : Rate of Penetration (MWD Depth Ave.)
PSPD.FT/MIN                     : Instantaneous Pipe Speed
VIBC.CPS                        : Vibration Count
SSS_H.                           : Stick Slip Percentage from HDS1
SSL_H.                           : Stick Slip Level from HDS1
RPMMX_H.                           : Maximum RPM from HDS1
TNR .                           : Time Not Rotating from HDS1
PTNR.                           : Percentage Time Not Rotating from HDS1
RPM_H.                           : Average RPM from HDS1
RPMMX_H.                           : Maximum RPM from HDS1
DRPM_H.                           : Differential RPM from HDS1
VIBXH.                           : Vibration X
VIBYH.                           : Vibration Y
VIBZH.                           : Vibration Z
TEMPH.DEG C                      : Temperature from JTDAS Tool
#     DEPT      BDEP     KPOSI       HKL       SPP       ROP      PSPD      VIBC     SSS_H     SSL_H   RPMMX_H       TNR      PTNR     RPM_H   RPMMX_H    DRPM_H     VIBXH     VIBYH     VIBZH     TEMPH
#        M         M         M      KLBF       PSI      M/HR    FT/MIN       CPS                                                                                                                   DEG C
#
# Relog Number     0         0         0         0         0         0         0         0         0         0         0         0         0         0         0         0         0         0         0
#
~ASCII Data
# ...
 3102.0000   3102.00      6.74     83.00   2654.00     17.39   -999.25   -999.25   -999.25   -999.25   -999.25   -999.25   -999.25   -999.25   -999.25   -999.25      1.53      1.80      1.13     79.00
 3102.2000   3102.20      6.54     83.00   2639.00     18.39   -999.25   -999.25   -999.25   -999.25   -999.25   -999.25   -999.25   -999.25   -999.25   -999.25      1.41      1.80      1.00     79.00
 3102.4000   3102.40      6.33     83.00   2628.99     15.34   -999.25   -999.25   -999.25   -999.25   -999.25   -999.25   -999.25   -999.25   -999.25   -999.25      1.55      1.80      1.07     79.00
 3102.6000   3102.60      6.14     83.00   2616.01     18.32   -999.25   -999.25   -999.25   -999.25   -999.25   -999.25   -999.25   -999.25   -999.25   -999.25      1.69      1.80      1.15     79.00
 3102.8000   3102.80      5.94     83.00   2656.99     17.99   -999.25   -999.25   -999.25   -999.25   -999.25   -999.25   -999.25   -999.25   -999.25   -999.25      1.80      1.78      1.18     79.00
 3103.0000   3103.00      5.74     84.00   2663.00     18.96   -999.25   -999.25   -999.25   -999.25   -999.25   -999.25   -999.25   -999.25   -999.25   -999.25      1.80      1.72      1.12     79.00
 3103.2000   3103.20      5.54     84.00   2593.01     15.78   -999.25   -999.25   -999.25   -999.25   -999.25   -999.25   -999.25   -999.25   -999.25   -999.25      1.80      1.65      1.05     79.00
 3103.4000   3103.40      5.34     84.00   2624.98     18.67   -999.25   -999.25   -999.25   -999.25   -999.25   -999.25   -999.25   -999.25   -999.25   -999.25      1.78      1.62      1.00     79.00
 3103.6000   3103.60      5.13     84.00   2579.02     20.69   -999.25   -999.25   -999.25   -999.25   -999.25   -999.25   -999.25   -999.25   -999.25   -999.25      1.72      1.68      1.00     79.00
 3103.8000   3103.80      4.93     83.00   2551.01     20.21   -999.25   -999.25   -999.25   -999.25   -999.25   -999.25   -999.25   -999.25   -999.25   -999.25      1.66      1.74      1.00     79.00
 3104.0000   3104.00      4.74     82.00   2577.00     19.15   -999.25   -999.25   -999.25   -999.25   -999.25   -999.25   -999.25   -999.25   -999.25   -999.25      1.60      1.80      1.00     79.00
 3104.2000   3104.20      4.54     83.00   2595.00     15.92   -999.25     35.78   -999.25   -999.25   -999.25   -999.25   -999.25   -999.25   -999.25   -999.25      1.68      1.88      1.00     79.00
 3104.4000   3104.40      4.33     83.00   2581.01     14.17   -999.25     34.19   -999.25   -999.25   -999.25   -999.25   -999.25   -999.25   -999.25   -999.25      1.75      1.95      1.00     79.00
 3104.6000   3104.60      4.14     83.00   2592.99     16.64   -999.25     32.60   -999.25   -999.25   -999.25   -999.25   -999.25   -999.25   -999.25   -999.25      1.83      1.97      1.03     79.00
 3104.8000   3104.80      3.94     84.00   2615.99     16.13   -999.25     32.00   -999.25   -999.25   -999.25   -999.25   -999.25   -999.25   -999.25   -999.25      1.89      1.91      1.09     79.00
 3105.0000   3105.00      3.74     83.00   2586.00     20.26   -999.25     32.00   -999.25   -999.25   -999.25   -999.25   -999.25   -999.25   -999.25   -999.25      1.96      1.84      1.16     79.00
 3105.2000   3105.20      3.54     83.00   2571.00     19.62   -999.25     32.00   -999.25   -999.25   -999.25   -999.25   -999.25   -999.25   -999.25   -999.25      1.97      1.83      1.20     79.00
 3105.4000   3105.40      3.33     83.00   2590.01     18.03   -999.25     31.67   -999.25   -999.25   -999.25   -999.25   -999.25   -999.25   -999.25   -999.25      1.91      1.89      1.20     79.00
 3105.6000   3105.60      3.14     82.00   2603.99     21.95   -999.25     31.00   -999.25   -999.25   -999.25   -999.25   -999.25   -999.25   -999.25   -999.25      1.84      1.96      1.20     79.00
 3105.8000   3105.80      2.94     83.00   2621.00     16.93   -999.25     30.33   -999.25   -999.25   -999.25   -999.25   -999.25   -999.25   -999.25   -999.25      1.80      2.02      1.18     79.00
 3106.0000   3106.00      2.74     83.00   2576.00     16.05   -999.25     31.61   -999.25   -999.25   -999.25   -999.25   -999.25   -999.25   -999.25   -999.25      1.80      2.08      1.12     79.00
 3106.2000   3106.20      2.53     83.00   2605.00     17.33   -999.25     34.84   -999.25   -999.25   -999.25   -999.25   -999.25   -999.25   -999.25   -999.25      1.80      2.15      1.05     79.00
 3106.4000   3106.40      2.33     83.00   2611.00     29.95   -999.25     38.06   -999.25   -999.25   -999.25   -999.25   -999.25   -999.25   -999.25   -999.25      1.80      2.20      1.00     79.00
 3106.6000   3106.60      2.13     82.00   2602.00     18.42   -999.25     41.30   -999.25   -999.25   -999.25   -999.25   -999.25   -999.25   -999.25   -999.25      1.80      2.20      1.00     79.00
 3106.8000   3106.80      1.93     82.00   2602.00     21.81   -999.25     44.59   -999.25   -999.25   -999.25   -999.25   -999.25   -999.25   -999.25   -999.25      1.80      2.20      1.00     79.00
 3107.0000   3107.00      1.74     82.00   2579.00     13.31   -999.25     47.89   -999.25   -999.25   -999.25   -999.25   -999.25   -999.25   -999.25   -999.25      1.80      2.18      1.00     79.00
 3107.2000   3107.20      1.53     82.00   2578.00     16.12   -999.25     46.62   -999.25   -999.25   -999.25   -999.25   -999.25   -999.25   -999.25   -999.25      1.80      2.11      1.00     79.00
 3107.4000   3107.40      1.34     83.00   2560.01     24.20   -999.25     37.25   -999.25   -999.25   -999.25   -999.25   -999.25   -999.25   -999.25   -999.25      1.80      2.05      1.00     79.00
 3107.6000   3107.60      1.14     83.00   2589.99     14.27   -999.25     27.88   -999.25   -999.25   -999.25   -999.25   -999.25   -999.25   -999.25   -999.25      1.80      1.98      1.00     79.00
 3107.8000   3107.80      0.94     83.00   2578.00     19.26   -999.25     19.23   -999.25   -999.25   -999.25   -999.25   -999.25   -999.25   -999.25   -999.25      1.80      1.89      1.00     79.00
 3108.0000   3108.00      7.96     86.00   2385.00      0.82   -999.25     15.70   -999.25   -999.25   -999.25   -999.25   -999.25   -999.25   -999.25   -999.25      1.80      1.80      1.00     79.00
 3108.2000   3108.20     29.43     85.00   2418.04     81.64   -999.25     19.24   -999.25   -999.25   -999.25   -999.25   -999.25   -999.25   -999.25   -999.25      1.80      1.80      1.00     79.00
 3108.4000   3108.40     29.23     84.00   2585.02     62.94   -999.25     16.43   -999.25   -999.25   -999.25   -999.25   -999.25   -999.25   -999.25   -999.25      1.80      1.80      1.00     79.00
 3108.6000   3108.60     29.03     84.00   2617.98     12.24   -999.25     13.61   -999.25   -999.25   -999.25   -999.25   -999.25   -999.25   -999.25   -999.25      1.78      1.78      1.01     79.00
 3108.8000   3108.80     28.83     84.00   2584.01     38.86   -999.25     10.80   -999.25   -999.25   -999.25   -999.25   -999.25   -999.25   -999.25   -999.25      1.67      1.67      1.06     79.00
 3109.0000   3109.00     28.64     83.00   2676.00     37.61   -999.25      7.99   -999.25   -999.25   -999.25   -999.25   -999.25   -999.25   -999.25   -999.25      1.56      1.56      1.12     79.00
 3109.2000   3109.20     28.43     84.00   2680.99     24.35   -999.25      8.26   -999.25   -999.25   -999.25   -999.25   -999.25   -999.25   -999.25   -999.25      1.46      1.46      1.17     79.00
 3109.4000   3109.40     28.23     84.00   2625.99     26.56   -999.25     10.21   -999.25   -999.25   -999.25   -999.25   -999.25   -999.25   -999.25   -999.25      1.40      1.42      1.18     79.00
 3109.6000   3109.60     28.04     84.00   2605.01     29.57   -999.25     12.15   -999.25   -999.25   -999.25   -999.25   -999.25   -999.25   -999.25   -999.25      1.40      1.47      1.13     79.00
 3109.8000   3109.80     27.83     84.00   2610.00     20.84   -999.25     14.10   -999.25   -999.25   -999.25   -999.25   -999.25   -999.25   -999.25   -999.25      1.40      1.52      1.08     79.00
