~Version Information
VERS.                       2.00: SCHLUMBERGER LAS - Version 2.00
WRAP.                         NO: One line per depth step
~Well Information
STRT.M                 1790.0000: Start Depth
STOP.M                 3303.0000: End Depth
STEP.M                    0.2000:  
NULL.                    -999.25:  
COMP.                    Bapetco: COMPANY
WELL.                  BED-15-13: WELL
FLD .                        BED: FLD
SRVC.               Schlumberger: SERVICE COMPANY
LOC .                           : LOCATION
DATE.                  05-Aug-20: LOG DATE
UWI .                  20EGP0554: API NUMBER
~Curve Information
DEPT.M                          : MWD Tool Measurement Depth
BDEP.M                          : Bit Depth
KPOSI.M                          : Kelly Position (Raw)
HKL .KLBF                       : Hook Load
SPP .PSI                        : Standpipe Pressure
ROP .M/HR                       : Rate of Penetration (MWD Depth Ave.)
PSPD.FT/MIN                     : Instantaneous Pipe Speed
VIBC.CPS                        : Vibration Count
SSS_H.                           : Stick Slip Percentage from HDS1
SSL_H.                           : Stick Slip Level from HDS1
RPMMX_H.                           : Maximum RPM from HDS1
TNR .                           : Time Not Rotating from HDS1
PTNR.                           : Percentage Time Not Rotating from HDS1
RPM_H.                           : Average RPM from HDS1
RPMMX_H.                           : Maximum RPM from HDS1
DRPM_H.                           : Differential RPM from HDS1
VIBXH.                           : Vibration X
VIBYH.                           : Vibration Y
VIBZH.                           : Vibration Z
TEMPH.DEG C                      : Temperature from JTDAS Tool
#     DEPT      BDEP     KPOSI       HKL       SPP       ROP      PSPD      VIBC     SSS_H     SSL_H   RPMMX_H       TNR      PTNR     RPM_H   RPMMX_H    DRPM_H     VIBXH     VIBYH     VIBZH     TEMPH
#        M         M         M      KLBF       PSI      M/HR    FT/MIN       CPS                                                                                                                   DEG C
#
# Relog Number     0         0         0         0         0         0         0         0         0         0         0         0         0         0         0         0         0         0         0
#
~ASCII Data
# ...
 3190.0000   3190.00      5.37     83.00   2679.00      8.27   -999.25      3.95   -999.25   -999.25   -999.25   -999.25   -999.25   -999.25   -999.25   -999.25      1.00      1.00      0.80     78.01
 3190.2000   3190.20      5.17     84.00   2786.96      3.50   -999.25      0.26   -999.25   -999.25   -999.25   -999.25   -999.25   -999.25   -999.25   -999.25      0.68      0.83      0.80     78.00
 3190.4000   3190.40      4.96     88.00   2617.99      4.39   -999.25      1.52   -999.25   -999.25   -999.25   -999.25   -999.25   -999.25   -999.25   -999.25      1.02      1.00      0.40     78.00
 3190.6000   3190.60      4.76     87.00   2595.01     10.23   -999.25      4.43   -999.25   -999.25   -999.25   -999.25   -999.25   -999.25   -999.25   -999.25      1.14      1.00      0.40     78.00
 3190.8000   3190.80      4.57     88.00   2568.01      6.89   -999.25      4.79   -999.25   -999.25   -999.25   -999.25   -999.25   -999.25   -999.25   -999.25      1.15      1.05      0.35     78.00
 3191.0000   3191.00      4.36     88.00   2587.00     34.32   -999.25      2.15   -999.25   -999.25   -999.25   -999.25   -999.25   -999.25   -999.25   -999.25      1.05      1.15      0.25     78.00
 3191.2000   3191.20      4.17     87.00   2591.01     15.25   -999.25      0.80   -999.25   -999.25   -999.25   -999.25   -999.25   -999.25   -999.25   -999.25      0.92      1.16      0.20     78.00
 3191.4000   3191.40      3.97     86.00   2635.01     29.92   -999.25      0.46   -999.25   -999.25   -999.25   -999.25   -999.25   -999.25   -999.25   -999.25      0.78      1.09      0.20     78.00
 3191.6000   3191.60      3.77     86.00   2660.99     22.77   -999.25      0.11   -999.25   -999.25   -999.25   -999.25   -999.25   -999.25   -999.25   -999.25      0.65      1.02      0.20     78.00
 3191.8000   3191.80      3.56     88.00   2603.01      9.86   -999.25      0.00   -999.25   -999.25   -999.25   -999.25   -999.25   -999.25   -999.25   -999.25      0.60      0.96      0.20     78.00
 3192.0000   3192.00      3.36     87.00   2626.00     15.34   -999.25      0.00   -999.25   -999.25   -999.25   -999.25   -999.25   -999.25   -999.25   -999.25      0.60      0.90      0.20     78.00
 3192.2000   3192.20      3.16     86.00   2696.01     28.38   -999.25      0.00   -999.25   -999.25   -999.25   -999.25   -999.25   -999.25   -999.25   -999.25      0.60      0.85      0.20     78.00
 3192.4000   3192.40      2.96     86.00   2733.98     27.63   -999.25      0.91   -999.25   -999.25   -999.25   -999.25   -999.25   -999.25   -999.25   -999.25      0.63      0.83      0.23     78.00
 3192.6000   3192.60      2.77     87.00   2686.02      8.73   -999.25      3.93   -999.25   -999.25   -999.25   -999.25   -999.25   -999.25   -999.25   -999.25      0.81      1.01      0.41     78.00
 3192.8000   3192.80      2.57     88.00   2625.02     22.79   -999.25      6.95   -999.25   -999.25   -999.25   -999.25   -999.25   -999.25   -999.25   -999.25      0.98      1.18      0.58     78.00
 3193.0000   3193.00      2.36     87.00   2655.00     17.86   -999.25      4.41   -999.25   -999.25   -999.25   -999.25   -999.25   -999.25   -999.25   -999.25      1.00      1.13      0.46     78.00
 3193.2000   3193.20      2.17     87.00   2639.00     14.15   -999.25      1.79   -999.25   -999.25   -999.25   -999.25   -999.25   -999.25   -999.25   -999.25      1.00      1.05      0.31     78.00
 3193.4000   3193.40      1.96     87.00   2619.97     19.58   -999.25      0.37   -999.25   -999.25   -999.25   -999.25   -999.25   -999.25   -999.25   -999.25      1.00      1.07      0.27     78.00
 3193.6000   3193.60      1.76     88.00   2560.03      1.69   -999.25     10.97   -999.25   -999.25   -999.25   -999.25   -999.25   -999.25   -999.25   -999.25      1.53      1.11      0.73     78.00
 3193.8000   3193.80      1.57     88.00   2603.99     24.75   -999.25      6.46   -999.25   -999.25   -999.25   -999.25   -999.25   -999.25   -999.25   -999.25      1.37      1.35      0.57     78.00
 3194.0000   3194.00      1.36     87.00   2640.00     20.07   -999.25      1.98   -999.25   -999.25   -999.25   -999.25   -999.25   -999.25   -999.25   -999.25      1.20      1.59      0.40     78.00
 3194.2000   3194.20      1.17     87.00   2647.00     22.63   -999.25      1.69   -999.25   -999.25   -999.25   -999.25   -999.25   -999.25   -999.25   -999.25      1.63      1.60      0.47     78.00
 3194.4000   3194.40      0.97     86.00   2639.95     21.26   -999.25      3.24   -999.25   -999.25   -999.25   -999.25   -999.25   -999.25   -999.25   -999.25      2.08      1.60      0.55     78.00
 3194.6000   3194.60     29.55     89.00   2535.05      0.55   -999.25      3.78   -999.25   -999.25   -999.25   -999.25   -999.25   -999.25   -999.25   -999.25      2.30      1.58      0.62     78.00
 3194.8000   3194.80     29.35     87.00   2568.99     47.51   -999.25      3.35   -999.25   -999.25   -999.25   -999.25   -999.25   -999.25   -999.25   -999.25      1.95      1.49      0.71     78.00
 3195.0000   3195.00     29.15     87.00   2702.00     47.64   -999.25      2.94   -999.25   -999.25   -999.25   -999.25   -999.25   -999.25   -999.25   -999.25      1.60      1.40      0.80     78.00
 3195.2000   3195.20     28.95     87.00   2732.99     45.81   -999.25      2.64   -999.25   -999.25   -999.25   -999.25   -999.25   -999.25   -999.25   -999.25      1.51      1.34      0.74     78.00
 3195.4000   3195.40     28.75     89.00   2676.99     27.77   -999.25      2.34   -999.25   -999.25   -999.25   -999.25   -999.25   -999.25   -999.25   -999.25      1.42      1.28      0.68     78.00
 3195.6000   3195.60     28.54     88.00   2664.01     59.89   -999.25      2.04   -999.25   -999.25   -999.25   -999.25   -999.25   -999.25   -999.25   -999.25      1.33      1.22      0.62     78.00
 3195.8000   3195.80     28.35     88.00   2694.99     59.25   -999.25      1.74   -999.25   -999.25   -999.25   -999.25   -999.25   -999.25   -999.25   -999.25      1.23      1.16      0.56     78.00
 3196.0000   3196.00     28.15     88.00   2721.00     58.21   -999.25      1.44   -999.25   -999.25   -999.25   -999.25   -999.25   -999.25   -999.25   -999.25      1.14      1.09      0.49     78.00
 3196.2000   3196.20     27.95     88.00   2707.97     45.87   -999.25      1.14   -999.25   -999.25   -999.25   -999.25   -999.25   -999.25   -999.25   -999.25      1.05      1.03      0.43     78.00
 3196.4000   3196.40     27.75     89.00   2599.99     17.84   -999.25      1.00   -999.25   -999.25   -999.25   -999.25   -999.25   -999.25   -999.25   -999.25      1.00      1.00      0.40     78.12
 3196.6000   3196.60     27.55     90.00   2586.01     22.30   -999.25      1.00   -999.25   -999.25   -999.25   -999.25   -999.25   -999.25   -999.25   -999.25      1.00      1.00      0.40     78.38
 3196.8000   3196.80     27.35     90.00   2591.00     28.02   -999.25      1.00   -999.25   -999.25   -999.25   -999.25   -999.25   -999.25   -999.25   -999.25      1.00      1.00      0.40     78.64
 3197.0000   3197.00     27.15     89.00   2614.00     26.20   -999.25      1.00   -999.25   -999.25   -999.25   -999.25   -999.25   -999.25   -999.25   -999.25      1.00      1.00      0.40     78.90
 3197.2000   3197.20     26.95     90.00   2557.01     17.71   -999.25      1.13   -999.25   -999.25   -999.25   -999.25   -999.25   -999.25   -999.25   -999.25      1.02      1.00      0.45     79.00
 3197.4000   3197.40     26.75     90.00   2599.00     32.10   -999.25      1.33   -999.25   -999.25   -999.25   -999.25   -999.25   -999.25   -999.25   -999.25      1.06      1.00      0.53     79.00
 3197.6000   3197.60     26.55     90.00   2595.00     25.24   -999.25      1.53   -999.25   -999.25   -999.25   -999.25   -999.25   -999.25   -999.25   -999.25      1.10      1.00      0.61     79.00
 3197.8000   3197.80     26.35     88.00   2586.00     36.34   -999.25      1.73   -999.25   -999.25   -999.25   -999.25   -999.25   -999.25   -999.25   -999.25      1.14      1.00      0.69     79.00
