~Version Information
VERS.                       2.00: SCHLUMBERGER LAS - Version 2.00
WRAP.                         NO: One line per depth step
~Well Information
STRT.M                 1195.0000: Start Depth
STOP.M                 1544.0000: End Depth
STEP.M                    0.2000:  
NULL.                    -999.25:  
COMP.                    Bapetco: COMPANY
WELL.                  BED-15-13: WELL
FLD .                        BED: FLD
SRVC.               Schlumberger: SERVICE COMPANY
LOC .                           : LOCATION
DATE.                  29-Jul-20: LOG DATE
UWI .                  20EGP0554: API NUMBER
~Curve Information
DEPT.M                          : MWD Tool Measurement Depth
BDEP.M                          : Bit Depth
KPOSI.M                          : Kelly Position (Raw)
HKL .KLBF                       : Hook Load
SPP .PSI                        : Standpipe Pressure
ROP .M/HR                       : Rate of Penetration (MWD Depth Ave.)
PSPD.M/MIN                      : Instantaneous Pipe Speed
VIBC.CPS                        : Vibration Count
SSL_H.                           : Stick Slip Level from HDS1
SSS_H.                           : Stick Slip Percentage from HDS1
RPM_H.                           : Average RPM from HDS1
VIBXYH.                           : Vibration XY
VIBZH.                           : Vibration Z
#     DEPT      BDEP     KPOSI       HKL       SPP       ROP      PSPD      VIBC     SSL_H     SSS_H     RPM_H    VIBXYH     VIBZH
#        M         M         M      KLBF       PSI      M/HR     M/MIN       CPS                                                  
#
# Relog Number     0         0         0         0         0         0         0         0         0         0         0         0
#
~ASCII Data
# ...
 1368.6000   1368.60      8.95     71.00   2361.00     64.53   -999.25     10.17      0.00     10.19     98.35      2.03      0.40
 1368.8000   1368.80      8.75     70.00   2378.00     56.73   -999.25      8.99      0.00     10.48     98.54      2.10      0.40
 1369.0000   1369.00      8.55     71.00   2361.00     42.96   -999.25      7.81      0.00     12.93     99.56      2.17      0.40
 1369.2000   1369.20      8.34     71.00   2332.99     48.97   -999.25      6.63      0.00     15.21     99.55      2.24      0.40
 1369.4000   1369.40      8.15     71.00   2310.00     77.10   -999.25      5.45      0.00     17.34     98.76      2.30      0.40
 1369.6000   1369.60      7.94     69.00   2336.00     60.13   -999.25      4.27      0.00     19.46     98.04      2.37      0.40
 1369.8000   1369.80      7.75     68.00   2376.99     45.32   -999.25      3.09      0.00     21.10     98.95      2.38      0.39
 1370.0000   1370.00      7.54     69.00   2366.00     61.96   -999.25      1.91      0.00     22.74     99.85      2.30      0.37
 1370.2000   1370.20      7.35     69.00   2353.00     51.99   -999.25      1.00      0.00     24.28     99.28      2.22      0.35
 1370.4000   1370.40      7.14     68.00   2371.00     69.23   -999.25      1.00      0.00     25.80     98.41      2.14      0.33
 1370.6000   1370.60      6.95     67.00   2438.99     43.51   -999.25      1.00      0.00     29.40     98.46      2.07      0.30
 1370.8000   1370.80      6.74     68.00   2362.02     57.20   -999.25      1.00      0.00     34.92     99.35      1.99      0.28
 1371.0000   1371.00      6.55     69.00   2364.00     54.66   -999.25      1.00      0.00     38.68     99.80      1.91      0.26
 1371.2000   1371.20      6.34     68.00   2364.00     72.86   -999.25      1.00      0.00     37.43     99.05      1.83      0.24
 1371.4000   1371.40      6.14     68.00   2366.00     55.95   -999.25      1.00      0.00     36.18     98.29      1.76      0.22
 1371.6000   1371.60      5.95     68.00   2414.99     43.37   -999.25      1.00      0.00     33.71     98.85      1.70      0.21
 1371.8000   1371.80      5.75     70.00   2360.01     35.79   -999.25      1.00      0.00     29.25     99.84      1.72      0.23
 1372.0000   1372.00      5.55     70.00   2315.00     53.95   -999.25      1.09      0.00     18.31     98.84      1.74      0.26
 1372.2000   1372.20      5.35     70.00   2323.99     47.16   -999.25      1.21      0.00      9.25     98.00      1.76      0.28
 1372.4000   1372.40      5.15     70.00   2297.00     48.94   -999.25      1.32      0.00      9.68     98.00      1.78      0.31
 1372.6000   1372.60      4.95     70.00   2336.00     68.59   -999.25      1.44      0.00     10.12     98.00      1.80      0.34
 1372.8000   1372.80      4.75     69.00   2362.99     54.80   -999.25      1.56      0.00     12.28     98.87      1.82      0.36
 1373.0000   1373.00      4.54     69.00   2362.00     38.55   -999.25      1.68      0.00     14.85     99.94      1.83      0.39
 1373.2000   1373.20      4.35     71.00   2299.01     46.12   -999.25      1.79      0.00     22.24     99.13      1.84      0.41
 1373.4000   1373.40      4.14     69.00   2351.99     60.31   -999.25      1.91      0.00     29.94     98.20      1.82      0.44
 1373.6000   1373.60      3.95     68.00   2405.99     46.61   -999.25      2.06      0.41     48.57     98.00      1.80      0.46
 1373.8000   1373.80      3.75     70.00   2351.01     44.18   -999.25      2.30      0.95     70.28     98.00      1.78      0.48
 1374.0000   1374.00      3.54     70.00   2356.00     53.51   -999.25      2.55      1.43     83.00     98.86      1.77      0.51
 1374.2000   1374.20      3.34     68.00   2419.00     48.11   -999.25      2.80      1.91     94.71     99.81      1.75      0.53
 1374.4000   1374.40      3.14     68.00   2415.00     57.64   -999.25      3.05      2.36     99.89     99.29      1.73      0.56
 1374.6000   1374.60      2.94     68.00   2390.00     50.47   -999.25      3.29      2.80    103.48     98.40      1.71      0.58
 1374.8000   1374.80      2.74     68.00   2402.00     43.73   -999.25      3.54      3.00    104.84     97.44      1.70      0.60
 1375.0000   1375.00      2.55     69.00   2369.00     53.64   -999.25      3.79      3.00    104.36     96.41      1.70      0.57
 1375.2000   1375.20      2.34     68.00   2420.00     41.15   -999.25      4.12      3.00    103.44     97.34      1.70      0.54
 1375.4000   1375.40      2.15     68.00   2424.00     42.86   -999.25      4.89      3.00    102.23     99.58      1.70      0.51
 1375.6000   1375.60      1.95     68.00   2432.00     42.01   -999.25      5.67      3.00    101.59    100.80      1.70      0.48
 1375.8000   1375.80      1.74     68.00   2403.01     53.55   -999.25      6.45      3.00    101.09    101.78      1.70      0.45
 1376.0000   1376.00      1.55     67.00   2395.00     84.03   -999.25      7.22      3.00    102.70     99.78      1.70      0.42
 1376.2000   1376.20     29.76     75.00   2221.02      4.67   -999.25      8.00      2.38     85.14     98.62      1.76      0.40
 1376.4000   1376.40     29.57     71.00   2284.99     73.33   -999.25      8.77      1.00     43.70     99.69      1.93      0.40
 1376.6000   1376.60     29.36     69.00   2432.99     35.88   -999.25      8.67      1.00     48.23     97.70      2.11      0.40
 1376.8000   1376.80     29.19     70.50   2388.50     35.56   -999.25      8.20      1.99     98.44     98.03      2.26      0.40
 1377.0000   1377.00     29.19     72.00   2344.00     35.24   -999.25      7.74      1.84     92.81     98.32      2.25      0.40
 1377.2000   1377.20     29.19     72.33   2330.50     36.16   -999.25      7.27      1.70     87.17     98.61      2.24      0.40
 1377.4000   1377.40     29.19     72.67   2317.00     37.07   -999.25      6.80      1.55     81.53     98.90      2.23      0.40
 1377.6000   1377.60     29.19     73.00   2303.50     37.99   -999.25      6.34      1.41     75.90     99.18      2.22      0.40
 1377.8000   1377.80     29.19     73.33   2290.00     38.91   -999.25      5.87      1.26     70.26     99.47      2.21      0.40
 1378.0000   1378.00     29.19     73.67   2276.50     39.82   -999.25      5.41      1.12     64.62     99.76      2.19      0.40
 1378.2000   1378.20     29.02     74.00   2263.03     40.74   -999.25      4.94      0.90     55.57     99.80      2.18      0.40
 1378.4000   1378.40     28.81     70.00   2389.98     35.94   -999.25      4.47      0.34     30.97     98.67      2.17      0.40
 1378.6000   1378.60     28.62     69.00   2418.00     51.32   -999.25      4.01      0.00     18.50     98.00      2.16      0.40
 1378.8000   1378.80     28.41     68.00   2432.00     59.88   -999.25      3.74      0.00     23.85     98.00      2.15      0.40
 1379.0000   1379.00     28.22     68.00   2508.00     45.08   -999.25      3.47      0.61     42.58     97.59      2.14      0.40
 1379.2000   1379.20     28.02     67.00   2483.00     51.62   -999.25      3.20      1.84     74.70     96.78      2.13      0.40
 1379.4000   1379.40     27.81     67.00   2482.00     56.79   -999.25      2.93      3.00    105.62     96.08      2.08      0.40
 1379.6000   1379.60     27.61     68.00   2509.99     26.20   -999.25      2.67      3.00    113.90     97.72      2.01      0.40
 1379.8000   1379.80     27.41     71.00   2398.03     49.97   -999.25      2.40      3.00    109.12     99.73      1.95      0.40
 1380.0000   1380.00     27.22     70.00   2425.00     44.14   -999.25      2.13      3.00    101.65    101.81      1.89      0.40
 1380.2000   1380.20     27.01     70.00   2430.00     39.01   -999.25      2.34      2.06     73.85    101.06      1.83      0.40
 1380.4000   1380.40     26.81     70.00   2419.00     56.66   -999.25      3.03      1.04     44.04    100.04      1.77      0.40
 1380.6000   1380.60     26.62     68.00   2517.00     51.23   -999.25      3.71      1.53     68.29     98.94      1.71      0.40
 1380.8000   1380.80     26.41     69.00   2488.01     39.48   -999.25      4.39      2.07     91.77     98.00      1.74      0.40
