~Version Information
VERS.                       2.00: SCHLUMBERGER LAS - Version 2.00
WRAP.                         NO: One line per depth step
~Well Information
STRT.M                 1195.0000: Start Depth
STOP.M                 1544.0000: End Depth
STEP.M                    0.2000:  
NULL.                    -999.25:  
COMP.                    Bapetco: COMPANY
WELL.                  BED-15-13: WELL
FLD .                        BED: FLD
SRVC.               Schlumberger: SERVICE COMPANY
LOC .                           : LOCATION
DATE.                  29-Jul-20: LOG DATE
UWI .                  20EGP0554: API NUMBER
~Curve Information
DEPT.M                          : MWD Tool Measurement Depth
BDEP.M                          : Bit Depth
KPOSI.M                          : Kelly Position (Raw)
HKL .KLBF                       : Hook Load
SPP .PSI                        : Standpipe Pressure
ROP .M/HR                       : Rate of Penetration (MWD Depth Ave.)
PSPD.M/MIN                      : Instantaneous Pipe Speed
VIBC.CPS                        : Vibration Count
SSL_H.                           : Stick Slip Level from HDS1
SSS_H.                           : Stick Slip Percentage from HDS1
RPM_H.                           : Average RPM from HDS1
VIBXYH.                           : Vibration XY
VIBZH.                           : Vibration Z
#     DEPT      BDEP     KPOSI       HKL       SPP       ROP      PSPD      VIBC     SSL_H     SSS_H     RPM_H    VIBXYH     VIBZH
#        M         M         M      KLBF       PSI      M/HR     M/MIN       CPS                                                  
#
# Relog Number     0         0         0         0         0         0         0         0         0         0         0         0
#
~ASCII Data
# ...
 1356.2000   1356.20     21.35     67.00   2388.00     45.68   -999.25      1.85      2.00     94.61     96.41      1.75      0.28
 1356.4000   1356.40     21.14     67.00   2388.00     89.91   -999.25      1.76      2.00     91.15     97.35      1.77      0.30
 1356.6000   1356.60     20.95     68.00   2338.00     51.70   -999.25      1.66      2.00     86.87     98.94      1.78      0.32
 1356.8000   1356.80     20.75     70.00   2317.01     51.65   -999.25      1.56      1.87     81.80    100.00      1.80      0.34
 1357.0000   1357.00     20.55     69.00   2295.00     92.98   -999.25      1.46      1.48     75.15    100.00      1.81      0.36
 1357.2000   1357.20     20.34     68.00   2386.99     56.49   -999.25      1.36      1.09     68.50    100.00      1.83      0.38
 1357.4000   1357.40     20.15     69.00   2328.01     58.52   -999.25      1.27      1.00     62.94     98.91      1.84      0.40
 1357.6000   1357.60     19.95     68.00   2340.00     82.28   -999.25      1.17      1.00     57.69     97.50      1.83      0.40
 1357.8000   1357.80     19.74     67.00   2358.00     58.35   -999.25      1.07      1.00     52.45     96.10      1.81      0.40
 1358.0000   1358.00     19.54     68.00   2370.00     47.24   -999.25      1.00      1.00     60.43     97.86      1.80      0.40
 1358.2000   1358.20     19.34     68.00   2351.00     52.02   -999.25      1.00      1.00     69.42     99.87      1.78      0.40
 1358.4000   1358.40     19.14     69.00   2367.00     42.24   -999.25      1.00      1.00     69.46     98.28      1.77      0.40
 1358.6000   1358.60     18.95     69.00   2360.00     57.97   -999.25      1.00      1.00     68.89     96.45      1.75      0.40
 1358.8000   1358.80     18.74     69.00   2338.01     64.80   -999.25      1.00      1.00     71.55     97.21      1.74      0.40
 1359.0000   1359.00     18.55     68.00   2367.00     74.53   -999.25      1.00      1.00     75.27     98.82      1.72      0.40
 1359.2000   1359.20     18.35     68.00   2367.99     50.92   -999.25      1.00      1.00     76.14     99.82      1.71      0.40
 1359.4000   1359.40     18.15     68.00   2324.01     82.57   -999.25      1.00      1.00     69.11     99.15      1.69      0.39
 1359.6000   1359.60     17.95     67.00   2320.00     69.26   -999.25      1.00      1.00     62.09     98.47      1.68      0.37
 1359.8000   1359.80     17.74     68.00   2357.99     63.68   -999.25      1.00      0.88     54.30     98.00      1.67      0.35
 1360.0000   1360.00     17.54     68.00   2318.00     65.32   -999.25      1.00      0.47     44.68     98.00      1.65      0.34
 1360.2000   1360.20     17.35     68.00   2359.00     51.16   -999.25      1.00      0.06     35.06     98.00      1.64      0.32
 1360.4000   1360.40     17.15     69.00   2368.00     51.39   -999.25      1.00      0.00     31.85     98.00      1.63      0.30
 1360.6000   1360.60     16.95     69.00   2318.00     60.35   -999.25      1.00      0.00     29.72     98.00      1.61      0.28
 1360.8000   1360.80     16.75     69.00   2334.00     56.58   -999.25      1.00      0.00     26.12     98.36      1.60      0.26
 1361.0000   1361.00     16.54     69.00   2343.00     54.80   -999.25      1.00      0.00     20.80     99.15      1.59      0.24
 1361.2000   1361.20     16.35     69.00   2310.00     77.83   -999.25      1.00      0.00     15.48     99.93      1.57      0.22
 1361.4000   1361.40     16.14     68.00   2330.00     67.10   -999.25      1.00      0.00     14.10     99.35      1.57      0.20
 1361.6000   1361.60     15.95     68.00   2352.00     62.37   -999.25      1.00      0.00     13.12     98.64      1.60      0.23
 1361.8000   1361.80     15.75     68.00   2358.00     75.15   -999.25      1.00      0.09     15.55     98.09      1.64      0.25
 1362.0000   1362.00     15.55     67.00   2367.00     75.28   -999.25      1.06      0.93     47.17     98.93      1.67      0.28
 1362.2000   1362.20     15.35     67.00   2443.01     45.26   -999.25      1.33      1.78     78.79     99.78      1.71      0.31
 1362.4000   1362.40     15.15     67.00   2473.00     39.38   -999.25      1.60      2.47     96.29    108.46      1.75      0.33
 1362.6000   1362.60     14.95     67.00   2468.00     39.70   -999.25      1.88      3.00    107.84    116.70      1.78      0.36
 1362.8000   1362.80     14.75     68.00   2451.00     45.15   -999.25      2.15      3.00    114.30    108.84      1.82      0.38
 1363.0000   1363.00     14.54     69.00   2384.00     28.34   -999.25      2.42      2.80    113.98    103.60      1.83      0.39
 1363.2000   1363.20     14.35     69.00   2322.00     71.06   -999.25      2.69      2.27    102.85    102.55      1.81      0.37
 1363.4000   1363.40     14.15     68.00   2333.00     58.82   -999.25      2.96      2.20     98.48    101.19      1.78      0.35
 1363.6000   1363.60     13.95     68.00   2350.00     61.52   -999.25      3.10      2.62    101.43     99.51      1.75      0.33
 1363.8000   1363.80     13.75     69.00   2337.00     54.02   -999.25      3.21      2.92    102.74     97.92      1.72      0.31
 1364.0000   1364.00     13.54     69.00   2312.00     71.67   -999.25      3.33      2.15     89.92     97.15      1.69      0.29
 1364.2000   1364.20     13.35     68.00   2347.01     65.12   -999.25      3.44      1.38     77.11     96.38      1.66      0.27
 1364.4000   1364.40     13.14     68.00   2375.00     50.60   -999.25      3.56      1.00     69.75     96.90      1.63      0.25
 1364.6000   1364.60     12.94     69.00   2355.00     54.05   -999.25      3.67      1.00     67.62     98.65      1.60      0.23
 1364.8000   1364.80     12.74     68.00   2378.99     59.43   -999.25      3.79      1.25     70.74     99.75      1.58      0.21
 1365.0000   1365.00     12.54     67.00   2428.00     48.62   -999.25      3.90      2.31     90.95     98.69      1.57      0.22
 1365.2000   1365.20     12.35     69.00   2405.98     31.09   -999.25      4.02      2.51     93.84     98.00      1.59      0.24
 1365.4000   1365.40     12.15     71.00   2325.01     38.56   -999.25      4.16      1.11     64.58     98.00      1.61      0.27
 1365.6000   1365.60     11.95     70.00   2383.00     42.30   -999.25      4.29      1.00     69.33     98.00      1.63      0.30
 1365.8000   1365.80     11.75     69.00   2391.00     66.39   -999.25      4.43      1.00     77.03     98.00      1.65      0.33
 1366.0000   1366.00     11.54     69.00   2365.00     51.92   -999.25      4.57      1.00     76.75     97.21      1.67      0.36
 1366.2000   1366.20     11.34     69.00   2400.01     50.15   -999.25      4.70      1.00     74.48     96.23      1.69      0.39
 1366.4000   1366.40     11.15     70.00   2426.00     27.33   -999.25      4.84      1.61     82.69     99.67      1.71      0.40
 1366.6000   1366.60     10.94     71.00   2355.00     48.15   -999.25      4.98      1.81     84.36    100.87      1.73      0.40
 1366.8000   1366.80     10.74     71.00   2341.00     64.24   -999.25      5.71      1.44     76.76     98.64      1.74      0.40
 1367.0000   1367.00     10.55     70.00   2364.00     69.87   -999.25      6.56      1.07     69.15     96.42      1.76      0.40
 1367.2000   1367.20     10.35     69.00   2404.99     49.10   -999.25      7.40      1.00     61.14     97.48      1.78      0.40
 1367.4000   1367.40     10.15     70.00   2382.00     55.57   -999.25      8.24      1.00     53.04     99.31      1.79      0.40
 1367.6000   1367.60      9.95     70.00   2374.00     54.19   -999.25      9.09      0.70     42.28     99.39      1.81      0.40
 1367.8000   1367.80      9.75     72.00   2386.00     52.48   -999.25      9.93      0.21     29.92     98.43      1.83      0.40
 1368.0000   1368.00      9.54     72.00   2385.00     52.17   -999.25     10.78      0.00     20.45     98.85      1.84      0.40
 1368.2000   1368.20      9.35     71.00   2393.99     27.64   -999.25     11.62      0.00     14.47     99.82      1.90      0.40
 1368.4000   1368.40      9.15     71.00   2364.00     61.88   -999.25     11.35      0.00     12.33     99.08      1.97      0.40
