~Version Information
VERS.                       2.00: SCHLUMBERGER LAS - Version 2.00
WRAP.                         NO: One line per depth step
~Well Information
STRT.M                 1195.0000: Start Depth
STOP.M                 1544.0000: End Depth
STEP.M                    0.2000:  
NULL.                    -999.25:  
COMP.                    Bapetco: COMPANY
WELL.                  BED-15-13: WELL
FLD .                        BED: FLD
SRVC.               Schlumberger: SERVICE COMPANY
LOC .                           : LOCATION
DATE.                  29-Jul-20: LOG DATE
UWI .                  20EGP0554: API NUMBER
~Curve Information
DEPT.M                          : MWD Tool Measurement Depth
BDEP.M                          : Bit Depth
KPOSI.M                          : Kelly Position (Raw)
HKL .KLBF                       : Hook Load
SPP .PSI                        : Standpipe Pressure
ROP .M/HR                       : Rate of Penetration (MWD Depth Ave.)
PSPD.M/MIN                      : Instantaneous Pipe Speed
VIBC.CPS                        : Vibration Count
SSL_H.                           : Stick Slip Level from HDS1
SSS_H.                           : Stick Slip Percentage from HDS1
RPM_H.                           : Average RPM from HDS1
VIBXYH.                           : Vibration XY
VIBZH.                           : Vibration Z
#     DEPT      BDEP     KPOSI       HKL       SPP       ROP      PSPD      VIBC     SSL_H     SSS_H     RPM_H    VIBXYH     VIBZH
#        M         M         M      KLBF       PSI      M/HR     M/MIN       CPS                                                  
#
# Relog Number     0         0         0         0         0         0         0         0         0         0         0         0
#
~ASCII Data
# ...
 1418.2000   1418.20     17.62     69.00   2471.99     40.04   -999.25      4.40      3.00    102.91     98.10      1.77      0.40
 1418.4000   1418.40     17.42     69.00   2447.00     38.12   -999.25      3.97      3.00    104.65     98.00      1.75      0.40
 1418.6000   1418.60     17.22     70.00   2427.01     49.92   -999.25      3.53      2.90    105.42     98.00      1.73      0.40
 1418.8000   1418.80     17.02     69.00   2474.99     33.92   -999.25      3.09      2.25    100.75     98.00      1.70      0.40
 1419.0000   1419.00     16.82     69.00   2447.00     37.52   -999.25      2.65      2.37     99.73     98.74      1.71      0.40
 1419.2000   1419.20     16.62     69.00   2441.00     43.20   -999.25      2.22      2.97    100.94     99.94      1.74      0.40
 1419.4000   1419.40     16.42     69.00   2442.00     48.90   -999.25      2.27      2.49     99.97     98.98      1.76      0.40
 1419.6000   1419.60     16.21     69.00   2464.00     38.65   -999.25      2.81      2.07     99.20     98.00      1.79      0.40
 1419.8000   1419.80     16.02     70.00   2446.00     28.92   -999.25      3.35      2.92    101.78     98.00      1.81      0.40
 1420.0000   1420.00     15.82     71.00   2411.00     25.27   -999.25      3.88      3.00    102.85     98.00      1.84      0.40
 1420.2000   1420.20     15.61     70.00   2440.00     45.12   -999.25      4.42      2.52    101.09     98.00      1.84      0.40
 1420.4000   1420.40     15.42     69.00   2460.00     35.45   -999.25      4.96      2.13     99.63     98.00      1.84      0.40
 1420.6000   1420.60     15.22     70.00   2415.00     30.38   -999.25      5.00      2.81    103.12     98.00      1.84      0.40
 1420.8000   1420.80     15.02     70.00   2442.99     39.92   -999.25      5.00      3.00    101.62     98.00      1.84      0.40
 1421.0000   1421.00     14.82     70.00   2451.00     34.21   -999.25      5.00      3.00    101.55     98.00      1.84      0.40
 1421.2000   1421.20     14.62     69.00   2418.01     36.04   -999.25      5.00      3.00    104.50     98.00      1.84      0.40
 1421.4000   1421.40     14.42     69.00   2454.00     32.20   -999.25      5.00      3.00    105.63     99.18      1.82      0.40
 1421.6000   1421.60     14.22     70.00   2439.00     32.98   -999.25      5.03      3.00    104.78     99.38      1.78      0.40
 1421.8000   1421.80     14.02     70.00   2427.00     36.13   -999.25      5.24      3.00    102.07     98.01      1.75      0.40
 1422.0000   1422.00     13.82     72.00   2389.00     14.16   -999.25      5.45      2.74    107.06     98.52      1.72      0.40
 1422.2000   1422.20     13.62     71.00   2377.02     60.20   -999.25      5.65      1.80     86.38     99.59      1.71      0.40
 1422.4000   1422.40     13.41     70.00   2451.99     38.56   -999.25      5.86      1.28     56.99     98.57      1.73      0.40
 1422.6000   1422.60     13.21     69.00   2466.00     41.10   -999.25      6.10      0.68     35.97     98.00      1.75      0.40
 1422.8000   1422.80     13.02     70.00   2460.00     31.41   -999.25      6.40      0.04     26.73     98.04      1.77      0.40
 1423.0000   1423.00     12.82     70.00   2442.00     46.58   -999.25      6.70      1.23     66.89     99.23      1.80      0.40
 1423.2000   1423.20     12.61     70.00   2465.00     34.21   -999.25      6.99      2.23     95.29    100.00      1.82      0.40
 1423.4000   1423.40     12.42     70.00   2447.00     42.73   -999.25      7.29      2.88    101.82    100.00      1.84      0.40
 1423.6000   1423.60     12.22     69.00   2443.00     46.53   -999.25      7.59      3.00    102.60     99.16      1.83      0.40
 1423.8000   1423.80     12.01     70.00   2443.00     48.57   -999.25      7.89      3.00    102.10     98.13      1.81      0.40
 1424.0000   1424.00     11.82     69.00   2476.00     41.33   -999.25      7.74      2.52    100.56     98.00      1.79      0.40
 1424.2000   1424.20     11.62     69.00   2495.00     43.64   -999.25      7.33      2.04     99.20     97.91      1.76      0.40
 1424.4000   1424.40     11.42     69.00   2504.00     34.04   -999.25      6.91      2.71    102.66     96.58      1.74      0.40
 1424.6000   1424.60     11.22     69.00   2496.00     37.42   -999.25      6.50      3.00    104.14     96.63      1.72      0.40
 1424.8000   1424.80     11.02     70.00   2501.00     45.64   -999.25      6.08      3.00    104.09     97.74      1.70      0.40
 1425.0000   1425.00     10.81     70.00   2472.00     46.55   -999.25      5.67      2.60    100.05     98.80      1.73      0.40
 1425.2000   1425.20     10.61     70.00   2473.01     48.31   -999.25      5.25      2.08     94.79     99.84      1.77      0.40
 1425.4000   1425.40     10.42     69.00   2501.00     45.68   -999.25      5.44      2.00     96.08     98.95      1.81      0.40
 1425.6000   1425.60     10.21     69.00   2508.00     34.21   -999.25      6.57      2.15     99.76     98.00      1.85      0.40
 1425.8000   1425.80     10.02     70.00   2474.01     40.97   -999.25      7.69      2.77    107.44     98.00      1.89      0.40
 1426.0000   1426.00      9.82     69.00   2493.00     41.14   -999.25      8.81      3.00    107.31     98.00      1.92      0.40
 1426.2000   1426.20      9.62     70.00   2487.00     48.57   -999.25      9.94      3.00    102.80     98.00      1.96      0.40
 1426.4000   1426.40      9.41     69.00   2472.00     47.64   -999.25     11.06      2.70    100.42     98.59      2.01      0.40
 1426.6000   1426.60      9.21     69.00   2466.00     50.03   -999.25     12.19      2.22     99.43     99.57      2.07      0.40
 1426.8000   1426.80      9.01     69.00   2478.00     44.91   -999.25     12.67      2.32     99.64     99.37      2.13      0.40
 1427.0000   1427.00      8.82     70.00   2465.00     41.92   -999.25     11.49      2.88    100.79     98.23      2.18      0.40
 1427.2000   1427.20      8.62     70.00   2459.99     31.69   -999.25     10.30      3.00    101.02     98.00      2.24      0.40
 1427.4000   1427.40      8.42     70.00   2417.01     61.64   -999.25      9.11      3.00    101.27     98.00      2.30      0.40
 1427.6000   1427.60      8.22     69.00   2440.99     49.45   -999.25      7.92      3.00    103.68     98.00      2.35      0.40
 1427.8000   1427.80      8.02     70.00   2400.01     53.65   -999.25      6.73      3.00    106.10     98.00      2.41      0.40
 1428.0000   1428.00      7.82     69.00   2451.00     55.51   -999.25      5.54      2.51    101.08     98.00      2.33      0.40
 1428.2000   1428.20      7.62     69.00   2486.00     42.55   -999.25      4.36      2.01     96.00     98.00      2.25      0.40
 1428.4000   1428.40      7.41     69.00   2486.00     38.07   -999.25      4.11      2.61     99.69     96.78      2.17      0.40
 1428.6000   1428.60      7.22     69.00   2465.00     39.67   -999.25      4.26      3.00    102.07     96.41      2.10      0.40
 1428.8000   1428.80      7.02     69.00   2476.00     45.79   -999.25      4.41      3.00    102.05     97.51      2.02      0.40
 1429.0000   1429.00      6.82     69.00   2447.00     49.45   -999.25      4.56      3.00    101.40     98.00      1.94      0.40
 1429.2000   1429.20      6.62     69.00   2446.01     39.86   -999.25      4.71      3.00    100.25     98.00      1.86      0.40
 1429.4000   1429.40      6.41     69.00   2491.99     40.70   -999.25      4.86      3.00    101.20     96.85      1.82      0.37
 1429.6000   1429.60      6.22     70.00   2468.99     28.34   -999.25      5.00      3.00    102.32     97.04      1.80      0.34
 1429.8000   1429.80      6.01     70.00   2417.01     40.01   -999.25      5.00      3.00    102.88     99.50      1.78      0.31
 1430.0000   1430.00      5.82     71.00   2410.00     34.69   -999.25      5.00      2.42     96.64    100.00      1.75      0.28
 1430.2000   1430.20      5.62     71.00   2418.00     32.88   -999.25      5.00      1.76     86.64    100.00      1.73      0.24
 1430.4000   1430.40      5.42     71.00   2413.00     43.09   -999.25      5.00      1.18     73.89    100.00      1.70      0.21
