~Version Information
VERS.                       2.00: SCHLUMBERGER LAS - Version 2.00
WRAP.                         NO: One line per depth step
~Well Information
STRT.M                 1544.0000: Start Depth
STOP.M                 1580.0000: End Depth
STEP.M                    0.2000:  
NULL.                    -999.25:  
COMP.                    Bapetco: COMPANY
WELL.                  BED-15-13: WELL
FLD .                        BED: FLD
SRVC.               Schlumberger: SERVICE COMPANY
LOC .                           : LOCATION
DATE.                  29-Jul-20: LOG DATE
UWI .                  20EGP0554: API NUMBER
~Curve Information
DEPT.M                          : MWD Tool Measurement Depth
BDEP.M                          : Bit Depth
KPOSI.M                          : Kelly Position (Raw)
HKL .KLBF                       : Hook Load
SPP .PSI                        : Standpipe Pressure
ROP .M/HR                       : Rate of Penetration (MWD Depth Ave.)
PSPD.M/MIN                      : Instantaneous Pipe Speed
VIBC.CPS                        : Vibration Count
SSL_H.                           : Stick Slip Level from HDS1
SSS_H.                           : Stick Slip Percentage from HDS1
RPM_H.                           : Average RPM from HDS1
VIBXYH.                           : Vibration XY
VIBZH.                           : Vibration Z
#     DEPT      BDEP     KPOSI       HKL       SPP       ROP      PSPD      VIBC     SSL_H     SSS_H     RPM_H    VIBXYH     VIBZH
#        M         M         M      KLBF       PSI      M/HR     M/MIN       CPS                                                  
#
# Relog Number     0         0         0         0         0         0         0         0         0         0         0         0
#
~ASCII Data
# ...
 1568.8000   1568.80     11.31     72.00   1530.00     12.04   -999.25     15.25      3.00    122.31     77.55      3.21      0.79
 1569.0000   1569.00     11.10     72.00   1519.00      5.76   -999.25     23.86      3.00    140.49     81.03      2.33      0.61
 1569.2000   1569.20     10.91     73.00   1521.99      7.52   -999.25     19.93      3.00    114.34     79.49      2.73      0.60
 1569.4000   1569.40     10.71     73.00   1488.00      8.15   -999.25     12.67      3.00    113.10     77.81      2.70      0.69
 1569.6000   1569.60     10.51     71.00   1541.00      8.55   -999.25     12.04      3.00    137.11     96.00      2.59      0.82
 1569.8000   1569.80     10.31     72.00   1550.00      9.69   -999.25     14.71      3.00    119.67    109.74      3.04      1.08
 1570.0000   1570.00     10.11     72.00   1516.00      4.73   -999.25     17.18      3.00    127.92     80.00      2.50      0.66
 1570.2000   1570.20      9.91     72.00   1539.00      9.63   -999.25     26.44      3.00    113.71     80.24      2.32      0.40
 1570.4000   1570.40      9.71     73.00   1531.00      4.28   -999.25     15.64      3.00    120.02     83.09      2.41      0.58
 1570.6000   1570.60      9.51     74.00   1506.01     19.56   -999.25     27.80      3.00    124.92     80.01      2.49      0.60
 1570.8000   1570.80      9.31     72.00   1564.99      6.41   -999.25     42.56      3.00    114.96    101.44      2.66      0.71
 1571.0000   1571.00      9.11     72.00   1547.00      6.00   -999.25     55.56      3.00    112.30    104.00      3.17      1.20
 1571.2000   1571.20      8.91     72.00   1572.00     10.49   -999.25     46.75      3.00    121.85    109.76      3.46      1.20
 1571.4000   1571.40      8.71     72.00   1574.00     10.34   -999.25     29.18      3.00    113.46    105.61      3.38      0.98
 1571.6000   1571.60      8.51     72.00   1514.00      5.68   -999.25     20.80      3.00    124.84     83.52      3.01      0.80
 1571.8000   1571.80      8.31     72.00   1543.99      8.19   -999.25     26.95      3.00    122.47    101.81      2.73      0.80
 1572.0000   1572.00      8.11     72.00   1584.00      7.54   -999.25     22.07      3.00    135.55     78.27      2.83      0.80
 1572.2000   1572.20      7.91     74.00   1454.02      3.38   -999.25     29.16      0.21     26.89     78.69      2.89      0.71
 1572.4000   1572.40      7.71     72.00   1549.99     12.33   -999.25     36.43      3.00    128.55    100.52      2.96      0.62
 1572.6000   1572.60      7.51     72.00   1535.00      7.01   -999.25     29.06      3.00    117.66     76.36      2.79      0.60
 1572.8000   1572.80      7.31     72.00   1511.01      7.62   -999.25     54.56      3.00    126.12     82.00      3.22      1.05
 1573.0000   1573.00      7.11     72.00   1619.00      4.76   -999.25     66.42      3.00    135.18    118.47      3.87      1.47
 1573.2000   1573.20      6.91     72.00   1616.00     11.89   -999.25     45.07      3.00    126.79     93.82      3.99      1.39
 1573.4000   1573.40      6.71     73.00   1607.00      7.50   -999.25     34.53      3.00    151.26    115.31      3.80      1.03
 1573.6000   1573.60      6.51     72.00   1684.99      8.62   -999.25     62.73      3.00    145.33    117.63      3.64      0.74
 1573.8000   1573.80      6.31     72.00   1593.02      6.14   -999.25     40.62      3.00    124.57     81.90      3.66      0.63
 1574.0000   1574.00      6.11     71.00   1649.00      4.71   -999.25    103.01      3.00    131.48     77.42      4.29      1.38
 1574.2000   1574.20      5.91     71.00   1618.99      3.12   -999.25    151.22      3.00    144.79    121.48      5.83      1.78
 1574.4000   1574.40      5.71     71.00   1581.00      7.22   -999.25    100.31      3.00    114.38    118.49      6.22      1.20
 1574.6000   1574.60      5.51     70.00   1599.01      5.24   -999.25    158.93      3.00    134.30    131.85      5.93      1.39
 1574.8000   1574.80      5.31     70.00   1657.99      5.48   -999.25    167.93      3.00    147.48    132.44      6.69      1.41
 1575.0000   1575.00      5.11     71.00   1623.00      3.95   -999.25    145.76      3.00    141.62    124.56      5.58      1.44
 1575.2000   1575.20      4.91     71.00   1672.00      5.28   -999.25    130.40      3.00    135.88    134.87      6.94      1.95
 1575.4000   1575.40      4.71     71.00   1688.00      7.33   -999.25     26.59      3.00    148.20    123.58      5.87      1.24
 1575.6000   1575.60      4.51     71.00   1563.99      4.94   -999.25     84.46      3.00    153.38     93.00      4.30      0.87
 1575.8000   1575.80      4.31     70.00   1451.03      4.09   -999.25     82.90      3.00    143.03    118.97      4.35      1.00
 1576.0000   1576.00      4.10     70.00   1672.00      3.20   -999.25     95.14      3.00    150.75    100.54      4.92      1.58
 1576.2000   1576.20      3.91     70.00   1684.99      4.62   -999.25     82.35      3.00    152.98     90.09      4.75      1.27
 1576.4000   1576.40      3.71     70.00   1659.00      2.20   -999.25    114.04      3.00    127.00    107.25      5.10      1.32
 1576.6000   1576.60      3.51     70.00   1700.00      3.04   -999.25    144.99      3.00    148.84     86.01      6.40      1.20
 1576.8000   1576.80      3.31     70.00   1713.00      2.73   -999.25    113.97      3.00    150.13    105.39      5.14      1.49
 1577.0000   1577.00      3.11     70.00   1673.00      2.05   -999.25    104.92      3.00    134.62    101.12      5.09      1.20
 1577.2000   1577.20      2.91     71.00   1736.99      2.77   -999.25    100.69      3.00    150.35     91.08      5.18      1.41
 1577.4000   1577.40      2.71     71.00   1697.00      3.02   -999.25    119.71      3.00    184.76     84.09      6.22      1.75
 1577.6000   1577.60      2.51     70.00   1732.00      3.38   -999.25     88.37      3.00    151.76     94.74      5.38      1.40
 1577.8000   1577.80      2.31     72.00   1729.00      2.62   -999.25    102.09      3.00    172.59     87.37      6.11      1.40
 1578.0000   1578.00      2.11     71.00   1775.00      5.68   -999.25    100.00      3.00    185.31     87.28      5.41      1.60
 1578.2000   1578.20      1.91     71.00   1802.00      3.47   -999.25     38.70      3.00    190.58     92.45      4.98      1.03
 1578.4000   1578.40      1.70     70.00   1795.00      4.90   -999.25     79.06      3.00    192.19     80.82      4.55      1.58
 1578.6000   1578.60      1.50     72.00   1803.90      0.71   -999.25     49.03      3.00    217.10     77.18      4.41      1.20
 1578.8000   1578.80     29.96     72.00   1012.19      1.19   -999.25     64.00      3.00    188.23     87.76      4.35      1.07
 1579.0000   1579.00     29.76     71.00   1795.00      0.81   -999.25     99.48      2.00     94.74     76.00      4.10      1.20
 1579.2000   1579.20     29.56     71.00   1766.99      1.18   -999.25     91.75      3.00    217.21     69.16      4.61      1.14
 1579.4000   1579.40     29.58     71.00   1732.49      2.71   -999.25     25.47      3.00    222.39     76.42      5.83      1.75
 1579.6000   1579.60     29.85     71.00   1698.00      4.23   -999.25     82.71      3.00    155.05     87.19      6.48      2.09
 1579.8000   1579.80     29.66     72.00   1704.50      2.29   -999.25     79.86      2.57    108.75     60.49      6.59      2.18
 1580.0000   1580.00     29.46     73.00   1711.00      0.35   -999.25     75.14      1.05     90.64     78.00      4.21      1.06
