~Version Information
VERS.                       2.00: SCHLUMBERGER LAS - Version 2.00
WRAP.                         NO: One line per depth step
~Well Information
STRT.M                 1544.0000: Start Depth
STOP.M                 1580.0000: End Depth
STEP.M                    0.2000:  
NULL.                    -999.25:  
COMP.                    Bapetco: COMPANY
WELL.                  BED-15-13: WELL
FLD .                        BED: FLD
SRVC.               Schlumberger: SERVICE COMPANY
LOC .                           : LOCATION
DATE.                  29-Jul-20: LOG DATE
UWI .                  20EGP0554: API NUMBER
~Curve Information
DEPT.M                          : MWD Tool Measurement Depth
BDEP.M                          : Bit Depth
KPOSI.M                          : Kelly Position (Raw)
HKL .KLBF                       : Hook Load
SPP .PSI                        : Standpipe Pressure
ROP .M/HR                       : Rate of Penetration (MWD Depth Ave.)
PSPD.M/MIN                      : Instantaneous Pipe Speed
VIBC.CPS                        : Vibration Count
SSL_H.                           : Stick Slip Level from HDS1
SSS_H.                           : Stick Slip Percentage from HDS1
RPM_H.                           : Average RPM from HDS1
VIBXYH.                           : Vibration XY
VIBZH.                           : Vibration Z
#     DEPT      BDEP     KPOSI       HKL       SPP       ROP      PSPD      VIBC     SSL_H     SSS_H     RPM_H    VIBXYH     VIBZH
#        M         M         M      KLBF       PSI      M/HR     M/MIN       CPS                                                  
#
# Relog Number     0         0         0         0         0         0         0         0         0         0         0         0
#
~ASCII Data
 1544.0000   1544.00      7.01     70.00   2625.00      3.70   -999.25    355.92      0.00      9.47     76.00     12.13      3.77
 1544.2000   1544.20      6.81     70.00   2605.94      2.27   -999.25    185.19      2.22    116.39     71.57     12.00      3.90
 1544.4000   1544.40      6.66     71.40   2376.14      2.03   -999.25     65.79      2.82    182.69     70.02     10.85      3.41
 1544.6000   1544.60      6.62     72.80   2146.34      1.80   -999.25     45.95      2.24    149.19     57.37      8.26      2.52
 1544.8000   1544.80      6.57     74.20   1916.54      1.56   -999.25     26.11      1.67    115.69     44.73      5.67      1.62
 1545.0000   1545.00      6.53     75.60   1686.74      1.33   -999.25      6.27      1.09     82.19     32.08      3.08      0.72
 1545.2000   1545.20      6.33     77.00   1457.01      1.09   -999.25      4.06      1.70     86.04     30.00      1.56      0.31
 1545.4000   1545.40      6.13     76.00   1491.00     11.93   -999.25      5.35      2.00     82.71     28.96      1.56      0.56
 1545.6000   1545.60      5.93     76.00   1505.00     23.80   -999.25      6.70      2.67    125.85     30.00      1.56      0.80
 1545.8000   1545.80      5.73     76.00   1498.00     18.36   -999.25      8.06      2.30    107.37     31.40      1.62      0.88
 1546.0000   1546.00      5.53     76.00   1463.00     16.68   -999.25      8.70      1.39     88.18     29.61      1.67      0.96
 1546.2000   1546.20      5.33     75.00   1503.01     12.11   -999.25      7.72      2.36    103.08     29.27      1.72      1.00
 1546.4000   1546.40      5.13     76.00   1549.99     23.63   -999.25      6.74      3.00    121.28     28.73      1.77      1.00
 1546.6000   1546.60      4.93     76.00   1490.00     19.83   -999.25      5.81      3.00    122.18     30.00      1.82      1.00
 1546.8000   1546.80      4.73     75.00   1489.00     16.86   -999.25      5.02      1.72     81.00     30.00      1.84      1.00
 1547.0000   1547.00      4.53     75.00   1559.00     41.05   -999.25      4.23      1.00     60.44     49.42      1.84      1.00
 1547.2000   1547.20      4.33     75.00   1566.99     48.11   -999.25      3.44      1.00     51.67     76.77      1.84      1.00
 1547.4000   1547.40      4.13     76.00   1516.01     32.54   -999.25      2.65      1.57     73.22     79.13      1.84      1.00
 1547.6000   1547.60      3.93     75.00   1505.00     31.05   -999.25      1.98      1.76     80.27     79.51      1.84      1.00
 1547.8000   1547.80      3.73     75.00   1498.00     29.85   -999.25      1.83      1.00     51.16     78.54      1.84      1.00
 1548.0000   1548.00      3.53     75.00   1485.00     33.28   -999.25      1.69      1.00     58.39     81.93      1.82      1.00
 1548.2000   1548.20      3.33     75.00   1504.00     57.91   -999.25      1.54      1.00     62.61     80.48      1.80      1.00
 1548.4000   1548.40      3.13     75.00   1508.00     68.12   -999.25      1.40      1.00     66.76     78.92      1.78      1.00
 1548.6000   1548.60      2.93     75.00   1490.00     62.73   -999.25      1.26      1.00     64.57     78.00      1.76      1.00
 1548.8000   1548.80      2.73     74.00   1523.99     42.45   -999.25      1.11      1.00     53.06     78.00      1.74      1.00
 1549.0000   1549.00      2.53     75.00   1565.00     45.79   -999.25      1.08      1.54     70.93     78.00      1.72      1.00
 1549.2000   1549.20      2.33     76.00   1465.00     18.31   -999.25      1.46      1.30     67.92     80.79      1.70      0.99
 1549.4000   1549.40      2.13     76.00   1465.00     16.74   -999.25      1.84      0.05     40.56     78.19      1.70      0.90
 1549.6000   1549.60      1.93     76.00   1453.98     10.05   -999.25      1.71      0.00     33.25     78.47      1.70      0.81
 1549.8000   1549.80      1.73     76.00   1298.04     10.66   -999.25      1.22      0.68     55.36     67.77      1.70      0.80
 1550.0000   1550.00      1.53     76.00   1293.00     28.63   -999.25      6.00      1.00     64.70     60.98      1.70      0.80
 1550.2000   1550.20     29.90     77.00   1452.01      3.06   -999.25     12.12      1.00     61.06     62.32      1.71      0.80
 1550.4000   1550.40     29.71     76.00   1479.00     72.10   -999.25      8.01      1.00     54.67     68.84      1.76      0.80
 1550.6000   1550.60     29.51     75.00   1579.98     44.56   -999.25      3.91      1.00     48.28     75.37      1.81      0.80
 1550.8000   1550.80     29.31     77.00   1433.04      8.67   -999.25      1.00      1.00     47.25     79.07      1.83      0.83
 1551.0000   1551.00     29.10     77.00   1443.00     16.11   -999.25      1.00      1.20     59.27     79.21      1.79      0.95
 1551.2000   1551.20     28.90     75.00   1501.01     29.92   -999.25      1.00      1.87     78.02     76.51      1.75      1.06
 1551.4000   1551.40     28.71     75.00   1549.99     31.07   -999.25      1.00      1.27     76.76     78.93      1.71      1.17
 1551.6000   1551.60     28.51     76.00   1536.00     30.03   -999.25      1.23      1.00     67.07     81.37      1.67      1.16
 1551.8000   1551.80     28.31     77.00   1497.01     20.40   -999.25      2.45      1.00     70.89     78.52      1.64      1.12
 1552.0000   1552.00     28.11     76.00   1502.00     27.10   -999.25      3.67      1.00     63.94     77.88      1.61      1.07
 1552.2000   1552.20     27.90     76.00   1489.00     20.39   -999.25      4.89      1.69     75.36     79.31      1.58      1.03
 1552.4000   1552.40     27.71     76.00   1496.00     17.16   -999.25      5.93      1.13     80.65     81.73      1.58      0.98
 1552.6000   1552.60     27.51     75.00   1482.00     60.23   -999.25      5.14      2.82    113.25     78.35      1.61      0.93
 1552.8000   1552.80     27.31     76.00   1501.00     16.14   -999.25      4.35      1.02     63.75     76.02      1.64      0.88
 1553.0000   1553.00     27.11     76.00   1503.00     37.05   -999.25      3.56      2.25     94.27     77.25      1.68      0.83
 1553.2000   1553.20     26.91     76.00   1560.00     28.47   -999.25      2.87      3.00    117.12     78.71      1.69      0.81
 1553.4000   1553.40     26.71     75.00   1566.00     38.90   -999.25      2.45      3.00    123.23     79.80      1.67      0.84
 1553.6000   1553.60     26.51     74.00   1586.00     70.66   -999.25      2.02      3.00    116.17     78.98      1.65      0.87
 1553.8000   1553.80     26.31     74.00   1609.99     58.79   -999.25      1.60      3.00    109.10     78.16      1.63      0.90
 1554.0000   1554.00     26.11     75.00   1605.00     52.92   -999.25      1.17      3.00    109.42     78.72      1.61      0.93
 1554.2000   1554.20     25.91     73.00   1612.00     50.76   -999.25      0.75      3.00    111.58     79.62      1.59      0.96
 1554.4000   1554.40     25.71     75.00   1619.00     39.16   -999.25      0.32      2.35     97.80     80.00      1.57      0.99
 1554.6000   1554.60     25.51     76.00   1515.02     21.92   -999.25      0.00      2.38    100.53     79.25      1.56      1.02
 1554.8000   1554.80     25.31     74.00   1645.97     64.03   -999.25      0.00      2.92    115.68     78.16      1.56      1.04
 1555.0000   1555.00     25.10     73.00   1592.00     59.95   -999.25      0.00      3.00    116.68     77.27      1.56      1.07
 1555.2000   1555.20     24.91     73.00   1718.00     54.15   -999.25      0.00      3.00    115.19     76.42      1.56      1.10
 1555.4000   1555.40     24.71     74.00   1708.00     56.82   -999.25      0.00      3.00    112.79     77.41      1.56      1.12
 1555.6000   1555.60     24.51     75.00   1646.99     44.58   -999.25      0.00      3.00    109.52     80.15      1.56      1.15
 1555.8000   1555.80     24.30     74.00   1605.01     48.08   -999.25      0.00      3.00    111.41     81.11      1.56      1.17
 1556.0000   1556.00     24.11     74.00   1644.00     32.21   -999.25      0.00      3.00    124.00     78.36      1.56      1.20
 1556.2000   1556.20     23.91     74.00   1569.01     79.19   -999.25      0.00      3.00    127.79     78.00      1.53      1.20
