~Version Information
VERS.                       2.00: SCHLUMBERGER LAS - Version 2.00
WRAP.                         NO: One line per depth step
~Well Information
STRT.M                 1790.0000: Start Depth
STOP.M                 3303.0000: End Depth
STEP.M                    0.2000:  
NULL.                    -999.25:  
COMP.                    Bapetco: COMPANY
WELL.                  BED-15-13: WELL
FLD .                        BED: FLD
SRVC.               Schlumberger: SERVICE COMPANY
LOC .                           : LOCATION
DATE.                  05-Aug-20: LOG DATE
UWI .                  20EGP0554: API NUMBER
~Curve Information
DEPT.M                          : MWD Tool Measurement Depth
BDEP.M                          : Bit Depth
KPOSI.M                          : Kelly Position (Raw)
HKL .KLBF                       : Hook Load
SPP .PSI                        : Standpipe Pressure
ROP .M/HR                       : Rate of Penetration (MWD Depth Ave.)
PSPD.FT/MIN                     : Instantaneous Pipe Speed
VIBC.CPS                        : Vibration Count
SSS_H.                           : Stick Slip Percentage from HDS1
SSL_H.                           : Stick Slip Level from HDS1
RPMMX_H.                           : Maximum RPM from HDS1
TNR .                           : Time Not Rotating from HDS1
PTNR.                           : Percentage Time Not Rotating from HDS1
RPM_H.                           : Average RPM from HDS1
RPMMX_H.                           : Maximum RPM from HDS1
DRPM_H.                           : Differential RPM from HDS1
VIBXH.                           : Vibration X
VIBYH.                           : Vibration Y
VIBZH.                           : Vibration Z
TEMPH.DEG C                      : Temperature from JTDAS Tool
#     DEPT      BDEP     KPOSI       HKL       SPP       ROP      PSPD      VIBC     SSS_H     SSL_H   RPMMX_H       TNR      PTNR     RPM_H   RPMMX_H    DRPM_H     VIBXH     VIBYH     VIBZH     TEMPH
#        M         M         M      KLBF       PSI      M/HR    FT/MIN       CPS                                                                                                                   DEG C
#
# Relog Number     0         0         0         0         0         0         0         0         0         0         0         0         0         0         0         0         0         0         0
#
~ASCII Data
# ...
 3166.0000   3166.00     29.37     86.00   2520.00     67.44   -999.25     26.68   -999.25   -999.25   -999.25   -999.25   -999.25   -999.25   -999.25   -999.25      1.40      1.51      1.00     80.00
 3166.2000   3166.20     29.16     84.00   2612.00     37.69   -999.25     28.55   -999.25   -999.25   -999.25   -999.25   -999.25   -999.25   -999.25   -999.25      1.40      1.58      1.00     80.00
 3166.4000   3166.40     28.97     84.00   2617.01     13.78   -999.25     31.78   -999.25   -999.25   -999.25   -999.25   -999.25   -999.25   -999.25   -999.25      1.54      1.67      1.00     80.00
 3166.6000   3166.60     28.77     84.00   2633.99     15.78   -999.25     35.45   -999.25   -999.25   -999.25   -999.25   -999.25   -999.25   -999.25   -999.25      1.71      1.76      1.00     80.00
 3166.8000   3166.80     28.57     84.00   2633.00     16.06   -999.25     39.00   -999.25   -999.25   -999.25   -999.25   -999.25   -999.25   -999.25   -999.25      1.76      1.80      1.00     80.00
 3167.0000   3167.00     28.36     84.00   2634.00     11.88   -999.25     39.00   -999.25   -999.25   -999.25   -999.25   -999.25   -999.25   -999.25   -999.25      1.68      1.80      1.00     80.00
 3167.2000   3167.20     28.17     84.00   2639.99     32.07   -999.25     39.00   -999.25   -999.25   -999.25   -999.25   -999.25   -999.25   -999.25   -999.25      1.60      1.80      1.00     80.00
 3167.4000   3167.40     27.96     84.00   2619.00     11.45   -999.25     37.72   -999.25   -999.25   -999.25   -999.25   -999.25   -999.25   -999.25   -999.25      1.67      1.80      1.00     80.00
 3167.6000   3167.60     27.77     84.00   2623.00     13.11   -999.25     36.24   -999.25   -999.25   -999.25   -999.25   -999.25   -999.25   -999.25   -999.25      1.74      1.80      1.00     80.00
 3167.8000   3167.80     27.56     83.00   2625.00     26.43   -999.25     34.76   -999.25   -999.25   -999.25   -999.25   -999.25   -999.25   -999.25   -999.25      1.79      1.80      1.00     80.00
 3168.0000   3168.00     27.36     83.00   2658.00     14.53   -999.25     29.47   -999.25   -999.25   -999.25   -999.25   -999.25   -999.25   -999.25   -999.25      1.68      1.80      1.00     80.00
 3168.2000   3168.20     27.16     86.00   2715.96     21.22   -999.25     20.22   -999.25   -999.25   -999.25   -999.25   -999.25   -999.25   -999.25   -999.25      1.57      1.80      1.00     80.00
 3168.4000   3168.40     26.96     89.00   2568.98     39.25   -999.25     10.96   -999.25   -999.25   -999.25   -999.25   -999.25   -999.25   -999.25   -999.25      1.47      1.80      1.00     80.00
 3168.6000   3168.60     26.77     90.00   2533.02     28.03   -999.25      1.71   -999.25   -999.25   -999.25   -999.25   -999.25   -999.25   -999.25   -999.25      1.39      1.76      0.98     80.00
 3168.8000   3168.80     26.57     90.00   2511.01     29.74   -999.25      0.00   -999.25   -999.25   -999.25   -999.25   -999.25   -999.25   -999.25   -999.25      1.35      1.66      0.91     80.00
 3169.0000   3169.00     26.36     90.00   2515.00     32.56   -999.25      0.00   -999.25   -999.25   -999.25   -999.25   -999.25   -999.25   -999.25   -999.25      1.32      1.56      0.84     80.00
 3169.2000   3169.20     26.17     90.00   2516.00     35.68   -999.25      0.00   -999.25   -999.25   -999.25   -999.25   -999.25   -999.25   -999.25   -999.25      1.28      1.45      0.77     80.00
 3169.4000   3169.40     25.96     89.00   2533.00     41.57   -999.25      0.00   -999.25   -999.25   -999.25   -999.25   -999.25   -999.25   -999.25   -999.25      1.25      1.35      0.70     80.00
 3169.6000   3169.60     25.77     90.00   2535.00     41.94   -999.25      0.00   -999.25   -999.25   -999.25   -999.25   -999.25   -999.25   -999.25   -999.25      1.22      1.25      0.63     80.00
 3169.8000   3169.80     25.57     90.00   2535.00     40.22   -999.25      0.00   -999.25   -999.25   -999.25   -999.25   -999.25   -999.25   -999.25   -999.25      1.18      1.20      0.64     80.00
 3170.0000   3170.00     25.37     89.00   2529.00     42.60   -999.25      0.00   -999.25   -999.25   -999.25   -999.25   -999.25   -999.25   -999.25   -999.25      1.13      1.20      0.73     80.00
 3170.2000   3170.20     25.16     88.00   2525.01     34.49   -999.25      0.00   -999.25   -999.25   -999.25   -999.25   -999.25   -999.25   -999.25   -999.25      1.09      1.20      0.82     80.00
 3170.4000   3170.40     24.97     87.00   2550.04     19.41   -999.25      0.00   -999.25   -999.25   -999.25   -999.25   -999.25   -999.25   -999.25   -999.25      1.05      1.20      0.90     80.00
 3170.6000   3170.60     24.77     87.00   2624.96     23.73   -999.25      0.00   -999.25   -999.25   -999.25   -999.25   -999.25   -999.25   -999.25   -999.25      1.01      1.20      0.99     80.00
 3170.8000   3170.80     24.57     89.00   2579.01     24.58   -999.25      0.37   -999.25   -999.25   -999.25   -999.25   -999.25   -999.25   -999.25   -999.25      1.00      1.16      1.00     80.00
 3171.0000   3171.00     24.36     89.00   2522.00     30.91   -999.25      1.52   -999.25   -999.25   -999.25   -999.25   -999.25   -999.25   -999.25   -999.25      1.00      1.11      1.00     80.00
 3171.2000   3171.20     24.17     88.00   2582.00     15.90   -999.25      2.68   -999.25   -999.25   -999.25   -999.25   -999.25   -999.25   -999.25   -999.25      1.00      1.06      1.00     80.00
 3171.4000   3171.40     23.97     87.00   2575.07     26.78   -999.25      3.83   -999.25   -999.25   -999.25   -999.25   -999.25   -999.25   -999.25   -999.25      1.00      1.01      1.00     80.00
 3171.6000   3171.60     23.76     85.00   2721.93     55.43   -999.25      4.98   -999.25   -999.25   -999.25   -999.25   -999.25   -999.25   -999.25   -999.25      1.00      1.05      1.00     80.00
 3171.8000   3171.80     23.56     86.00   2644.02     11.05   -999.25      3.81   -999.25   -999.25   -999.25   -999.25   -999.25   -999.25   -999.25   -999.25      1.00      1.10      1.00     80.00
 3172.0000   3172.00     23.37     87.00   2709.00     32.39   -999.25      2.60   -999.25   -999.25   -999.25   -999.25   -999.25   -999.25   -999.25   -999.25      1.00      1.16      1.00     80.00
 3172.2000   3172.20     23.17     86.00   2596.01     30.57   -999.25      1.39   -999.25   -999.25   -999.25   -999.25   -999.25   -999.25   -999.25   -999.25      1.01      1.21      0.99     80.00
 3172.4000   3172.40     22.97     88.00   2647.97     27.79   -999.25      1.00   -999.25   -999.25   -999.25   -999.25   -999.25   -999.25   -999.25   -999.25      1.08      1.28      0.92     80.00
 3172.6000   3172.60     22.76     89.00   2595.03     13.98   -999.25      1.00   -999.25   -999.25   -999.25   -999.25   -999.25   -999.25   -999.25   -999.25      1.14      1.34      0.86     80.00
 3172.8000   3172.80     22.56     91.00   2486.03     17.89   -999.25      1.00   -999.25   -999.25   -999.25   -999.25   -999.25   -999.25   -999.25   -999.25      1.20      1.39      0.79     80.00
 3173.0000   3173.00     22.36     90.00   2521.00     37.75   -999.25      1.11   -999.25   -999.25   -999.25   -999.25   -999.25   -999.25   -999.25   -999.25      1.16      1.32      0.72     80.00
 3173.2000   3173.20     22.16     90.00   2551.99     30.76   -999.25      1.30   -999.25   -999.25   -999.25   -999.25   -999.25   -999.25   -999.25   -999.25      1.12      1.24      0.64     80.00
 3173.4000   3173.40     21.97     91.00   2515.00     19.26   -999.25      1.50   -999.25   -999.25   -999.25   -999.25   -999.25   -999.25   -999.25   -999.25      1.08      1.16      0.56     80.00
 3173.6000   3173.60     21.76     90.00   2511.00     36.20   -999.25      1.69   -999.25   -999.25   -999.25   -999.25   -999.25   -999.25   -999.25   -999.25      1.04      1.08      0.48     80.00
 3173.8000   3173.80     21.56     89.00   2558.99     46.41   -999.25      1.88   -999.25   -999.25   -999.25   -999.25   -999.25   -999.25   -999.25   -999.25      1.00      1.01      0.41     80.00
