~Version Information
VERS.                       2.00: SCHLUMBERGER LAS - Version 2.00
WRAP.                         NO: One line per depth step
~Well Information
STRT.M                 1544.0000: Start Depth
STOP.M                 1580.0000: End Depth
STEP.M                    0.2000:  
NULL.                    -999.25:  
COMP.                    Bapetco: COMPANY
WELL.                  BED-15-13: WELL
FLD .                        BED: FLD
SRVC.               Schlumberger: SERVICE COMPANY
LOC .                           : LOCATION
DATE.                  29-Jul-20: LOG DATE
UWI .                  20EGP0554: API NUMBER
~Curve Information
DEPT.M                          : MWD Tool Measurement Depth
BDEP.M                          : Bit Depth
KPOSI.M                          : Kelly Position (Raw)
HKL .KLBF                       : Hook Load
SPP .PSI                        : Standpipe Pressure
ROP .M/HR                       : Rate of Penetration (MWD Depth Ave.)
PSPD.M/MIN                      : Instantaneous Pipe Speed
VIBC.CPS                        : Vibration Count
SSL_H.                           : Stick Slip Level from HDS1
SSS_H.                           : Stick Slip Percentage from HDS1
RPM_H.                           : Average RPM from HDS1
VIBXYH.                           : Vibration XY
VIBZH.                           : Vibration Z
#     DEPT      BDEP     KPOSI       HKL       SPP       ROP      PSPD      VIBC     SSL_H     SSS_H     RPM_H    VIBXYH     VIBZH
#        M         M         M      KLBF       PSI      M/HR     M/MIN       CPS                                                  
#
# Relog Number     0         0         0         0         0         0         0         0         0         0         0         0
#
~ASCII Data
# ...
 1556.4000   1556.40     23.71     74.00   1616.99     58.65   -999.25      0.00      3.00    130.27     78.00      1.49      1.20
 1556.6000   1556.60     23.51     74.00   1614.00     55.63   -999.25      0.00      3.00    132.33     77.74      1.46      1.20
 1556.8000   1556.80     23.31     73.00   1637.99     42.19   -999.25      0.00      3.00    133.35     76.80      1.42      1.20
 1557.0000   1557.00     23.11     73.00   1677.00     63.54   -999.25      0.00      3.00    133.58     76.62      1.39      1.20
 1557.2000   1557.20     22.91     72.00   1605.02     30.94   -999.25      0.00      3.00    129.21     80.87      1.35      1.20
 1557.4000   1557.40     22.71     74.00   1670.99     37.05   -999.25      0.00      3.00    120.20     80.46      1.32      1.20
 1557.6000   1557.60     22.51     74.00   1716.00     54.77   -999.25      0.00      3.00    109.51     78.36      1.28      1.20
 1557.8000   1557.80     22.31     74.00   1684.01     52.84   -999.25      0.00      3.00    124.47     78.00      1.26      1.17
 1558.0000   1558.00     22.11     73.00   1696.00     27.28   -999.25      0.00      3.00    137.73     78.25      1.23      1.14
 1558.2000   1558.20     21.91     74.00   1676.01     48.18   -999.25      0.00      3.00    129.53     79.28      1.21      1.10
 1558.4000   1558.40     21.71     74.00   1703.00     35.42   -999.25      0.00      3.00    122.82     80.44      1.19      1.07
 1558.6000   1558.60     21.50     72.00   1614.02     42.96   -999.25      0.00      3.00    119.68     81.92      1.16      1.04
 1558.8000   1558.80     21.31     73.00   1761.96     42.58   -999.25      0.00      3.00    121.47     82.00      1.14      1.01
 1559.0000   1559.00     21.11     74.00   1720.00     28.95   -999.25      0.00      3.00    119.91     79.48      1.13      1.03
 1559.2000   1559.20     20.91     74.00   1679.00     37.57   -999.25      0.56      3.00    117.27     76.20      1.13      1.06
 1559.4000   1559.40     20.71     74.00   1672.00     29.97   -999.25      1.23      3.00    113.42     79.61      1.13      1.09
 1559.6000   1559.60     20.50     74.00   1646.00     32.62   -999.25      1.91      3.00    113.13     79.32      1.13      1.12
 1559.8000   1559.80     20.31     74.00   1625.01     27.50   -999.25      2.59      3.00    116.62     77.12      1.13      1.16
 1560.0000   1560.00     20.10     73.00   1670.00     66.36   -999.25      3.27      3.00    118.19     79.24      1.13      1.19
 1560.2000   1560.20     19.91     73.00   1673.00     37.52   -999.25      3.95      3.00    125.15     80.00      1.17      1.20
 1560.4000   1560.40     19.71     73.00   1656.00     38.98   -999.25      4.00      3.00    134.99     80.02      1.21      1.20
 1560.6000   1560.60     19.51     73.00   1680.00     44.27   -999.25      4.00      3.00    134.48     81.22      1.26      1.20
 1560.8000   1560.80     19.31     74.00   1669.00     29.44   -999.25      4.00      3.00    133.18     82.76      1.31      1.20
 1561.0000   1561.00     19.10     74.00   1663.00     52.53   -999.25      4.00      3.00    130.46     84.91      1.36      1.20
 1561.2000   1561.20     18.91     73.00   1668.97     56.48   -999.25      4.00      3.00    120.71     83.47      1.41      1.20
 1561.4000   1561.40     18.71     75.00   1559.01     23.54   -999.25      4.00      3.00    121.69     81.30      1.45      1.20
 1561.6000   1561.60     18.51     73.00   1625.01     35.86   -999.25      3.79      3.00    129.85     80.32      1.49      1.20
 1561.8000   1561.80     18.31     73.00   1672.99     48.31   -999.25      3.49      3.00    126.08     80.77      1.53      1.20
 1562.0000   1562.00     18.11     73.00   1672.00     42.21   -999.25      3.20      3.00    116.56     81.91      1.57      1.20
 1562.2000   1562.20     17.91     73.00   1660.02     48.57   -999.25      2.90      3.00    122.14     82.00      1.61      1.20
 1562.4000   1562.40     17.71     73.00   1723.99     33.33   -999.25      2.60      3.00    129.27     82.92      1.65      1.20
 1562.6000   1562.60     17.51     73.00   1668.01     37.70   -999.25      2.31      3.00    138.63     89.99      1.69      1.20
 1562.8000   1562.80     17.30     72.00   1726.99     40.80   -999.25      2.01      3.00    135.40     94.40      1.68      1.20
 1563.0000   1563.00     17.11     72.00   1817.00     41.82   -999.25      1.81      3.00    127.15     97.75      1.65      1.20
 1563.2000   1563.20     16.91     73.00   1688.00     35.33   -999.25      1.61      3.00    133.52     83.14      1.62      1.20
 1563.4000   1563.40     16.71     73.00   1672.00     24.42   -999.25      1.41      3.00    130.59     86.75      1.60      1.20
 1563.6000   1563.60     16.50     71.00   1771.99     50.03   -999.25      1.21      3.00    131.34     92.00      1.57      1.20
 1563.8000   1563.80     16.31     73.00   1680.02     19.19   -999.25      1.01      3.00    123.93     85.45      1.63      1.15
 1564.0000   1564.00     16.11     72.00   1606.00     10.31   -999.25      2.07      3.00    151.50     84.00      1.75      1.07
 1564.2000   1564.20     15.91     74.00   1573.99     11.10   -999.25      3.00      3.00    125.69     80.28      1.80      0.94
 1564.4000   1564.40     15.71     75.00   1531.01      8.91   -999.25      3.00      3.00    127.26     81.15      1.53      0.56
 1564.6000   1564.60     15.51     74.00   1542.01     18.86   -999.25      3.16      3.00    123.49     81.66      1.47      0.48
 1564.8000   1564.80     15.31     72.00   1626.98     24.09   -999.25      4.13      3.00    140.15     75.40      1.56      0.61
 1565.0000   1565.00     15.11     73.00   1617.00     19.73   -999.25      5.11      3.00    133.39     83.94      1.66      0.74
 1565.2000   1565.20     14.91     74.00   1597.00     16.02   -999.25      5.95      3.00    117.99     92.39      1.70      0.70
 1565.4000   1565.40     14.71     74.00   1607.00     17.13   -999.25      5.34      3.00    126.53     91.36      1.70      0.54
 1565.6000   1565.60     14.51     74.00   1570.00     30.27   -999.25      4.72      3.00    124.64     80.84      1.70      0.37
 1565.8000   1565.80     14.31     72.00   1606.99     23.88   -999.25      4.11      3.00    121.60     87.51      1.70      0.21
 1566.0000   1566.00     14.11     73.00   1569.00     12.87   -999.25      4.38      3.00    142.46     88.53      2.13      0.50
 1566.2000   1566.20     13.91     73.00   1619.99     10.20   -999.25      4.84      3.00    128.75     80.00      2.56      0.80
 1566.4000   1566.40     13.71     73.00   1593.00     17.22   -999.25      7.72      3.00    120.02     85.08      2.56      0.80
 1566.6000   1566.60     13.51     71.00   1616.00     17.91   -999.25     11.91      3.00    134.08    110.64      2.56      0.80
 1566.8000   1566.80     13.31     73.00   1630.00     10.17   -999.25     14.93      3.00    133.31     82.13      2.49      0.75
 1567.0000   1567.00     13.11     72.00   1599.00     18.33   -999.25     16.80      3.00    135.70     79.50      2.35      0.66
 1567.2000   1567.20     12.90     72.00   1614.97      9.06   -999.25     18.12      3.00    113.70    100.76      2.21      0.46
 1567.4000   1567.40     12.71     74.00   1500.01      1.90   -999.25     18.47      3.00    111.86     80.00      2.13      0.28
 1567.6000   1567.60     12.51     74.00   1546.01     10.33   -999.25     18.82      3.00    129.43     78.06      2.13      0.52
 1567.8000   1567.80     12.31     72.00   1601.99      8.95   -999.25     22.21      3.00    110.80    106.84      2.27      0.80
 1568.0000   1568.00     12.11     71.00   1589.00      4.30   -999.25     29.40      3.00    119.25     94.50      2.84      1.36
 1568.2000   1568.20     11.90     73.00   1583.99      8.94   -999.25     33.58      3.00    111.42     99.59      2.78      1.01
 1568.4000   1568.40     11.71     72.00   1555.00      3.79   -999.25     34.01      3.00    112.60     95.52      2.73      0.74
 1568.6000   1568.60     11.51     72.00   1529.00      3.71   -999.25     36.12      3.00    115.74    108.00      2.51      0.54
