~Version Information
VERS.                       2.00: SCHLUMBERGER LAS - Version 2.00
WRAP.                         NO: One line per depth step
~Well Information
STRT.M                 1195.0000: Start Depth
STOP.M                 1544.0000: End Depth
STEP.M                    0.2000:  
NULL.                    -999.25:  
COMP.                    Bapetco: COMPANY
WELL.                  BED-15-13: WELL
FLD .                        BED: FLD
SRVC.               Schlumberger: SERVICE COMPANY
LOC .                           : LOCATION
DATE.                  29-Jul-20: LOG DATE
UWI .                  20EGP0554: API NUMBER
~Curve Information
DEPT.M                          : MWD Tool Measurement Depth
BDEP.M                          : Bit Depth
KPOSI.M                          : Kelly Position (Raw)
HKL .KLBF                       : Hook Load
SPP .PSI                        : Standpipe Pressure
ROP .M/HR                       : Rate of Penetration (MWD Depth Ave.)
PSPD.M/MIN                      : Instantaneous Pipe Speed
VIBC.CPS                        : Vibration Count
SSL_H.                           : Stick Slip Level from HDS1
SSS_H.                           : Stick Slip Percentage from HDS1
RPM_H.                           : Average RPM from HDS1
VIBXYH.                           : Vibration XY
VIBZH.                           : Vibration Z
#     DEPT      BDEP     KPOSI       HKL       SPP       ROP      PSPD      VIBC     SSL_H     SSS_H     RPM_H    VIBXYH     VIBZH
#        M         M         M      KLBF       PSI      M/HR     M/MIN       CPS                                                  
#
# Relog Number     0         0         0         0         0         0         0         0         0         0         0         0
#
~ASCII Data
# ...
 1505.0000   1505.00     16.97     71.00   2535.00     88.48   -999.25     10.47      3.00    127.09     97.83      2.19      1.60
 1505.2000   1505.20     16.77     70.00   2606.00     80.07   -999.25     11.04      3.00    114.99    101.04      2.21      1.60
 1505.4000   1505.40     16.56     70.00   2612.00     54.86   -999.25     11.61      3.00    104.57    103.93      2.22      1.60
 1505.6000   1505.60     16.36     70.00   2614.00     49.63   -999.25     12.18      3.00    113.55    103.01      2.24      1.60
 1505.8000   1505.80     16.17     71.00   2606.00     57.43   -999.25     12.75      3.00    122.54    102.10      2.25      1.60
 1506.0000   1506.00     15.96     72.00   2565.00     59.55   -999.25     13.24      3.00    128.05     99.50      2.26      1.59
 1506.2000   1506.20     15.77     71.00   2566.00     46.70   -999.25     13.65      3.00    133.13     96.69      2.24      1.56
 1506.4000   1506.40     15.57     71.00   2571.00     59.88   -999.25     14.07      3.00    129.58     98.09      2.22      1.53
 1506.6000   1506.60     15.37     71.00   2622.00     46.53   -999.25     14.49      3.00    123.23    100.85      2.20      1.50
 1506.8000   1506.80     15.17     72.00   2592.01     45.40   -999.25     14.90      3.00    120.59    102.00      2.18      1.48
 1507.0000   1507.00     14.97     70.00   2541.00     53.28   -999.25     15.32      3.00    120.59    102.00      2.16      1.45
 1507.2000   1507.20     14.77     70.00   2623.00     22.78   -999.25     15.73      3.00    129.14    102.00      2.14      1.42
 1507.4000   1507.40     14.57     71.00   2609.00     47.90   -999.25     16.16      3.00    131.60    108.13      2.13      1.40
 1507.6000   1507.60     14.37     70.00   2617.00     36.94   -999.25     16.60      3.00    128.95    117.49      2.15      1.40
 1507.8000   1507.80     14.16     70.00   2623.00     42.60   -999.25     17.05      3.00    125.98    107.42      2.17      1.40
 1508.0000   1508.00     13.96     69.00   2648.00     53.14   -999.25     17.49      3.00    122.98     96.23      2.19      1.40
 1508.2000   1508.20     13.77     71.00   2641.99     36.91   -999.25     17.94      3.00    127.97     96.00      2.21      1.40
 1508.4000   1508.40     13.57     69.00   2604.00     30.21   -999.25     18.38      3.00    131.96     97.39      2.23      1.40
 1508.6000   1508.60     13.37     70.00   2648.00     48.96   -999.25     18.83      3.00    133.90    101.20      2.25      1.40
 1508.8000   1508.80     13.17     70.00   2641.00     36.78   -999.25     19.31      3.00    131.21    104.07      2.30      1.42
 1509.0000   1509.00     12.97     72.00   2592.00     47.02   -999.25     19.82      3.00    127.19    107.65      2.37      1.45
 1509.2000   1509.20     12.77     71.00   2563.02     34.24   -999.25     20.34      3.00    122.92    113.97      2.44      1.48
 1509.4000   1509.40     12.57     69.00   2649.99     27.16   -999.25     20.85      3.00    134.06    107.50      2.52      1.52
 1509.6000   1509.60     12.37     70.00   2667.99     32.76   -999.25     21.36      3.00    138.36    102.73      2.59      1.55
 1509.8000   1509.80     12.16     71.00   2610.01     38.35   -999.25     21.87      3.00    131.68    104.09      2.66      1.59
 1510.0000   1510.00     11.97     70.00   2610.00     49.88   -999.25     22.23      3.00    129.58    107.63      2.68      1.58
 1510.2000   1510.20     11.77     70.00   2629.00     31.85   -999.25     22.53      3.00    125.14    110.00      2.66      1.55
 1510.4000   1510.40     11.57     70.00   2612.00     44.41   -999.25     22.83      3.00    115.91    110.00      2.63      1.52
 1510.6000   1510.60     11.37     69.00   2626.00     39.60   -999.25     23.13      3.00    120.04    104.79      2.61      1.49
 1510.8000   1510.80     11.17     70.00   2644.00     36.32   -999.25     23.43      3.00    129.49     98.64      2.59      1.46
 1511.0000   1511.00     10.97     70.00   2636.00     44.49   -999.25     23.73      3.00    128.77    103.06      2.57      1.43
 1511.2000   1511.20     10.77     68.00   2672.99     39.94   -999.25     23.83      3.00    128.19    110.16      2.55      1.40
 1511.4000   1511.40     10.57     70.00   2652.00     22.06   -999.25     22.41      3.00    135.74    118.00      2.57      1.36
 1511.6000   1511.60     10.37     72.00   2600.00     34.99   -999.25     20.99      3.00    155.42    117.53      2.60      1.33
 1511.8000   1511.80     10.17     70.00   2608.00     47.90   -999.25     19.57      3.00    142.68    105.67      2.62      1.29
 1512.0000   1512.00      9.96     69.00   2663.00     39.70   -999.25     18.15      3.00    134.98     98.11      2.65      1.26
 1512.2000   1512.20      9.77     69.00   2699.99     33.02   -999.25     16.72      3.00    149.55    109.54      2.67      1.22
 1512.4000   1512.40      9.56     69.00   2671.00     45.04   -999.25     22.39      3.00    142.40    121.09      2.70      1.23
 1512.6000   1512.60      9.36     69.00   2673.00     24.37   -999.25     35.43      3.00    129.69    124.38      2.74      1.32
 1512.8000   1512.80      9.17     70.00   2644.01     28.67   -999.25     48.47      3.00    121.64    103.47      2.77      1.41
 1513.0000   1513.00      8.96     71.00   2595.00     31.58   -999.25     61.50      3.00    130.39    100.23      2.80      1.50
 1513.2000   1513.20      8.77     69.00   2622.01     20.64   -999.25     74.54      3.00    138.45     98.65      2.84      1.59
 1513.4000   1513.40      8.57     69.00   2680.99     24.29   -999.25     61.23      3.00    145.00    105.84      3.07      1.52
 1513.6000   1513.60      8.37     69.00   2616.01     29.50   -999.25     46.96      3.00    132.68    104.25      3.34      1.42
 1513.8000   1513.80      8.17     69.00   2672.99     30.52   -999.25     32.69      3.00    131.08     98.84      3.60      1.33
 1514.0000   1514.00      7.97     69.00   2681.00     26.77   -999.25     18.42      3.00    130.47    103.33      3.87      1.23
 1514.2000   1514.20      7.76     71.00   2608.99     15.52   -999.25     15.63      3.00    117.19    110.99      3.88      1.16
 1514.4000   1514.40      7.56     72.00   2583.00     25.64   -999.25     17.99      3.00    131.44     98.25      3.76      1.10
 1514.6000   1514.60      7.37     71.00   2642.99     32.54   -999.25     20.35      3.00    126.16    105.24      3.64      1.04
 1514.8000   1514.80      7.17     72.00   2581.01     14.11   -999.25     21.73      3.00    118.05    118.62      3.55      1.01
 1515.0000   1515.00      6.97     72.00   2551.00     55.91   -999.25     20.83      3.00    132.52    100.69      3.51      1.06
 1515.2000   1515.20      6.77     70.00   2657.00     39.06   -999.25     19.93      3.00    140.97     99.35      3.48      1.10
 1515.4000   1515.40      6.57     70.00   2643.00     25.77   -999.25     19.04      3.00    125.15    119.25      3.44      1.15
 1515.6000   1515.60      6.37     72.00   2593.99     16.24   -999.25     18.14      3.00    125.45    107.98      3.40      1.19
 1515.8000   1515.80      6.17     74.00   2545.01     16.02   -999.25     33.44      3.00    127.57    100.00      3.24      1.14
 1516.0000   1516.00      5.97     73.00   2519.00     20.10   -999.25     51.72      3.00    127.45     95.31      3.04      1.08
 1516.2000   1516.20      5.76     73.00   2553.00     16.73   -999.25     69.99      3.00    122.08    100.10      2.85      1.01
 1516.4000   1516.40      5.57     73.00   2533.00     14.57   -999.25     53.13      3.00    120.83    100.47      2.93      0.93
 1516.6000   1516.60      5.37     74.00   2513.00     12.08   -999.25     34.22      3.00    118.09     95.47      3.05      0.85
 1516.8000   1516.80      5.17     74.00   2514.00     29.22   -999.25     24.23      3.00    119.00    100.00      3.08      0.84
 1517.0000   1517.00      4.97     73.00   2542.00     27.47   -999.25     24.72      3.00    118.71     99.09      2.98      0.94
 1517.2000   1517.20      4.77     73.00   2554.99     17.40   -999.25     25.22      3.00    120.06    103.67      2.87      1.04
