~Version Information
VERS.                       2.00: SCHLUMBERGER LAS - Version 2.00
WRAP.                         NO: One line per depth step
~Well Information
STRT.M                 1195.0000: Start Depth
STOP.M                 1544.0000: End Depth
STEP.M                    0.2000:  
NULL.                    -999.25:  
COMP.                    Bapetco: COMPANY
WELL.                  BED-15-13: WELL
FLD .                        BED: FLD
SRVC.               Schlumberger: SERVICE COMPANY
LOC .                           : LOCATION
DATE.                  29-Jul-20: LOG DATE
UWI .                  20EGP0554: API NUMBER
~Curve Information
DEPT.M                          : MWD Tool Measurement Depth
BDEP.M                          : Bit Depth
KPOSI.M                          : Kelly Position (Raw)
HKL .KLBF                       : Hook Load
SPP .PSI                        : Standpipe Pressure
ROP .M/HR                       : Rate of Penetration (MWD Depth Ave.)
PSPD.M/MIN                      : Instantaneous Pipe Speed
VIBC.CPS                        : Vibration Count
SSL_H.                           : Stick Slip Level from HDS1
SSS_H.                           : Stick Slip Percentage from HDS1
RPM_H.                           : Average RPM from HDS1
VIBXYH.                           : Vibration XY
VIBZH.                           : Vibration Z
#     DEPT      BDEP     KPOSI       HKL       SPP       ROP      PSPD      VIBC     SSL_H     SSS_H     RPM_H    VIBXYH     VIBZH
#        M         M         M      KLBF       PSI      M/HR     M/MIN       CPS                                                  
#
# Relog Number     0         0         0         0         0         0         0         0         0         0         0         0
#
~ASCII Data
 1195.0000   1195.00     10.46   -999.25   -999.25   -999.25   -999.25   -999.25      3.00    100.00     48.00   -999.25   -999.25
 1195.2000   1195.20     10.32     68.00   1853.00     28.98   -999.25   -999.25      3.00    108.41     53.05   -999.25   -999.25
 1195.4000   1195.40     10.11     67.00   1841.00     74.04   -999.25   -999.25      3.00    119.91     59.87   -999.25   -999.25
 1195.6000   1195.60      9.92     65.00   1877.00     72.30   -999.25   -999.25      3.00    114.28     51.61   -999.25   -999.25
 1195.8000   1195.80      9.71     65.00   1898.99     31.12   -999.25      2.00      2.86    104.51     44.71   -999.25   -999.25
 1196.0000   1196.00      9.51     65.00   1904.00     30.36   -999.25      7.27      1.08     47.04     53.60      1.70      0.20
 1196.2000   1196.20      9.31     65.00   1823.01     41.26   -999.25     13.23      1.00     43.02     50.37      1.81      0.20
 1196.4000   1196.40      9.12     64.00   1876.99     52.97   -999.25     19.19      1.00     41.52     46.57      1.94      0.20
 1196.6000   1196.60      8.91     64.00   1894.00     30.43   -999.25     25.15      1.00     53.49     49.84      2.06      0.20
 1196.8000   1196.80      8.71     66.00   1870.01     26.73   -999.25     31.11      1.70     80.98     51.41      2.18      0.20
 1197.0000   1197.00      8.52     64.00   1873.00     30.30   -999.25     35.66      2.41     96.30     51.18      2.30      0.20
 1197.2000   1197.20      8.31     64.00   1906.99     30.11   -999.25     33.80      3.00    102.31     50.00      2.41      0.21
 1197.4000   1197.40      8.11     65.00   1869.00     21.15   -999.25     31.94      2.81    102.89     50.00      2.41      0.26
 1197.6000   1197.60      7.92     67.00   1810.99     14.96   -999.25     30.08      2.00     92.08     47.85      2.41      0.32
 1197.8000   1197.80      7.72     68.00   1768.01     34.44   -999.25     31.47      2.65     96.74     48.60      2.41      0.37
 1198.0000   1198.00      7.51     67.00   1773.00     34.11   -999.25     37.33      2.46     90.04     50.00      2.48      0.40
 1198.2000   1198.20      7.31     67.00   1792.99     19.57   -999.25     43.20      2.00     82.53     39.59      2.61      0.40
 1198.4000   1198.40      7.11     68.00   1760.00     22.21   -999.25     49.07      2.00     91.23     36.17      2.74      0.40
 1198.6000   1198.60      6.91     68.00   1761.00     31.28   -999.25     52.66      2.00     93.75     38.68      2.88      0.40
 1198.8000   1198.80      6.71     68.00   1772.00     35.53   -999.25     44.27      1.94     85.52     37.05      2.99      0.40
 1199.0000   1199.00      6.51     68.00   1781.00     31.22   -999.25     35.87      1.16     77.59     51.06      2.86      0.35
 1199.2000   1199.20      6.31     67.00   1799.00     38.35   -999.25     27.48      1.00     62.50     50.89      2.74      0.31
 1199.4000   1199.40      6.11     67.00   1789.00     34.19   -999.25     19.09      1.00     52.08     45.78      2.61      0.27
 1199.6000   1199.60      5.91     68.00   1775.99     19.79   -999.25     11.68      1.00     54.96     42.03      2.48      0.23
 1199.8000   1199.80      5.71     69.00   1720.01     27.13   -999.25      9.60      1.00     50.64     46.00      2.37      0.20
 1200.0000   1200.00      5.51     68.00   1741.00     30.74   -999.25      7.51      1.00     52.46     45.91      2.27      0.20
 1200.2000   1200.20      5.31     67.00   1761.00     40.71   -999.25      5.43      1.00     57.83     44.36      2.17      0.20
 1200.4000   1200.40      5.11     67.00   1762.00     28.40   -999.25      3.35      1.95     87.95     42.10      2.08      0.20
 1200.6000   1200.60      4.91     65.00   1783.00     37.49   -999.25      1.27      2.80    115.33     41.19      1.98      0.20
 1200.8000   1200.80      4.71     65.00   1792.00     35.97   -999.25      1.15      1.48     84.26     49.14      1.88      0.20
 1201.0000   1201.00      4.51     64.00   1775.00     42.34   -999.25      1.33      1.00     62.52     51.16      1.79      0.20
 1201.2000   1201.20      4.31     64.00   1788.00     31.70   -999.25      1.50      1.20     53.15     48.81      1.72      0.20
 1201.4000   1201.40      4.12     66.00   1783.00     29.22   -999.25      1.67      2.85     96.14     38.89      1.64      0.20
 1201.6000   1201.60      3.91     65.00   1777.00     35.97   -999.25      1.85      3.00    152.05     40.57      1.57      0.20
 1201.8000   1201.80      3.71     65.00   1780.00     35.62   -999.25      2.02      3.00    167.81     44.01      1.49      0.20
 1202.0000   1202.00      3.51     66.00   1784.00     33.62   -999.25      2.17      3.00    141.66     47.95      1.41      0.20
 1202.2000   1202.20      3.32     65.00   1767.00     42.78   -999.25      2.32      3.00    141.02     44.74      1.44      0.20
 1202.4000   1202.40      3.11     64.00   1762.00     40.48   -999.25      2.47      2.91    135.67     42.92      1.46      0.20
 1202.6000   1202.60      2.91     65.00   1740.00     39.13   -999.25      2.63      2.27    102.55     49.29      1.48      0.20
 1202.8000   1202.80      2.71     64.00   1759.00     40.51   -999.25      2.78      1.65     76.33     50.59      1.50      0.20
 1203.0000   1203.00      2.51     65.00   1740.00     39.44   -999.25      2.93      1.03     55.23     48.12      1.52      0.20
 1203.2000   1203.20      2.31     65.00   1732.00     47.49   -999.25      3.69      0.51     46.03     48.00      1.54      0.20
 1203.4000   1203.40      2.11     65.00   1724.00     45.54   -999.25      4.99      0.01     37.73     47.97      1.56      0.20
 1203.6000   1203.60      1.91     66.00   1733.00     39.67   -999.25      6.30      1.71     85.74     41.17      1.60      0.20
 1203.8000   1203.80      1.72     65.00   1720.00     50.88   -999.25      7.60      2.72    113.63     37.93      1.63      0.20
 1204.0000   1204.00      1.51     66.00   1723.00     37.49   -999.25      8.91      1.57     77.87     45.98      1.67      0.20
 1204.2000   1204.20     22.64     72.00    447.14      1.79   -999.25     10.09      1.32     85.49     48.41      1.55      0.20
 1204.4000   1204.40     29.53     69.00   1026.93     27.23   -999.25     10.67      3.00    175.20     44.46      0.99      0.20
 1204.6000   1204.60     29.33     71.00   1591.01     16.01   -999.25     11.24      1.62     95.20     51.38      1.70      0.20
 1204.8000   1204.80     29.13     68.00   1654.98     36.79   -999.25     11.81      1.00     53.23     48.90      2.28      0.20
 1205.0000   1205.00     28.93     70.00   1651.00     24.72   -999.25     12.38      0.59     39.72     49.62      2.31      0.20
 1205.2000   1205.20     28.73     68.00   1693.99     40.98   -999.25     12.95      0.10     32.26     51.60      2.33      0.20
 1205.4000   1205.40     28.53     69.00   1665.00     35.34   -999.25     13.53      0.49     36.86     48.07      2.35      0.20
 1205.6000   1205.60     28.33     67.00   1684.01     39.18   -999.25     14.00      1.00     44.20     44.93      2.37      0.20
 1205.8000   1205.80     28.13     67.00   1725.99     58.08   -999.25     14.00      1.00     50.21     50.43      2.39      0.20
 1206.0000   1206.00     27.92     68.00   1711.00     37.15   -999.25     14.00      1.42     64.25     50.32      2.39      0.20
 1206.2000   1206.20     27.73     67.00   1707.00     31.91   -999.25     14.00      2.01     81.56     48.02      2.26      0.24
 1206.4000   1206.40     27.53     68.00   1710.00     36.08   -999.25     14.00      2.68    102.27     49.37      2.13      0.28
 1206.6000   1206.60     27.33     68.00   1715.00     30.00   -999.25     14.00      2.26     93.14     51.48      2.00      0.31
 1206.8000   1206.80     27.13     67.00   1692.01     35.31   -999.25     13.99      1.16     65.68     53.52      1.87      0.35
 1207.0000   1207.00     26.93     69.00   1688.00     36.94   -999.25     12.27      2.75    111.43     48.76      1.74      0.39
 1207.2000   1207.20     26.73     68.00   1728.99     36.96   -999.25     10.56      3.00    111.78     54.89      1.73      0.40
