~Version Information
VERS.                       2.00: SCHLUMBERGER LAS - Version 2.00
WRAP.                         NO: One line per depth step
~Well Information
STRT.M                 1790.0000: Start Depth
STOP.M                 3303.0000: End Depth
STEP.M                    0.2000:  
NULL.                    -999.25:  
COMP.                    Bapetco: COMPANY
WELL.                  BED-15-13: WELL
FLD .                        BED: FLD
SRVC.               Schlumberger: SERVICE COMPANY
LOC .                           : LOCATION
DATE.                  05-Aug-20: LOG DATE
UWI .                  20EGP0554: API NUMBER
~Curve Information
DEPT.M                          : MWD Tool Measurement Depth
BDEP.M                          : Bit Depth
KPOSI.M                          : Kelly Position (Raw)
HKL .KLBF                       : Hook Load
SPP .PSI                        : Standpipe Pressure
ROP .M/HR                       : Rate of Penetration (MWD Depth Ave.)
PSPD.FT/MIN                     : Instantaneous Pipe Speed
VIBC.CPS                        : Vibration Count
SSS_H.                           : Stick Slip Percentage from HDS1
SSL_H.                           : Stick Slip Level from HDS1
RPMMX_H.                           : Maximum RPM from HDS1
TNR .                           : Time Not Rotating from HDS1
PTNR.                           : Percentage Time Not Rotating from HDS1
RPM_H.                           : Average RPM from HDS1
RPMMX_H.                           : Maximum RPM from HDS1
DRPM_H.                           : Differential RPM from HDS1
VIBXH.                           : Vibration X
VIBYH.                           : Vibration Y
VIBZH.                           : Vibration Z
TEMPH.DEG C                      : Temperature from JTDAS Tool
#     DEPT      BDEP     KPOSI       HKL       SPP       ROP      PSPD      VIBC     SSS_H     SSL_H   RPMMX_H       TNR      PTNR     RPM_H   RPMMX_H    DRPM_H     VIBXH     VIBYH     VIBZH     TEMPH
#        M         M         M      KLBF       PSI      M/HR    FT/MIN       CPS                                                                                                                   DEG C
#
# Relog Number     0         0         0         0         0         0         0         0         0         0         0         0         0         0         0         0         0         0         0
#
~ASCII Data
# ...
 3142.0000   3142.00     24.41     85.00   2712.00     15.10   -999.25     13.00   -999.25   -999.25   -999.25   -999.25   -999.25   -999.25   -999.25   -999.25      1.57      1.57      1.00     80.00
 3142.2000   3142.20     24.22     85.00   2721.00     27.91   -999.25     13.00   -999.25   -999.25   -999.25   -999.25   -999.25   -999.25   -999.25   -999.25      1.44      1.44      1.00     80.00
 3142.4000   3142.40     24.01     85.00   2710.98     17.08   -999.25     13.00   -999.25   -999.25   -999.25   -999.25   -999.25   -999.25   -999.25   -999.25      1.40      1.44      1.00     80.00
 3142.6000   3142.60     23.82     85.00   2680.01     18.43   -999.25     13.33   -999.25   -999.25   -999.25   -999.25   -999.25   -999.25   -999.25   -999.25      1.40      1.51      1.00     80.00
 3142.8000   3142.80     23.62     85.00   2650.01     16.09   -999.25     15.21   -999.25   -999.25   -999.25   -999.25   -999.25   -999.25   -999.25   -999.25      1.40      1.58      1.00     80.00
 3143.0000   3143.00     23.42     84.00   2700.00     15.84   -999.25     17.08   -999.25   -999.25   -999.25   -999.25   -999.25   -999.25   -999.25   -999.25      1.40      1.60      1.00     80.00
 3143.2000   3143.20     23.21     84.00   2679.01     12.61   -999.25     16.89   -999.25   -999.25   -999.25   -999.25   -999.25   -999.25   -999.25   -999.25      1.40      1.60      1.00     80.00
 3143.4000   3143.40     23.02     84.00   2722.99     20.73   -999.25     14.70   -999.25   -999.25   -999.25   -999.25   -999.25   -999.25   -999.25   -999.25      1.40      1.59      1.00     80.00
 3143.6000   3143.60     22.81     84.00   2694.01     22.52   -999.25     12.52   -999.25   -999.25   -999.25   -999.25   -999.25   -999.25   -999.25   -999.25      1.40      1.52      1.00     80.00
 3143.8000   3143.80     22.62     84.00   2719.99     14.56   -999.25     10.70   -999.25   -999.25   -999.25   -999.25   -999.25   -999.25   -999.25   -999.25      1.40      1.45      1.00     80.00
 3144.0000   3144.00     22.41     84.00   2739.00     14.24   -999.25      9.72   -999.25   -999.25   -999.25   -999.25   -999.25   -999.25   -999.25   -999.25      1.40      1.40      0.98     80.00
 3144.2000   3144.20     22.22     86.00   2744.99     14.45   -999.25      9.77   -999.25   -999.25   -999.25   -999.25   -999.25   -999.25   -999.25   -999.25      1.40      1.40      0.91     80.00
 3144.4000   3144.40     22.01     86.00   2697.03     21.64   -999.25     12.63   -999.25   -999.25   -999.25   -999.25   -999.25   -999.25   -999.25   -999.25      1.40      1.40      0.85     80.00
 3144.6000   3144.60     21.81     86.00   2749.97     24.46   -999.25     15.50   -999.25   -999.25   -999.25   -999.25   -999.25   -999.25   -999.25   -999.25      1.41      1.42      0.80     80.00
 3144.8000   3144.80     21.62     85.00   2666.02     57.39   -999.25     18.36   -999.25   -999.25   -999.25   -999.25   -999.25   -999.25   -999.25   -999.25      1.47      1.53      0.80     80.00
 3145.0000   3145.00     21.41     86.00   2689.00      9.84   -999.25     16.33   -999.25   -999.25   -999.25   -999.25   -999.25   -999.25   -999.25   -999.25      1.52      1.64      0.80     80.00
 3145.2000   3145.20     21.21     85.00   2695.01     38.04   -999.25     12.88   -999.25   -999.25   -999.25   -999.25   -999.25   -999.25   -999.25   -999.25      1.57      1.75      0.80     80.00
 3145.4000   3145.40     21.01     84.00   2743.99     18.06   -999.25      9.43   -999.25   -999.25   -999.25   -999.25   -999.25   -999.25   -999.25   -999.25      1.60      1.80      0.84     80.00
 3145.6000   3145.60     20.81     85.00   2723.01     21.22   -999.25      7.00   -999.25   -999.25   -999.25   -999.25   -999.25   -999.25   -999.25   -999.25      1.60      1.80      0.91     80.00
 3145.8000   3145.80     20.61     85.00   2726.00     41.06   -999.25      7.00   -999.25   -999.25   -999.25   -999.25   -999.25   -999.25   -999.25   -999.25      1.60      1.80      0.98     80.00
 3146.0000   3146.00     20.41     85.00   2749.00     12.97   -999.25      7.00   -999.25   -999.25   -999.25   -999.25   -999.25   -999.25   -999.25   -999.25      1.64      1.76      1.00     80.00
 3146.2000   3146.20     20.21     85.00   2700.01     41.72   -999.25      7.00   -999.25   -999.25   -999.25   -999.25   -999.25   -999.25   -999.25   -999.25      1.68      1.72      1.00     80.00
 3146.4000   3146.40     20.02     85.00   2736.96     26.42   -999.25      7.22   -999.25   -999.25   -999.25   -999.25   -999.25   -999.25   -999.25   -999.25      1.73      1.67      1.00     80.00
 3146.6000   3146.60     19.82     85.00   2661.04     13.62   -999.25     12.91   -999.25   -999.25   -999.25   -999.25   -999.25   -999.25   -999.25   -999.25      1.78      1.62      1.00     80.00
 3146.8000   3146.80     19.62     84.00   2665.00     19.29   -999.25     18.59   -999.25   -999.25   -999.25   -999.25   -999.25   -999.25   -999.25   -999.25      1.71      1.56      1.00     80.00
 3147.0000   3147.00     19.41     84.00   2681.00     16.36   -999.25     22.23   -999.25   -999.25   -999.25   -999.25   -999.25   -999.25   -999.25   -999.25      1.58      1.49      1.00     80.00
 3147.2000   3147.20     19.22     84.00   2688.00     20.00   -999.25     18.79   -999.25   -999.25   -999.25   -999.25   -999.25   -999.25   -999.25   -999.25      1.45      1.42      1.00     80.00
 3147.4000   3147.40     19.01     84.00   2680.02     29.17   -999.25     15.35   -999.25   -999.25   -999.25   -999.25   -999.25   -999.25   -999.25   -999.25      1.40      1.50      1.00     80.00
 3147.6000   3147.60     18.81     84.00   2728.98     13.56   -999.25     11.93   -999.25   -999.25   -999.25   -999.25   -999.25   -999.25   -999.25   -999.25      1.40      1.67      1.00     80.00
 3147.8000   3147.80     18.61     86.00   2664.02     13.22   -999.25      9.08   -999.25   -999.25   -999.25   -999.25   -999.25   -999.25   -999.25   -999.25      1.42      1.78      0.99     80.00
 3148.0000   3148.00     18.42     85.00   2755.00     15.97   -999.25      6.23   -999.25   -999.25   -999.25   -999.25   -999.25   -999.25   -999.25   -999.25      1.51      1.69      0.95     80.00
 3148.2000   3148.20     18.21     86.00   2721.02     72.15   -999.25      3.39   -999.25   -999.25   -999.25   -999.25   -999.25   -999.25   -999.25   -999.25      1.59      1.61      0.90     80.00
 3148.4000   3148.40     18.02     85.00   2787.98     27.72   -999.25      3.21   -999.25   -999.25   -999.25   -999.25   -999.25   -999.25   -999.25   -999.25      1.68      1.52      0.86     80.00
 3148.6000   3148.60     17.81     85.00   2751.02     25.52   -999.25      3.45   -999.25   -999.25   -999.25   -999.25   -999.25   -999.25   -999.25   -999.25      1.77      1.43      0.82     80.00
 3148.8000   3148.80     17.61     84.00   2781.99     33.31   -999.25      3.69   -999.25   -999.25   -999.25   -999.25   -999.25   -999.25   -999.25   -999.25      1.80      1.44      0.76     80.00
 3149.0000   3149.00     17.42     85.00   2785.00     17.95   -999.25      3.94   -999.25   -999.25   -999.25   -999.25   -999.25   -999.25   -999.25   -999.25      1.80      1.50      0.70     80.00
 3149.2000   3149.20     17.21     86.00   2740.00     16.82   -999.25      3.78   -999.25   -999.25   -999.25   -999.25   -999.25   -999.25   -999.25   -999.25      1.80      1.57      0.63     80.00
 3149.4000   3149.40     17.01     87.00   2728.96     16.27   -999.25      3.48   -999.25   -999.25   -999.25   -999.25   -999.25   -999.25   -999.25   -999.25      1.82      1.64      0.64     80.00
 3149.6000   3149.60     16.81     86.00   2656.04     41.49   -999.25      3.18   -999.25   -999.25   -999.25   -999.25   -999.25   -999.25   -999.25   -999.25      1.87      1.73      0.73     80.00
 3149.8000   3149.80     16.61     87.00   2713.99     14.21   -999.25      3.27   -999.25   -999.25   -999.25   -999.25   -999.25   -999.25   -999.25   -999.25      1.91      1.82      0.82     80.00
