~Version Information
VERS.                       2.00: SCHLUMBERGER LAS - Version 2.00
WRAP.                         NO: One line per depth step
~Well Information
STRT.M                 1195.0000: Start Depth
STOP.M                 1544.0000: End Depth
STEP.M                    0.2000:  
NULL.                    -999.25:  
COMP.                    Bapetco: COMPANY
WELL.                  BED-15-13: WELL
FLD .                        BED: FLD
SRVC.               Schlumberger: SERVICE COMPANY
LOC .                           : LOCATION
DATE.                  29-Jul-20: LOG DATE
UWI .                  20EGP0554: API NUMBER
~Curve Information
DEPT.M                          : MWD Tool Measurement Depth
BDEP.M                          : Bit Depth
KPOSI.M                          : Kelly Position (Raw)
HKL .KLBF                       : Hook Load
SPP .PSI                        : Standpipe Pressure
ROP .M/HR                       : Rate of Penetration (MWD Depth Ave.)
PSPD.M/MIN                      : Instantaneous Pipe Speed
VIBC.CPS                        : Vibration Count
SSL_H.                           : Stick Slip Level from HDS1
SSS_H.                           : Stick Slip Percentage from HDS1
RPM_H.                           : Average RPM from HDS1
VIBXYH.                           : Vibration XY
VIBZH.                           : Vibration Z
#     DEPT      BDEP     KPOSI       HKL       SPP       ROP      PSPD      VIBC     SSL_H     SSS_H     RPM_H    VIBXYH     VIBZH
#        M         M         M      KLBF       PSI      M/HR     M/MIN       CPS                                                  
#
# Relog Number     0         0         0         0         0         0         0         0         0         0         0         0
#
~ASCII Data
# ...
 1281.8000   1281.80      9.16     69.00   2178.00     75.38   -999.25      6.27      0.00     22.71     98.95      2.06      0.60
 1282.0000   1282.00      8.95     68.00   2196.00     59.73   -999.25      6.71      0.00     22.48     98.12      2.11      0.60
 1282.2000   1282.20      8.76     71.00   2166.99     32.12   -999.25      7.15      0.00     21.21     99.01      2.16      0.60
 1282.4000   1282.40      8.56     71.00   2134.00     51.89   -999.25      7.60      0.00     20.69     99.82      2.20      0.60
 1282.6000   1282.60      8.36     71.00   2141.01     38.81   -999.25      8.04      0.00     25.14     98.64      2.25      0.60
 1282.8000   1282.80      8.16     70.00   2193.99     27.13   -999.25      8.48      0.00     26.95     98.78      2.20      0.60
 1283.0000   1283.00      7.96     70.00   2147.00     43.73   -999.25      8.92      0.00     23.88     99.67      2.12      0.60
 1283.2000   1283.20      7.76     70.00   2162.01     36.54   -999.25      9.82      0.00     16.33     98.48      2.04      0.60
 1283.4000   1283.40      7.56     69.00   2206.99     25.76   -999.25     10.81      0.00     16.70     99.45      1.97      0.60
 1283.6000   1283.60      7.36     71.00   2172.00     33.21   -999.25     11.80      0.00     19.50    100.00      1.89      0.60
 1283.8000   1283.80      7.16     70.00   2184.00     30.17   -999.25     12.79      0.00     20.78    100.00      1.88      0.60
 1284.0000   1284.00      6.96     72.00   2108.00     27.28   -999.25     13.79      0.00     20.00    100.00      1.97      0.60
 1284.2000   1284.20      6.76     72.00   2104.00     16.37   -999.25     12.71      0.00     19.02     99.66      2.06      0.60
 1284.4000   1284.40      6.56     71.00   2091.00     52.80   -999.25     11.08      0.00     14.44     98.00      2.15      0.60
 1284.6000   1284.60      6.36     71.00   2130.00     38.56   -999.25      9.44      0.00     15.83     98.00      2.24      0.60
 1284.8000   1284.80      6.16     71.00   2147.00     29.02   -999.25      7.80      0.00     15.58     99.13      2.17      0.60
 1285.0000   1285.00      5.96     71.00   2160.00     33.84   -999.25      6.16      0.00     15.09     99.43      2.05      0.60
 1285.2000   1285.20      5.76     71.00   2141.00     36.80   -999.25      7.56      0.00     15.26     98.31      1.93      0.60
 1285.4000   1285.40      5.56     71.00   2148.00     27.97   -999.25      9.29      0.00     12.24     99.43      1.81      0.60
 1285.6000   1285.60      5.35     72.00   2132.00     21.22   -999.25     11.03      0.00     14.22     98.50      1.70      0.60
 1285.8000   1285.80      5.15     71.00   2133.00     31.28   -999.25     12.76      0.00     17.00     99.26      1.79      0.60
 1286.0000   1286.00      4.96     71.00   2108.00     32.25   -999.25     13.79      0.00     19.16     99.32      1.87      0.60
 1286.2000   1286.20      4.76     70.00   2159.00     40.95   -999.25     13.06      0.00     21.27     98.09      1.95      0.60
 1286.4000   1286.40      4.56     71.00   2144.00     26.45   -999.25     12.33      0.00     16.61     99.50      2.03      0.60
 1286.6000   1286.60      4.35     72.00   2099.00     26.86   -999.25     11.60      0.00     16.25     98.93      2.12      0.60
 1286.8000   1286.80      4.15     70.00   2112.00     63.93   -999.25     10.87      0.00     19.01     98.00      2.09      0.62
 1287.0000   1287.00      3.96     68.00   2186.00     60.28   -999.25     10.15      0.00     23.19     98.00      2.06      0.65
 1287.2000   1287.20      3.76     68.00   2170.00     53.23   -999.25      9.42      0.00     27.38     98.00      2.02      0.68
 1287.4000   1287.40      3.56     69.00   2182.00     29.13   -999.25      9.00      0.00     31.82     99.32      1.98      0.70
 1287.6000   1287.60      3.36     69.00   2188.00     44.88   -999.25      9.00      0.00     30.40     99.47      1.94      0.73
 1287.8000   1287.80      3.16     69.00   2188.00     48.31   -999.25      9.00      0.00     23.34     98.43      1.91      0.76
 1288.0000   1288.00      2.96     68.00   2214.00     46.99   -999.25      9.00      0.00     18.70     98.77      1.87      0.78
 1288.2000   1288.20      2.76     68.00   2222.99     34.63   -999.25      9.00      0.00     16.39     99.90      1.85      0.79
 1288.4000   1288.40      2.56     69.00   2186.00     30.88   -999.25      9.00      0.00     21.56     98.51      1.87      0.76
 1288.6000   1288.60      2.35     69.00   2175.00     37.03   -999.25      8.80      0.00     24.61     98.90      1.90      0.72
 1288.8000   1288.80      2.15     69.00   2187.00     28.51   -999.25      8.03      0.00     26.07     99.73      1.92      0.69
 1289.0000   1289.00      1.96     68.00   2195.00     52.57   -999.25      7.27      0.00     26.38     98.57      1.94      0.66
 1289.2000   1289.20      1.75     67.00   2220.00     35.14   -999.25      6.50      0.70     50.97     98.70      1.96      0.62
 1289.4000   1289.40      1.56     68.00   2206.00     39.89   -999.25      5.74      2.00     95.87     99.88      1.98      0.60
 1289.6000   1289.60      1.47   -999.25   -999.25   -999.25   -999.25      5.00      2.00     93.88     98.00   -999.25   -999.25
 1289.8000   1289.80      3.39   -999.25   -999.25   -999.25   -999.25   -999.25   -999.25   -999.25   -999.25   -999.25   -999.25
 1290.0000   1290.00      5.31   -999.25   -999.25   -999.25   -999.25   -999.25   -999.25   -999.25   -999.25   -999.25   -999.25
 1290.2000   1290.20      7.23   -999.25   -999.25   -999.25   -999.25   -999.25   -999.25   -999.25   -999.25   -999.25   -999.25
 1290.4000   1290.40      9.15   -999.25   -999.25   -999.25   -999.25   -999.25   -999.25   -999.25   -999.25   -999.25   -999.25
 1290.6000   1290.60     11.07   -999.25   -999.25   -999.25   -999.25   -999.25   -999.25   -999.25   -999.25   -999.25   -999.25
 1290.8000   1290.80     12.99   -999.25   -999.25   -999.25   -999.25   -999.25   -999.25   -999.25   -999.25   -999.25   -999.25
 1291.0000   1291.00     14.92   -999.25   -999.25   -999.25   -999.25   -999.25   -999.25   -999.25   -999.25   -999.25   -999.25
 1291.2000   1291.20     16.84   -999.25   -999.25   -999.25   -999.25   -999.25   -999.25   -999.25   -999.25   -999.25   -999.25
 1291.4000   1291.40     18.76   -999.25   -999.25   -999.25   -999.25   -999.25   -999.25   -999.25   -999.25   -999.25   -999.25
 1291.6000   1291.60     20.68   -999.25   -999.25   -999.25   -999.25   -999.25   -999.25   -999.25   -999.25   -999.25   -999.25
 1291.8000   1291.80     22.60   -999.25   -999.25   -999.25   -999.25   -999.25   -999.25   -999.25   -999.25   -999.25   -999.25
 1292.0000   1292.00     24.52   -999.25   -999.25   -999.25   -999.25   -999.25   -999.25   -999.25   -999.25   -999.25   -999.25
 1292.2000   1292.20     26.44   -999.25   -999.25   -999.25   -999.25   -999.25   -999.25   -999.25   -999.25   -999.25   -999.25
 1292.4000   1292.40     27.93     70.00   2154.00      4.80   -999.25   -999.25   -999.25   -999.25   -999.25      1.99      0.59
 1292.6000   1292.60     27.73     69.00   2153.00     87.66   -999.25   -999.25      3.00    105.10     98.00      1.97      0.56
 1292.8000   1292.80     27.53     69.00   2162.00     46.36   -999.25   -999.25      2.52    101.69     98.96      1.94      0.53
 1293.0000   1293.00     27.33     67.00   2219.00     54.60   -999.25   -999.25      2.03     98.21     99.94      1.92      0.49
 1293.2000   1293.20     27.14     68.00   2210.00     28.33   -999.25   -999.25      2.82    104.91     95.05      1.89      0.46
 1293.4000   1293.40     26.94     70.00   2198.00     25.24   -999.25   -999.25      3.00    104.35     97.60      1.87      0.43
 1293.6000   1293.60     26.74     70.00   2141.00     31.92   -999.25      3.25      2.69    100.56    100.00      1.85      0.40
 1293.8000   1293.80     26.53     68.00   2151.00     56.48   -999.25      4.92      2.04     95.32    100.00      1.87      0.40
 1294.0000   1294.00     26.33     68.00   2228.00     22.85   -999.25      6.58      2.98    106.01     96.08      1.89      0.40
