~Version Information
VERS.                       2.00: SCHLUMBERGER LAS - Version 2.00
WRAP.                         NO: One line per depth step
~Well Information
STRT.M                 1195.0000: Start Depth
STOP.M                 1544.0000: End Depth
STEP.M                    0.2000:  
NULL.                    -999.25:  
COMP.                    Bapetco: COMPANY
WELL.                  BED-15-13: WELL
FLD .                        BED: FLD
SRVC.               Schlumberger: SERVICE COMPANY
LOC .                           : LOCATION
DATE.                  29-Jul-20: LOG DATE
UWI .                  20EGP0554: API NUMBER
~Curve Information
DEPT.M                          : MWD Tool Measurement Depth
BDEP.M                          : Bit Depth
KPOSI.M                          : Kelly Position (Raw)
HKL .KLBF                       : Hook Load
SPP .PSI                        : Standpipe Pressure
ROP .M/HR                       : Rate of Penetration (MWD Depth Ave.)
PSPD.M/MIN                      : Instantaneous Pipe Speed
VIBC.CPS                        : Vibration Count
SSL_H.                           : Stick Slip Level from HDS1
SSS_H.                           : Stick Slip Percentage from HDS1
RPM_H.                           : Average RPM from HDS1
VIBXYH.                           : Vibration XY
VIBZH.                           : Vibration Z
#     DEPT      BDEP     KPOSI       HKL       SPP       ROP      PSPD      VIBC     SSL_H     SSS_H     RPM_H    VIBXYH     VIBZH
#        M         M         M      KLBF       PSI      M/HR     M/MIN       CPS                                                  
#
# Relog Number     0         0         0         0         0         0         0         0         0         0         0         0
#
~ASCII Data
# ...
 1219.8000   1219.80     14.13     66.00   1781.01     26.24   -999.25      1.00      3.00    106.33     85.61      2.02      0.20
 1220.0000   1220.00     13.93     66.00   1791.00     23.75   -999.25      1.00      3.00    139.76     60.04      1.88      0.20
 1220.2000   1220.20     13.73     66.00   1782.01     26.32   -999.25      1.00      3.00    127.72     61.95      1.74      0.20
 1220.4000   1220.40     13.52     66.00   1809.00     24.49   -999.25      1.00      3.00    143.59     62.00      1.70      0.20
 1220.6000   1220.60     13.33     66.00   1803.00     24.08   -999.25      1.00      3.00    125.22     74.99      1.70      0.20
 1220.8000   1220.80     13.13     68.00   1784.00     20.30   -999.25      1.00      3.00    127.53     71.32      1.70      0.20
 1221.0000   1221.00     12.93    114.00   1770.00     21.59   -999.25      1.24      3.00    125.48     60.35      1.70      0.20
 1221.2000   1221.20     12.73     66.00   1789.00     21.96   -999.25      1.50      3.00    135.90     64.09      1.82      0.20
 1221.4000   1221.40     12.53     66.00   1800.00     21.71   -999.25      1.76      3.00    132.44     75.09      1.94      0.20
 1221.6000   1221.60     12.33     66.00   1765.00     30.38   -999.25      1.99      3.00    118.58     82.01      2.06      0.20
 1221.8000   1221.80     12.12     66.00   1786.99     21.31   -999.25      1.73      3.00    126.86     69.57      2.17      0.20
 1222.0000   1222.00     11.93     66.00   1777.00     25.19   -999.25      1.48      3.00    134.96     66.79      2.19      0.20
 1222.2000   1222.20     11.73     66.00   1792.00     24.02   -999.25      1.23      3.00    131.66     74.59      2.22      0.20
 1222.4000   1222.40     11.52     66.00   1777.00     23.61   -999.25      1.07      3.00    138.40     72.55      2.24      0.20
 1222.6000   1222.60     11.33     66.00   1770.00     21.31   -999.25      1.88      3.00    129.24     71.86      2.27      0.22
 1222.8000   1222.80     11.13     66.00   1789.00     24.21   -999.25      2.69      3.00    123.23     75.30      2.31      0.27
 1223.0000   1223.00     10.92     66.00   1796.00     22.25   -999.25      3.51      3.00    126.88     73.90      2.35      0.32
 1223.2000   1223.20     10.73     66.00   1830.99     18.39   -999.25      3.89      3.00    125.60     81.21      2.39      0.38
 1223.4000   1223.40     10.53     66.00   1810.00     23.31   -999.25      3.62      3.00    119.74     82.53      2.30      0.37
 1223.6000   1223.60     10.32     66.00   1810.99     24.72   -999.25      3.35      3.00    135.57     72.45      2.12      0.32
 1223.8000   1223.80     10.13     67.00   1770.01     24.78   -999.25      3.07      3.00    136.38     74.86      1.93      0.27
 1224.0000   1224.00      9.92     66.00   1814.00     23.88   -999.25      3.00      3.00    142.66     71.12      1.75      0.21
 1224.2000   1224.20      9.73     66.00   1808.99     18.17   -999.25      3.00      3.00    113.48     81.97      1.70      0.20
 1224.4000   1224.40      9.53     67.00   1784.00     22.40   -999.25      3.00      3.00    119.43     78.58      1.70      0.20
 1224.6000   1224.60      9.33     67.00   1758.00     22.80   -999.25      2.88      3.00    130.60     70.42      1.70      0.20
 1224.8000   1224.80      9.13     66.00   1793.99     35.28   -999.25      2.41      3.00    121.90     76.95      1.70      0.20
 1225.0000   1225.00      8.93     64.00   1872.00     33.17   -999.25      1.93      3.00    131.12     73.30      1.70      0.22
 1225.2000   1225.20      8.73     64.00   1878.99     22.14   -999.25      1.46      3.00    133.34     71.62      1.70      0.27
 1225.4000   1225.40      8.52     66.00   1853.00     15.76   -999.25      1.01      3.00    123.79     79.96      1.70      0.32
 1225.6000   1225.60      8.32     66.00   1759.02     56.14   -999.25      1.27      3.00    125.21     78.46      1.70      0.37
 1225.8000   1225.80      8.12     65.00   1887.97     15.90   -999.25      1.53      3.00    125.84     74.70      1.70      0.38
 1226.0000   1226.00      7.93     67.00   1811.00     23.80   -999.25      1.79      3.00    115.48     80.98      1.70      0.32
 1226.2000   1226.20      7.73     66.00   1828.99     22.65   -999.25      1.90      3.00    128.37     73.55      1.70      0.26
 1226.4000   1226.40      7.52     66.00   1790.00     26.10   -999.25      1.35      3.00    123.19     69.40      1.70      0.20
 1226.6000   1226.60      7.33     67.00   1791.00     21.38   -999.25      0.80      3.00    124.25     60.90      1.66      0.20
 1226.8000   1226.80      7.12     66.00   1792.00     21.48   -999.25      0.25      3.00    135.48     63.09      1.62      0.20
 1227.0000   1227.00      6.92     67.00   1779.00     19.13   -999.25      0.45      3.00    136.84     67.10      1.58      0.20
 1227.2000   1227.20      6.73     66.00   1804.00     21.17   -999.25      1.28      3.00    120.41     78.80      1.58      0.20
 1227.4000   1227.40      6.53     66.00   1804.00     21.71   -999.25      2.12      3.00    124.70     76.19      1.62      0.20
 1227.6000   1227.60      6.33     66.00   1785.00     27.69   -999.25      2.95      3.00    124.35     74.10      1.65      0.20
 1227.8000   1227.80      6.12     67.00   1752.01     22.20   -999.25      2.77      3.00    129.91     72.21      1.69      0.20
 1228.0000   1228.00      5.93     66.00   1757.00     21.27   -999.25      2.53      3.00    125.04     56.28      1.67      0.20
 1228.2000   1228.20      5.72     67.00   1767.01     25.17   -999.25      2.28      3.00    125.81     61.97      1.63      0.20
 1228.4000   1228.40      5.53     65.00   1791.00     29.14   -999.25      2.04      3.00    142.62     62.00      1.60      0.20
 1228.6000   1228.60      5.33     67.00   1787.00     15.75   -999.25      1.77      3.00    131.97     64.24      1.56      0.20
 1228.8000   1228.80      5.13     67.00   1755.01     25.58   -999.25      1.49      3.00    116.75     60.76      1.56      0.20
 1229.0000   1229.00      4.93     67.00   1771.00     21.86   -999.25      1.22      3.00    111.41     66.97      1.56      0.20
 1229.2000   1229.20      4.72     67.00   1761.00     24.65   -999.25      0.95      3.00    130.94     69.69      1.56      0.20
 1229.4000   1229.40      4.53     66.00   1745.00     26.60   -999.25      0.72      3.00    138.52     62.00      1.56      0.20
 1229.6000   1229.60      4.33     67.00   1748.99     21.97   -999.25      0.49      3.00    120.16     61.26      1.64      0.20
 1229.8000   1229.80      4.13     68.00   1699.01     28.91   -999.25      0.26      3.00    111.84     59.63      1.71      0.20
 1230.0000   1230.00      3.92     67.00   1753.00     28.46   -999.25      0.03      3.00    105.46     58.05      1.79      0.20
 1230.2000   1230.20      3.73     67.00   1734.01     16.36   -999.25      0.76      3.00    124.52     60.83      1.85      0.20
 1230.4000   1230.40      3.53     67.00   1760.00     23.33   -999.25      1.64      3.00    126.54     61.05      1.89      0.20
 1230.6000   1230.60      3.33     67.00   1763.00     26.17   -999.25      2.52      3.00    124.39     69.85      1.93      0.20
 1230.8000   1230.80      3.13     66.00   1795.99     16.19   -999.25      2.77      3.00    129.44     68.25      1.97      0.20
 1231.0000   1231.00      2.92     67.00   1770.00     24.42   -999.25      2.26      3.00    112.03     82.87      1.93      0.23
 1231.2000   1231.20      2.73     67.00   1742.99     23.63   -999.25      1.74      3.00    114.56     80.41      1.87      0.28
 1231.4000   1231.40      2.53     67.00   1690.01     30.74   -999.25      1.23      3.00    140.95     65.85      1.81      0.32
 1231.6000   1231.60      2.33     66.00   1755.99     25.19   -999.25      1.49      3.00    149.04     61.07      1.75      0.36
 1231.8000   1231.80      2.13     67.00   1699.01     37.79   -999.25      2.37      3.00    148.49     62.72      1.70      0.39
 1232.0000   1232.00      1.93     67.00   1724.00     26.84   -999.25      3.25      3.00    146.66     62.99      1.70      0.34
