~Version Information
VERS.                       2.00: SCHLUMBERGER LAS - Version 2.00
WRAP.                         NO: One line per depth step
~Well Information
STRT.M                 1790.0000: Start Depth
STOP.M                 3303.0000: End Depth
STEP.M                    0.2000:  
NULL.                    -999.25:  
COMP.                    Bapetco: COMPANY
WELL.                  BED-15-13: WELL
FLD .                        BED: FLD
SRVC.               Schlumberger: SERVICE COMPANY
LOC .                           : LOCATION
DATE.                  05-Aug-20: LOG DATE
UWI .                  20EGP0554: API NUMBER
~Curve Information
DEPT.M                          : MWD Tool Measurement Depth
BDEP.M                          : Bit Depth
KPOSI.M                          : Kelly Position (Raw)
HKL .KLBF                       : Hook Load
SPP .PSI                        : Standpipe Pressure
ROP .M/HR                       : Rate of Penetration (MWD Depth Ave.)
PSPD.FT/MIN                     : Instantaneous Pipe Speed
VIBC.CPS                        : Vibration Count
SSS_H.                           : Stick Slip Percentage from HDS1
SSL_H.                           : Stick Slip Level from HDS1
RPMMX_H.                           : Maximum RPM from HDS1
TNR .                           : Time Not Rotating from HDS1
PTNR.                           : Percentage Time Not Rotating from HDS1
RPM_H.                           : Average RPM from HDS1
RPMMX_H.                           : Maximum RPM from HDS1
DRPM_H.                           : Differential RPM from HDS1
VIBXH.                           : Vibration X
VIBYH.                           : Vibration Y
VIBZH.                           : Vibration Z
TEMPH.DEG C                      : Temperature from JTDAS Tool
#     DEPT      BDEP     KPOSI       HKL       SPP       ROP      PSPD      VIBC     SSS_H     SSL_H   RPMMX_H       TNR      PTNR     RPM_H   RPMMX_H    DRPM_H     VIBXH     VIBYH     VIBZH     TEMPH
#        M         M         M      KLBF       PSI      M/HR    FT/MIN       CPS                                                                                                                   DEG C
#
# Relog Number     0         0         0         0         0         0         0         0         0         0         0         0         0         0         0         0         0         0         0
#
~ASCII Data
# ...
 3118.0000   3118.00     19.64     86.00   2582.00     30.91   -999.25     11.00   -999.25   -999.25   -999.25   -999.25   -999.25   -999.25   -999.25   -999.25      1.60      1.54      0.86     78.00
 3118.2000   3118.20     19.43     85.00   2501.03     32.44   -999.25     13.54   -999.25   -999.25   -999.25   -999.25   -999.25   -999.25   -999.25   -999.25      1.60      1.51      0.89     78.00
 3118.4000   3118.40     19.24     84.00   2617.98     43.02   -999.25     16.08   -999.25   -999.25   -999.25   -999.25   -999.25   -999.25   -999.25   -999.25      1.60      1.48      0.92     78.00
 3118.6000   3118.60     19.03     84.00   2582.02     60.56   -999.25     17.38   -999.25   -999.25   -999.25   -999.25   -999.25   -999.25   -999.25   -999.25      1.60      1.45      0.95     78.00
 3118.8000   3118.80     18.83     83.00   2529.01     41.72   -999.25     17.97   -999.25   -999.25   -999.25   -999.25   -999.25   -999.25   -999.25   -999.25      1.60      1.41      0.99     78.00
 3119.0000   3119.00     18.64     82.00   2560.00     19.13   -999.25     18.57   -999.25   -999.25   -999.25   -999.25   -999.25   -999.25   -999.25   -999.25      1.55      1.40      1.05     78.00
 3119.2000   3119.20     18.44     83.00   2552.00      9.77   -999.25     17.68   -999.25   -999.25   -999.25   -999.25   -999.25   -999.25   -999.25   -999.25      1.48      1.40      1.12     78.00
 3119.4000   3119.40     18.24     83.00   2535.02     41.09   -999.25     12.88   -999.25   -999.25   -999.25   -999.25   -999.25   -999.25   -999.25   -999.25      1.40      1.40      1.20     78.00
 3119.6000   3119.60     18.03     82.00   2576.98     29.86   -999.25      8.08   -999.25   -999.25   -999.25   -999.25   -999.25   -999.25   -999.25   -999.25      1.48      1.48      1.12     78.00
 3119.8000   3119.80     17.83     82.00   2616.99     16.39   -999.25      3.27   -999.25   -999.25   -999.25   -999.25   -999.25   -999.25   -999.25   -999.25      1.56      1.56      1.04     78.00
 3120.0000   3120.00     17.63     84.00   2622.00     11.75   -999.25      5.29   -999.25   -999.25   -999.25   -999.25   -999.25   -999.25   -999.25   -999.25      1.63      1.60      1.00     78.00
 3120.2000   3120.20     17.43     84.00   2667.98     31.92   -999.25      9.76   -999.25   -999.25   -999.25   -999.25   -999.25   -999.25   -999.25   -999.25      1.69      1.60      1.00     78.00
 3120.4000   3120.40     17.23     84.00   2597.00     12.14   -999.25     11.95   -999.25   -999.25   -999.25   -999.25   -999.25   -999.25   -999.25   -999.25      1.75      1.60      1.00     78.00
 3120.6000   3120.60     17.04     84.00   2587.00     18.61   -999.25      8.12   -999.25   -999.25   -999.25   -999.25   -999.25   -999.25   -999.25   -999.25      1.77      1.64      1.01     78.00
 3120.8000   3120.80     16.83     87.00   2556.01     10.20   -999.25      4.30   -999.25   -999.25   -999.25   -999.25   -999.25   -999.25   -999.25   -999.25      1.66      1.81      1.07     78.00
 3121.0000   3121.00     16.63     87.00   2438.00     46.91   -999.25      6.52   -999.25   -999.25   -999.25   -999.25   -999.25   -999.25   -999.25   -999.25      1.55      1.98      1.13     78.00
 3121.2000   3121.20     16.44     86.00   2469.02     46.93   -999.25     11.84   -999.25   -999.25   -999.25   -999.25   -999.25   -999.25   -999.25   -999.25      1.43      2.15      1.18     78.00
 3121.4000   3121.40     16.24     84.00   2544.00     27.52   -999.25     17.16   -999.25   -999.25   -999.25   -999.25   -999.25   -999.25   -999.25   -999.25      1.40      2.15      1.20     78.00
 3121.6000   3121.60     16.04     84.00   2545.00     15.45   -999.25     22.48   -999.25   -999.25   -999.25   -999.25   -999.25   -999.25   -999.25   -999.25      1.40      2.07      1.20     78.00
 3121.8000   3121.80     15.83     84.00   2547.00     11.57   -999.25     24.00   -999.25   -999.25   -999.25   -999.25   -999.25   -999.25   -999.25   -999.25      1.41      1.99      1.20     78.05
 3122.0000   3122.00     15.63     84.00   2587.00     23.48   -999.25     24.00   -999.25   -999.25   -999.25   -999.25   -999.25   -999.25   -999.25   -999.25      1.48      1.92      1.20     78.39
 3122.2000   3122.20     15.44     85.00   2586.99     14.65   -999.25     24.00   -999.25   -999.25   -999.25   -999.25   -999.25   -999.25   -999.25   -999.25      1.55      1.85      1.20     78.74
 3122.4000   3122.40     15.24     84.00   2528.00     15.58   -999.25     26.20   -999.25   -999.25   -999.25   -999.25   -999.25   -999.25   -999.25   -999.25      1.62      1.82      1.18     79.00
 3122.6000   3122.60     15.03     84.00   2534.00     11.03   -999.25     28.52   -999.25   -999.25   -999.25   -999.25   -999.25   -999.25   -999.25   -999.25      1.68      1.88      1.12     79.00
 3122.8000   3122.80     14.83     84.00   2537.00     43.61   -999.25     29.80   -999.25   -999.25   -999.25   -999.25   -999.25   -999.25   -999.25   -999.25      1.74      1.94      1.06     79.00
 3123.0000   3123.00     14.64     83.00   2640.00     23.88   -999.25     29.26   -999.25   -999.25   -999.25   -999.25   -999.25   -999.25   -999.25   -999.25      1.80      2.00      1.00     79.00
 3123.2000   3123.20     14.43     83.00   2668.00     24.20   -999.25     28.72   -999.25   -999.25   -999.25   -999.25   -999.25   -999.25   -999.25   -999.25      1.80      1.92      1.08     79.00
 3123.4000   3123.40     14.23     82.00   2653.97     28.01   -999.25     28.18   -999.25   -999.25   -999.25   -999.25   -999.25   -999.25   -999.25   -999.25      1.80      1.84      1.16     79.00
 3123.6000   3123.60     14.03     84.00   2592.03      9.30   -999.25     27.00   -999.25   -999.25   -999.25   -999.25   -999.25   -999.25   -999.25   -999.25      1.80      1.86      1.23     79.00
 3123.8000   3123.80     13.84     83.00   2564.01     27.21   -999.25     25.49   -999.25   -999.25   -999.25   -999.25   -999.25   -999.25   -999.25   -999.25      1.80      1.97      1.29     79.00
 3124.0000   3124.00     13.63     83.00   2615.00     15.65   -999.25     24.01   -999.25   -999.25   -999.25   -999.25   -999.25   -999.25   -999.25   -999.25      1.80      2.08      1.34     79.00
 3124.2000   3124.20     13.43     83.00   2561.01     21.28   -999.25     25.14   -999.25   -999.25   -999.25   -999.25   -999.25   -999.25   -999.25   -999.25      1.80      2.19      1.40     79.00
 3124.4000   3124.40     13.24     83.00   2597.01     20.57   -999.25     26.26   -999.25   -999.25   -999.25   -999.25   -999.25   -999.25   -999.25   -999.25      1.80      2.09      1.35     79.00
 3124.6000   3124.60     13.03     83.00   2616.99     21.48   -999.25     27.39   -999.25   -999.25   -999.25   -999.25   -999.25   -999.25   -999.25   -999.25      1.80      1.98      1.29     79.00
 3124.8000   3124.80     12.84     83.00   2629.00     23.11   -999.25     26.00   -999.25   -999.25   -999.25   -999.25   -999.25   -999.25   -999.25   -999.25      1.80      1.87      1.23     79.00
 3125.0000   3125.00     12.64     82.00   2613.00     19.67   -999.25     21.60   -999.25   -999.25   -999.25   -999.25   -999.25   -999.25   -999.25   -999.25      1.80      1.80      1.17     79.00
 3125.2000   3125.20     12.44     83.00   2624.00     17.67   -999.25     17.21   -999.25   -999.25   -999.25   -999.25   -999.25   -999.25   -999.25   -999.25      1.80      1.80      1.11     79.00
 3125.4000   3125.40     12.24     83.00   2639.00     20.29   -999.25     15.10   -999.25   -999.25   -999.25   -999.25   -999.25   -999.25   -999.25   -999.25      1.80      1.80      1.05     79.00
 3125.6000   3125.60     12.03     83.00   2647.00     19.31   -999.25     19.16   -999.25   -999.25   -999.25   -999.25   -999.25   -999.25   -999.25   -999.25      1.79      1.84      1.00     79.00
 3125.8000   3125.80     11.83     83.00   2659.00     21.38   -999.25     23.22   -999.25   -999.25   -999.25   -999.25   -999.25   -999.25   -999.25   -999.25      1.73      2.00      1.00     79.00
