~Version Information
VERS.                       2.00: SCHLUMBERGER LAS - Version 2.00
WRAP.                         NO: One line per depth step
~Well Information
STRT.M                 1195.0000: Start Depth
STOP.M                 1544.0000: End Depth
STEP.M                    0.2000:  
NULL.                    -999.25:  
COMP.                    Bapetco: COMPANY
WELL.                  BED-15-13: WELL
FLD .                        BED: FLD
SRVC.               Schlumberger: SERVICE COMPANY
LOC .                           : LOCATION
DATE.                  29-Jul-20: LOG DATE
UWI .                  20EGP0554: API NUMBER
~Curve Information
DEPT.M                          : MWD Tool Measurement Depth
BDEP.M                          : Bit Depth
KPOSI.M                          : Kelly Position (Raw)
HKL .KLBF                       : Hook Load
SPP .PSI                        : Standpipe Pressure
ROP .M/HR                       : Rate of Penetration (MWD Depth Ave.)
PSPD.M/MIN                      : Instantaneous Pipe Speed
VIBC.CPS                        : Vibration Count
SSL_H.                           : Stick Slip Level from HDS1
SSS_H.                           : Stick Slip Percentage from HDS1
RPM_H.                           : Average RPM from HDS1
VIBXYH.                           : Vibration XY
VIBZH.                           : Vibration Z
#     DEPT      BDEP     KPOSI       HKL       SPP       ROP      PSPD      VIBC     SSL_H     SSS_H     RPM_H    VIBXYH     VIBZH
#        M         M         M      KLBF       PSI      M/HR     M/MIN       CPS                                                  
#
# Relog Number     0         0         0         0         0         0         0         0         0         0         0         0
#
~ASCII Data
# ...
 1331.4000   1331.40     17.47     68.00   2330.00     45.54   -999.25      5.62      1.25     68.06     99.01      2.26      0.40
 1331.6000   1331.60     17.28     68.00   2346.00     59.03   -999.25      4.02      1.00     59.59     98.43      2.19      0.40
 1331.8000   1331.80     17.07     68.00   2310.01     51.89   -999.25      3.64      1.00     53.81     99.38      2.11      0.40
 1332.0000   1332.00     16.88     68.00   2323.00     51.32   -999.25      3.27      1.00     51.12     99.69      2.03      0.40
 1332.2000   1332.20     16.67     68.00   2354.99     51.20   -999.25      2.91      1.00     54.40     98.77      1.95      0.40
 1332.4000   1332.40     16.48     69.00   2296.01     52.17   -999.25      2.54      0.91     55.35     98.19      1.87      0.40
 1332.6000   1332.60     16.28     68.00   2303.01     51.76   -999.25      2.18      0.34     44.50     99.32      1.78      0.40
 1332.8000   1332.80     16.08     69.00   2354.99     36.98   -999.25      1.81      0.34     48.17     99.66      1.70      0.40
 1333.0000   1333.00     15.87     68.00   2329.00     53.61   -999.25      1.45      1.21     73.57     98.79      1.62      0.40
 1333.2000   1333.20     15.67     69.00   2300.00     57.09   -999.25      1.08      2.00     96.58     97.90      1.56      0.39
 1333.4000   1333.40     15.48     70.00   2284.00     32.90   -999.25      1.10      2.00     92.03     96.67      1.54      0.37
 1333.6000   1333.60     15.27     69.00   2328.99     46.55   -999.25      1.23      2.00     90.04     96.76      1.52      0.34
 1333.8000   1333.80     15.07     70.00   2275.01     58.65   -999.25      1.36      2.00     91.03     98.40      1.50      0.31
 1334.0000   1334.00     14.88     68.00   2320.00     71.06   -999.25      1.49      2.00     91.86     99.97      1.48      0.28
 1334.2000   1334.20     14.67     69.00   2301.00     40.40   -999.25      1.62      2.00     86.35     98.91      1.46      0.26
 1334.4000   1334.40     14.48     69.00   2291.00     51.45   -999.25      1.75      2.00     82.98     97.82      1.44      0.23
 1334.6000   1334.60     14.27     69.00   2324.00     33.07   -999.25      1.88      2.00     92.28     96.60      1.42      0.20
 1334.8000   1334.80     14.08     69.00   2337.00     56.65   -999.25      1.99      2.00     96.35     97.14      1.45      0.20
 1335.0000   1335.00     13.88     68.00   2298.00     63.12   -999.25      1.89      2.00     95.32     99.40      1.49      0.20
 1335.2000   1335.20     13.68     68.00   2315.99     71.28   -999.25      1.79      2.00     94.28    101.66      1.53      0.20
 1335.4000   1335.40     13.48     68.00   2294.00     61.52   -999.25      1.70      1.62     80.02    100.48      1.58      0.20
 1335.6000   1335.60     13.27     68.00   2342.00     49.19   -999.25      1.60      1.17     63.44     98.68      1.62      0.20
 1335.8000   1335.80     13.08     68.00   2331.00     59.73   -999.25      1.50      1.00     53.84     98.47      1.66      0.20
 1336.0000   1336.00     12.87     69.00   2302.00     62.37   -999.25      1.40      1.00     48.51     99.22      1.70      0.20
 1336.2000   1336.20     12.68     68.00   2319.00     63.52   -999.25      1.30      1.00     43.19     99.97      1.74      0.20
 1336.4000   1336.40     12.48     68.00   2307.00     65.84   -999.25      1.21      0.63     35.36     99.26      1.79      0.20
 1336.6000   1336.60     12.27     68.00   2326.00     64.24   -999.25      1.11      0.24     27.44     98.49      1.83      0.20
 1336.8000   1336.80     12.08     68.00   2361.99     55.13   -999.25      1.01      0.00     21.64     98.00      1.83      0.21
 1337.0000   1337.00     11.88     68.00   2355.00     50.30   -999.25      1.20      0.00     19.47     98.00      1.79      0.24
 1337.2000   1337.20     11.67     68.00   2325.01     65.32   -999.25      1.42      0.00     17.34     98.00      1.76      0.26
 1337.4000   1337.40     11.47     68.00   2355.00     56.87   -999.25      1.64      0.00     16.88     98.00      1.73      0.28
 1337.6000   1337.60     11.28     69.00   2291.00     52.89   -999.25      1.87      0.00     16.42     98.00      1.70      0.30
 1337.8000   1337.80     11.07     69.00   2323.99     53.05   -999.25      2.09      0.00     23.79     98.84      1.67      0.32
 1338.0000   1338.00     10.87     69.00   2330.00     39.55   -999.25      2.31      0.00     33.11     99.90      1.64      0.35
 1338.2000   1338.20     10.67     70.00   2262.02     57.19   -999.25      2.53      0.36     38.34    100.00      1.61      0.37
 1338.4000   1338.40     10.47     68.00   2323.99     67.24   -999.25      2.75      0.76     43.14    100.00      1.57      0.39
 1338.6000   1338.60     10.27     68.00   2324.00     54.05   -999.25      2.98      1.00     49.23    100.00      1.58      0.40
 1338.8000   1338.80     10.07     69.00   2303.01     59.88   -999.25      3.00      1.00     57.22    100.00      1.62      0.40
 1339.0000   1339.00      9.87     69.00   2291.00     59.22   -999.25      3.00      1.00     65.20    100.00      1.65      0.40
 1339.2000   1339.20      9.67     69.00   2283.00     61.52   -999.25      3.00      1.00     67.69     98.60      1.68      0.40
 1339.4000   1339.40      9.48     68.00   2300.00     66.60   -999.25      3.00      1.00     69.58     97.04      1.71      0.40
 1339.6000   1339.60      9.27     68.00   2388.00     40.26   -999.25      3.00      1.33     76.21     96.67      1.75      0.40
 1339.8000   1339.80      9.07     68.00   2365.01     61.67   -999.25      3.00      2.33     92.25     98.66      1.78      0.40
 1340.0000   1340.00      8.88     69.00   2332.00     52.33   -999.25      3.00      3.00    103.25     99.55      1.81      0.40
 1340.2000   1340.20      8.68     70.00   2306.99     31.95   -999.25      3.00      3.00    103.99     98.17      1.84      0.40
 1340.4000   1340.40      8.47     71.00   2276.00     31.95   -999.25      2.89      2.49     97.42     99.02      1.84      0.37
 1340.6000   1340.60      8.28     68.00   2354.00     57.97   -999.25      2.76      1.91     87.33     99.82      1.84      0.34
 1340.8000   1340.80      8.07     68.00   2381.99     43.87   -999.25      2.62      1.33     63.71     98.67      1.84      0.32
 1341.0000   1341.00      7.87     69.00   2310.00     36.22   -999.25      2.49      1.20     59.67     98.40      1.84      0.29
 1341.2000   1341.20      7.67     69.00   2301.00     61.52   -999.25      2.35      1.68     82.69     99.36      1.84      0.26
 1341.4000   1341.40      7.47     69.00   2320.00     47.72   -999.25      2.22      2.00     96.59     99.61      1.84      0.23
 1341.6000   1341.60      7.27     70.00   2272.00     41.26   -999.25      2.08      2.00     92.38     98.43      1.84      0.20
 1341.8000   1341.80      7.07     70.00   2259.00     42.33   -999.25      2.05      1.72     84.42     98.56      1.84      0.22
 1342.0000   1342.00      6.87     68.00   2269.00     75.88   -999.25      2.18      1.27     74.25     99.45      1.84      0.25
 1342.2000   1342.20      6.67     68.00   2357.99     35.99   -999.25      2.30      1.57     77.79     98.85      1.84      0.28
 1342.4000   1342.40      6.48     70.00   2297.01     33.65   -999.25      2.43      2.98    102.00     96.07      1.84      0.30
 1342.6000   1342.60      6.27     70.00   2239.00     57.77   -999.25      2.56      2.57    100.34     97.71      1.84      0.33
 1342.8000   1342.80      6.07     69.00   2271.99     60.28   -999.25      2.69      2.17     98.67     99.34      1.84      0.36
 1343.0000   1343.00      5.87     69.00   2318.00     33.67   -999.25      2.81      2.34     99.39     99.31      1.84      0.38
 1343.2000   1343.20      5.67     70.00   2282.01     60.10   -999.25      2.94      2.92    101.72     98.16      1.84      0.40
 1343.4000   1343.40      5.47     68.00   2316.00     44.41   -999.25      2.89      2.56     99.32     98.00      1.82      0.40
 1343.6000   1343.60      5.27     68.00   2338.99     50.63   -999.25      2.68      2.04     96.17     98.00      1.81      0.40
