~Version Information
VERS.                       2.00: SCHLUMBERGER LAS - Version 2.00
WRAP.                         NO: One line per depth step
~Well Information
STRT.M                 1790.0000: Start Depth
STOP.M                 3303.0000: End Depth
STEP.M                    0.2000:  
NULL.                    -999.25:  
COMP.                    Bapetco: COMPANY
WELL.                  BED-15-13: WELL
FLD .                        BED: FLD
SRVC.               Schlumberger: SERVICE COMPANY
LOC .                           : LOCATION
DATE.                  05-Aug-20: LOG DATE
UWI .                  20EGP0554: API NUMBER
~Curve Information
DEPT.M                          : MWD Tool Measurement Depth
BDEP.M                          : Bit Depth
KPOSI.M                          : Kelly Position (Raw)
HKL .KLBF                       : Hook Load
SPP .PSI                        : Standpipe Pressure
ROP .M/HR                       : Rate of Penetration (MWD Depth Ave.)
PSPD.FT/MIN                     : Instantaneous Pipe Speed
VIBC.CPS                        : Vibration Count
SSS_H.                           : Stick Slip Percentage from HDS1
SSL_H.                           : Stick Slip Level from HDS1
RPMMX_H.                           : Maximum RPM from HDS1
TNR .                           : Time Not Rotating from HDS1
PTNR.                           : Percentage Time Not Rotating from HDS1
RPM_H.                           : Average RPM from HDS1
RPMMX_H.                           : Maximum RPM from HDS1
DRPM_H.                           : Differential RPM from HDS1
VIBXH.                           : Vibration X
VIBYH.                           : Vibration Y
VIBZH.                           : Vibration Z
TEMPH.DEG C                      : Temperature from JTDAS Tool
#     DEPT      BDEP     KPOSI       HKL       SPP       ROP      PSPD      VIBC     SSS_H     SSL_H   RPMMX_H       TNR      PTNR     RPM_H   RPMMX_H    DRPM_H     VIBXH     VIBYH     VIBZH     TEMPH
#        M         M         M      KLBF       PSI      M/HR    FT/MIN       CPS                                                                                                                   DEG C
#
# Relog Number     0         0         0         0         0         0         0         0         0         0         0         0         0         0         0         0         0         0         0
#
~ASCII Data
# ...
 3270.0000   3270.00     11.88     89.00   2683.00     33.78   -999.25      2.30   -999.25   -999.25   -999.25   -999.25   -999.25   -999.25   -999.25   -999.25      1.00      1.06      0.94     82.00
 3270.2000   3270.20     11.69     90.00   2659.00     13.66   -999.25      1.71   -999.25   -999.25   -999.25   -999.25   -999.25   -999.25   -999.25   -999.25      1.00      1.00      1.00     82.00
 3270.4000   3270.40     11.49     90.00   2649.00     32.91   -999.25      1.15   -999.25   -999.25   -999.25   -999.25   -999.25   -999.25   -999.25   -999.25      0.90      0.95      0.90     82.26
 3270.6000   3270.60     11.29     90.00   2657.00     15.71   -999.25      0.59   -999.25   -999.25   -999.25   -999.25   -999.25   -999.25   -999.25   -999.25      0.80      0.90      0.80     82.51
 3270.8000   3270.80     11.08     90.00   2656.00     28.62   -999.25      0.03   -999.25   -999.25   -999.25   -999.25   -999.25   -999.25   -999.25   -999.25      0.70      0.85      0.70     82.76
 3271.0000   3271.00     10.89     90.00   2700.00     23.49   -999.25      1.13   -999.25   -999.25   -999.25   -999.25   -999.25   -999.25   -999.25   -999.25      0.61      0.81      0.61     83.00
 3271.2000   3271.20     10.68     91.00   2637.00     15.72   -999.25      2.33   -999.25   -999.25   -999.25   -999.25   -999.25   -999.25   -999.25   -999.25      0.75      0.95      0.75     83.00
 3271.4000   3271.40     10.48     89.00   2645.00     34.77   -999.25      3.53   -999.25   -999.25   -999.25   -999.25   -999.25   -999.25   -999.25   -999.25      0.90      1.10      0.90     83.00
 3271.6000   3271.60     10.28     89.00   2638.00     13.42   -999.25      3.37   -999.25   -999.25   -999.25   -999.25   -999.25   -999.25   -999.25   -999.25      1.00      1.19      1.01     83.00
 3271.8000   3271.80     10.08     88.00   2665.99     38.43   -999.25      2.34   -999.25   -999.25   -999.25   -999.25   -999.25   -999.25   -999.25   -999.25      1.00      1.14      1.06     83.00
 3272.0000   3272.00      9.88     88.00   2769.00     34.89   -999.25      1.31   -999.25   -999.25   -999.25   -999.25   -999.25   -999.25   -999.25   -999.25      1.00      1.10      1.10     83.00
 3272.2000   3272.20      9.69     90.00   2628.00     15.82   -999.25      0.27   -999.25   -999.25   -999.25   -999.25   -999.25   -999.25   -999.25   -999.25      1.00      1.05      1.15     83.00
 3272.4000   3272.40      9.49     90.00   2610.02     28.32   -999.25      0.18   -999.25   -999.25   -999.25   -999.25   -999.25   -999.25   -999.25   -999.25      1.00      1.01      1.19     83.00
 3272.6000   3272.60      9.29     88.00   2648.98     13.08   -999.25      0.43   -999.25   -999.25   -999.25   -999.25   -999.25   -999.25   -999.25   -999.25      1.00      1.00      1.15     83.00
 3272.8000   3272.80      9.09     87.00   2728.98     39.91   -999.25      0.68   -999.25   -999.25   -999.25   -999.25   -999.25   -999.25   -999.25   -999.25      1.00      1.00      1.09     83.00
 3273.0000   3273.00      8.89     86.00   2728.00     33.31   -999.25      0.93   -999.25   -999.25   -999.25   -999.25   -999.25   -999.25   -999.25   -999.25      1.00      1.00      1.03     83.00
 3273.2000   3273.20      8.69     86.00   2833.00     17.58   -999.25      1.00   -999.25   -999.25   -999.25   -999.25   -999.25   -999.25   -999.25   -999.25      0.97      1.00      1.00     83.00
 3273.4000   3273.40      8.48     87.00   2813.98     30.53   -999.25      1.00   -999.25   -999.25   -999.25   -999.25   -999.25   -999.25   -999.25   -999.25      0.91      1.00      1.00     83.00
 3273.6000   3273.60      8.28     86.00   2778.02     26.12   -999.25      1.00   -999.25   -999.25   -999.25   -999.25   -999.25   -999.25   -999.25   -999.25      0.86      1.00      1.00     83.00
 3273.8000   3273.80      8.09     87.00   2741.01      7.76   -999.25      1.33   -999.25   -999.25   -999.25   -999.25   -999.25   -999.25   -999.25   -999.25      0.80      1.00      0.99     83.00
 3274.0000   3274.00      7.88     87.00   2690.00     35.64   -999.25      2.41   -999.25   -999.25   -999.25   -999.25   -999.25   -999.25   -999.25   -999.25      0.88      1.00      0.84     83.00
 3274.2000   3274.20      7.69     86.00   2750.00     32.10   -999.25      3.49   -999.25   -999.25   -999.25   -999.25   -999.25   -999.25   -999.25   -999.25      0.95      1.00      0.69     83.00
 3274.4000   3274.40      7.48     85.00   2749.00     11.90   -999.25      3.81   -999.25   -999.25   -999.25   -999.25   -999.25   -999.25   -999.25   -999.25      1.00      1.00      0.63     83.00
 3274.6000   3274.60      7.28     85.00   2753.00     22.37   -999.25      3.45   -999.25   -999.25   -999.25   -999.25   -999.25   -999.25   -999.25   -999.25      1.00      1.00      0.69     83.00
 3274.8000   3274.80      7.09     85.00   2754.00     20.53   -999.25      3.09   -999.25   -999.25   -999.25   -999.25   -999.25   -999.25   -999.25   -999.25      1.00      1.00      0.76     83.00
 3275.0000   3275.00      6.88     85.00   2780.00     10.12   -999.25      3.29   -999.25   -999.25   -999.25   -999.25   -999.25   -999.25   -999.25   -999.25      1.00      1.00      0.84     83.00
 3275.2000   3275.20      6.69     85.00   2769.00     19.38   -999.25      3.68   -999.25   -999.25   -999.25   -999.25   -999.25   -999.25   -999.25   -999.25      1.00      1.00      0.91     83.00
 3275.4000   3275.40      6.48     84.00   2784.00     28.44   -999.25      4.17   -999.25   -999.25   -999.25   -999.25   -999.25   -999.25   -999.25   -999.25      1.00      1.00      0.99     83.00
 3275.6000   3275.60      6.28     85.00   2775.00     11.99   -999.25      5.07   -999.25   -999.25   -999.25   -999.25   -999.25   -999.25   -999.25   -999.25      1.00      1.00      0.93     83.00
 3275.8000   3275.80      6.09     84.00   2769.00     18.28   -999.25      5.96   -999.25   -999.25   -999.25   -999.25   -999.25   -999.25   -999.25   -999.25      1.00      1.00      0.85     83.00
 3276.0000   3276.00      5.88     87.00   2698.00      6.91   -999.25      4.47   -999.25   -999.25   -999.25   -999.25   -999.25   -999.25   -999.25   -999.25      1.00      1.02      0.78     83.00
 3276.2000   3276.20      5.69     90.00   2653.01     60.64   -999.25      2.87   -999.25   -999.25   -999.25   -999.25   -999.25   -999.25   -999.25   -999.25      1.00      1.08      0.72     83.00
 3276.4000   3276.40      5.48     89.00   2679.99     74.60   -999.25      1.28   -999.25   -999.25   -999.25   -999.25   -999.25   -999.25   -999.25   -999.25      1.00      1.13      0.67     83.00
 3276.6000   3276.60      5.28     90.00   2657.01     24.71   -999.25      0.04   -999.25   -999.25   -999.25   -999.25   -999.25   -999.25   -999.25   -999.25      1.00      1.19      0.61     83.00
 3276.8000   3276.80      5.08     91.00   2575.02     27.00   -999.25      0.21   -999.25   -999.25   -999.25   -999.25   -999.25   -999.25   -999.25   -999.25      1.00      1.17      0.63     83.00
 3277.0000   3277.00      4.89     90.00   2615.00     73.74   -999.25      0.39   -999.25   -999.25   -999.25   -999.25   -999.25   -999.25   -999.25   -999.25      1.00      1.14      0.66     83.00
 3277.2000   3277.20      4.68     90.00   2650.99     63.91   -999.25      0.56   -999.25   -999.25   -999.25   -999.25   -999.25   -999.25   -999.25   -999.25      1.00      1.11      0.69     83.00
 3277.4000   3277.40      4.49     91.00   2614.00     19.45   -999.25      0.74   -999.25   -999.25   -999.25   -999.25   -999.25   -999.25   -999.25   -999.25      1.00      1.08      0.72     83.00
 3277.6000   3277.60      4.28     90.00   2624.00     65.42   -999.25      0.91   -999.25   -999.25   -999.25   -999.25   -999.25   -999.25   -999.25   -999.25      1.00      1.05      0.75     83.00
 3277.8000   3277.80      4.09     89.00   2683.99     45.03   -999.25      1.33   -999.25   -999.25   -999.25   -999.25   -999.25   -999.25   -999.25   -999.25      1.00      1.02      0.78     83.00
