~Version Information
VERS.                       2.00: SCHLUMBERGER LAS - Version 2.00
WRAP.                         NO: One line per depth step
~Well Information
STRT.M                 1195.0000: Start Depth
STOP.M                 1544.0000: End Depth
STEP.M                    0.2000:  
NULL.                    -999.25:  
COMP.                    Bapetco: COMPANY
WELL.                  BED-15-13: WELL
FLD .                        BED: FLD
SRVC.               Schlumberger: SERVICE COMPANY
LOC .                           : LOCATION
DATE.                  29-Jul-20: LOG DATE
UWI .                  20EGP0554: API NUMBER
~Curve Information
DEPT.M                          : MWD Tool Measurement Depth
BDEP.M                          : Bit Depth
KPOSI.M                          : Kelly Position (Raw)
HKL .KLBF                       : Hook Load
SPP .PSI                        : Standpipe Pressure
ROP .M/HR                       : Rate of Penetration (MWD Depth Ave.)
PSPD.M/MIN                      : Instantaneous Pipe Speed
VIBC.CPS                        : Vibration Count
SSL_H.                           : Stick Slip Level from HDS1
SSS_H.                           : Stick Slip Percentage from HDS1
RPM_H.                           : Average RPM from HDS1
VIBXYH.                           : Vibration XY
VIBZH.                           : Vibration Z
#     DEPT      BDEP     KPOSI       HKL       SPP       ROP      PSPD      VIBC     SSL_H     SSS_H     RPM_H    VIBXYH     VIBZH
#        M         M         M      KLBF       PSI      M/HR     M/MIN       CPS                                                  
#
# Relog Number     0         0         0         0         0         0         0         0         0         0         0         0
#
~ASCII Data
# ...
 1529.8000   1529.80     21.21     70.00   2606.99     34.46   -999.25     29.10      3.00    128.17    120.14      3.57      1.45
 1530.0000   1530.00     21.02     71.00   2587.00     41.63   -999.25     28.10      3.00    124.50    118.02      3.50      1.48
 1530.2000   1530.20     20.81     70.00   2549.02     41.61   -999.25     27.10      3.00    120.84    106.29      3.43      1.52
 1530.4000   1530.40     20.61     70.00   2621.99     27.36   -999.25     26.10      3.00    123.59    124.03      3.36      1.55
 1530.6000   1530.60     20.42     70.00   2624.99     41.54   -999.25     25.11      3.00    115.19    132.10      3.29      1.58
 1530.8000   1530.80     20.21     71.00   2574.01     35.44   -999.25     24.11      3.00    110.62    129.39      3.22      1.67
 1531.0000   1531.00     20.02     70.00   2546.00     33.56   -999.25     24.00      3.00    126.30    103.45      3.15      1.83
 1531.2000   1531.20     19.82     70.00   2523.00     33.33   -999.25     24.00      3.00    124.98     99.40      3.08      1.98
 1531.4000   1531.40     19.62     70.00   2531.00     11.88   -999.25     24.00      3.00    123.82     96.64      3.01      2.13
 1531.6000   1531.60     19.41     69.00   2486.99     23.63   -999.25     25.45      3.00    128.37     96.18      2.96      2.18
 1531.8000   1531.80     19.21     73.00   2397.02      1.98   -999.25     30.35      2.01     95.24     99.94      2.93      2.13
 1532.0000   1532.00     19.01     71.00   2444.00     37.94   -999.25     35.26      2.70    111.16     95.80      2.90      2.09
 1532.2000   1532.20     18.82     70.00   2489.01     20.43   -999.25     40.16      3.00    124.79     98.06      2.86      2.05
 1532.4000   1532.40     18.61     70.00   2516.00     32.78   -999.25     45.07      3.00    133.91    107.93      2.83      2.01
 1532.6000   1532.60     18.42     69.00   2503.00      6.56   -999.25     47.41      3.00    119.90     95.85      3.09      2.24
 1532.8000   1532.80     18.21     70.00   2496.00     18.22   -999.25     48.86      3.00    119.01     95.30      3.24      2.20
 1533.0000   1533.00     18.01     71.00   2517.00     21.24   -999.25     47.31      3.00    115.02    100.08      3.20      1.78
 1533.2000   1533.20     17.81     70.00   2533.00     21.11   -999.25     45.75      3.00    123.40     99.15      3.16      1.37
 1533.4000   1533.40     17.62     70.00   2535.00     18.58   -999.25     44.20      3.00    130.03     96.10      3.14      1.01
 1533.6000   1533.60     17.42     70.00   2533.00     13.75   -999.25     49.42      3.00    113.35     97.37      3.30      1.09
 1533.8000   1533.80     17.22     70.00   2502.01     16.87   -999.25     55.64      3.00    105.63     96.21      3.46      1.16
 1534.0000   1534.00     17.02     70.00   2525.00     19.96   -999.25     59.65      3.00    127.24     98.57      3.61      1.26
 1534.2000   1534.20     16.81     71.00   2540.99     29.21   -999.25     49.99      3.00    128.76    100.00      3.73      1.39
 1534.4000   1534.40     16.62     70.00   2516.00     16.15   -999.25     40.33      3.00    128.36     98.73      3.86      1.51
 1534.6000   1534.60     16.42     70.00   2482.00     16.24   -999.25     30.68      3.00    113.54     99.20      3.89      1.50
 1534.8000   1534.80     16.21     69.00   2488.00     12.14   -999.25     35.05      3.00    116.82     96.69      3.61      1.10
 1535.0000   1535.00     16.01     69.00   2442.00     10.51   -999.25     40.47      1.57     76.98     97.14      3.39      0.80
 1535.2000   1535.20     15.81     70.00   2478.99     10.09   -999.25     45.70      3.00    114.91     97.67      3.39      0.80
 1535.4000   1535.40     15.61     71.00   2455.00     10.06   -999.25     49.97      2.24     97.97     99.03      3.36      1.08
 1535.6000   1535.60     15.42     70.00   2489.00     15.08   -999.25     53.48      3.00    114.39     98.93      3.31      1.57
 1535.8000   1535.80     15.21     69.00   2525.99     16.09   -999.25     57.00      3.00    121.58    100.00      3.32      2.10
 1536.0000   1536.00     15.01     69.00   2506.00      3.08   -999.25     64.78      3.00    134.38    118.20      4.69      3.10
 1536.2000   1536.20     14.82     71.00   2470.97      6.38   -999.25     52.46      2.47     99.05     96.11      3.33      0.92
 1536.4000   1536.40     14.61     73.00   2360.01      2.00   -999.25     75.44      2.08     85.60     96.00      3.58      1.23
 1536.6000   1536.60     14.42     71.00   2451.01     36.52   -999.25     68.47      3.00    111.40     96.20      3.65      1.28
 1536.8000   1536.80     14.21     69.00   2496.99     31.84   -999.25     61.49      3.00    119.24     97.77      3.73      1.34
 1537.0000   1537.00     14.02     68.00   2492.00     14.05   -999.25     54.51      3.00    117.92     98.78      3.81      1.39
 1537.2000   1537.20     13.81     68.00   2462.00     10.78   -999.25     51.50      3.00    112.97     98.14      3.77      1.26
 1537.4000   1537.40     13.62     69.00   2470.00     17.07   -999.25     50.72      3.00    118.04     97.30      3.71      1.10
 1537.6000   1537.60     13.41     68.00   2496.01     21.23   -999.25     50.85      3.00    127.53    100.58      3.76      1.15
 1537.8000   1537.80     13.21     70.00   2608.97      9.95   -999.25     61.51      3.00    124.83    133.10      3.97      1.50
 1538.0000   1538.00     13.01     73.00   2579.00     28.40   -999.25     72.17      3.00    129.55    127.97      4.17      1.86
 1538.2000   1538.20     12.82     74.00   2520.99     13.73   -999.25     83.17      3.00    126.17    102.00      4.32      1.79
 1538.4000   1538.40     12.62     72.00   2490.00     44.91   -999.25     94.77      3.00    105.88    102.00      4.45      1.45
 1538.6000   1538.60     12.41     70.00   2388.00      1.60   -999.25     92.72      3.00    297.65     55.37      4.58      1.14
 1538.8000   1538.80     12.21     72.00   2386.00      1.52   -999.25     57.84      3.00    170.40     77.21      3.86      1.15
 1539.0000   1539.00     12.01     72.00   2419.00      4.73   -999.25     55.10      3.00    168.82     74.42      4.16      1.00
 1539.2000   1539.20     11.81     72.00   2387.00     11.43   -999.25     66.59      3.00    179.50     79.75      4.63      1.00
 1539.4000   1539.40     11.62     72.00   2384.00     16.06   -999.25     75.06      3.00    241.91     74.78      4.65      1.00
 1539.6000   1539.60     11.42     72.00   2387.00     13.39   -999.25     78.03      3.00    206.34     80.32      4.37      1.00
 1539.8000   1539.80     11.22     72.00   2387.00     10.53   -999.25     76.18      3.00    205.10     78.91      4.05      1.06
 1540.0000   1540.00     11.02     72.00   2418.00     11.74   -999.25     64.92      3.00    149.92     77.62      3.68      1.16
 1540.2000   1540.20     10.82     71.00   2490.01      9.07   -999.25     58.00      3.00    136.86     78.29      3.71      1.12
 1540.4000   1540.40     10.62     70.00   2517.00      9.62   -999.25     58.00      3.00    130.07     79.55      3.93      1.01
 1540.6000   1540.60     10.42     70.00   2556.01      6.52   -999.25     43.04      3.00    108.51     80.00      3.52      1.19
 1540.8000   1540.80     10.22     69.00   2630.98      0.07   -999.25    376.54      0.00      8.15     99.86     11.22      2.88
 1541.0000   1541.00     10.01     68.00   2636.00      8.01   -999.25    384.38      0.00      7.00    100.00     10.69      3.18
 1541.2000   1541.20      9.81     69.00   2107.01      0.29   -999.25    381.44      0.00     14.48     80.00     11.48      4.53
 1541.4000   1541.40      9.62     69.00   2128.00     19.72   -999.25    274.13      0.00      9.56     80.00      8.97      3.11
 1541.6000   1541.60      9.41     70.00   2125.00     24.65   -999.25    232.41      0.00      9.75     79.29      8.12      2.90
 1541.8000   1541.80      9.22     70.00   2164.99     34.23   -999.25    255.02      0.00     11.08     78.33      7.41      2.79
 1542.0000   1542.00      9.02     69.00   2179.00     33.04   -999.25    277.63      0.00      9.11     79.74      6.71      2.68
