~Version Information
VERS.                       2.00: SCHLUMBERGER LAS - Version 2.00
WRAP.                         NO: One line per depth step
~Well Information
STRT.M                 1790.0000: Start Depth
STOP.M                 3303.0000: End Depth
STEP.M                    0.2000:  
NULL.                    -999.25:  
COMP.                    Bapetco: COMPANY
WELL.                  BED-15-13: WELL
FLD .                        BED: FLD
SRVC.               Schlumberger: SERVICE COMPANY
LOC .                           : LOCATION
DATE.                  05-Aug-20: LOG DATE
UWI .                  20EGP0554: API NUMBER
~Curve Information
DEPT.M                          : MWD Tool Measurement Depth
BDEP.M                          : Bit Depth
KPOSI.M                          : Kelly Position (Raw)
HKL .KLBF                       : Hook Load
SPP .PSI                        : Standpipe Pressure
ROP .M/HR                       : Rate of Penetration (MWD Depth Ave.)
PSPD.FT/MIN                     : Instantaneous Pipe Speed
VIBC.CPS                        : Vibration Count
SSS_H.                           : Stick Slip Percentage from HDS1
SSL_H.                           : Stick Slip Level from HDS1
RPMMX_H.                           : Maximum RPM from HDS1
TNR .                           : Time Not Rotating from HDS1
PTNR.                           : Percentage Time Not Rotating from HDS1
RPM_H.                           : Average RPM from HDS1
RPMMX_H.                           : Maximum RPM from HDS1
DRPM_H.                           : Differential RPM from HDS1
VIBXH.                           : Vibration X
VIBYH.                           : Vibration Y
VIBZH.                           : Vibration Z
TEMPH.DEG C                      : Temperature from JTDAS Tool
#     DEPT      BDEP     KPOSI       HKL       SPP       ROP      PSPD      VIBC     SSS_H     SSL_H   RPMMX_H       TNR      PTNR     RPM_H   RPMMX_H    DRPM_H     VIBXH     VIBYH     VIBZH     TEMPH
#        M         M         M      KLBF       PSI      M/HR    FT/MIN       CPS                                                                                                                   DEG C
#
# Relog Number     0         0         0         0         0         0         0         0         0         0         0         0         0         0         0         0         0         0         0
#
~ASCII Data
# ...
 3214.0000   3214.00     10.14     88.00   2740.00     22.51   -999.25      0.93   -999.25   -999.25   -999.25   -999.25   -999.25   -999.25   -999.25   -999.25      1.73      1.00      0.82     81.00
 3214.2000   3214.20      9.95     88.00   2685.00     26.82   -999.25      0.84   -999.25   -999.25   -999.25   -999.25   -999.25   -999.25   -999.25   -999.25      1.68      1.09      0.77     81.00
 3214.4000   3214.40      9.74     89.00   2697.98     25.58   -999.25      0.60   -999.25   -999.25   -999.25   -999.25   -999.25   -999.25   -999.25   -999.25      1.49      1.23      0.72     81.00
 3214.6000   3214.60      9.55     89.00   2648.02     23.56   -999.25      0.36   -999.25   -999.25   -999.25   -999.25   -999.25   -999.25   -999.25   -999.25      1.30      1.37      0.68     81.00
 3214.8000   3214.80      9.35     89.00   2650.00     24.85   -999.25      0.12   -999.25   -999.25   -999.25   -999.25   -999.25   -999.25   -999.25   -999.25      1.11      1.51      0.63     81.00
 3215.0000   3215.00      9.15     89.00   2625.00     26.66   -999.25      0.20   -999.25   -999.25   -999.25   -999.25   -999.25   -999.25   -999.25   -999.25      1.02      1.55      0.62     81.00
 3215.2000   3215.20      8.95     88.00   2655.02     27.92   -999.25      0.59   -999.25   -999.25   -999.25   -999.25   -999.25   -999.25   -999.25   -999.25      1.06      1.43      0.66     81.00
 3215.4000   3215.40      8.75     87.00   2718.01     30.88   -999.25      0.98   -999.25   -999.25   -999.25   -999.25   -999.25   -999.25   -999.25   -999.25      1.09      1.32      0.69     81.00
 3215.6000   3215.60      8.55     87.00   2735.99     36.91   -999.25      1.38   -999.25   -999.25   -999.25   -999.25   -999.25   -999.25   -999.25   -999.25      1.13      1.20      0.73     81.00
 3215.8000   3215.80      8.35     87.00   2772.99     33.48   -999.25      1.77   -999.25   -999.25   -999.25   -999.25   -999.25   -999.25   -999.25   -999.25      1.17      1.08      0.77     81.00
 3216.0000   3216.00      8.15     87.00   2725.00     27.92   -999.25      1.92   -999.25   -999.25   -999.25   -999.25   -999.25   -999.25   -999.25   -999.25      1.17      1.00      0.80     81.00
 3216.2000   3216.20      7.95     86.00   2733.01     37.05   -999.25      1.72   -999.25   -999.25   -999.25   -999.25   -999.25   -999.25   -999.25   -999.25      1.10      1.00      0.80     81.00
 3216.4000   3216.40      7.75     86.00   2788.99     31.31   -999.25      1.52   -999.25   -999.25   -999.25   -999.25   -999.25   -999.25   -999.25   -999.25      1.02      1.00      0.80     81.00
 3216.6000   3216.60      7.55     86.00   2760.01     27.01   -999.25      1.33   -999.25   -999.25   -999.25   -999.25   -999.25   -999.25   -999.25   -999.25      0.94      1.00      0.80     81.00
 3216.8000   3216.80      7.35     86.00   2771.00     27.25   -999.25      1.13   -999.25   -999.25   -999.25   -999.25   -999.25   -999.25   -999.25   -999.25      0.86      1.00      0.80     81.00
 3217.0000   3217.00      7.15     86.00   2776.00     33.28   -999.25      1.07   -999.25   -999.25   -999.25   -999.25   -999.25   -999.25   -999.25   -999.25      0.81      1.00      0.81     81.00
 3217.2000   3217.20      6.95     86.00   2771.00     32.64   -999.25      1.28   -999.25   -999.25   -999.25   -999.25   -999.25   -999.25   -999.25   -999.25      0.85      1.00      0.85     81.00
 3217.4000   3217.40      6.75     86.00   2783.00     26.53   -999.25      1.49   -999.25   -999.25   -999.25   -999.25   -999.25   -999.25   -999.25   -999.25      0.89      1.00      0.89     81.00
 3217.6000   3217.60      6.55     85.00   2788.00     25.46   -999.25      1.69   -999.25   -999.25   -999.25   -999.25   -999.25   -999.25   -999.25   -999.25      0.94      1.00      0.94     81.00
 3217.8000   3217.80      6.35     86.00   2761.01     28.63   -999.25      1.90   -999.25   -999.25   -999.25   -999.25   -999.25   -999.25   -999.25   -999.25      0.98      1.00      0.98     81.00
 3218.0000   3218.00      6.15     86.00   2747.00     31.72   -999.25      1.90   -999.25   -999.25   -999.25   -999.25   -999.25   -999.25   -999.25   -999.25      1.00      1.02      1.00     81.00
 3218.2000   3218.20      5.95     86.00   2797.98     31.27   -999.25      1.71   -999.25   -999.25   -999.25   -999.25   -999.25   -999.25   -999.25   -999.25      1.00      1.05      1.00     81.00
 3218.4000   3218.40      5.75     88.00   2721.97     26.57   -999.25      1.52   -999.25   -999.25   -999.25   -999.25   -999.25   -999.25   -999.25   -999.25      1.00      1.09      1.00     81.00
 3218.6000   3218.60      5.55     89.00   2667.03     33.24   -999.25      1.33   -999.25   -999.25   -999.25   -999.25   -999.25   -999.25   -999.25   -999.25      1.00      1.13      1.00     81.00
 3218.8000   3218.80      5.35     88.00   2636.01     32.44   -999.25      1.14   -999.25   -999.25   -999.25   -999.25   -999.25   -999.25   -999.25   -999.25      1.00      1.17      1.00     81.00
 3219.0000   3219.00      5.15     86.00   2663.00     37.52   -999.25      0.95   -999.25   -999.25   -999.25   -999.25   -999.25   -999.25   -999.25   -999.25      0.99      1.19      0.99     81.00
 3219.2000   3219.20      4.95     87.00   2775.97     31.96   -999.25      0.74   -999.25   -999.25   -999.25   -999.25   -999.25   -999.25   -999.25   -999.25      0.90      1.10      0.95     81.00
 3219.4000   3219.40      4.75     88.00   2671.99     29.48   -999.25      0.53   -999.25   -999.25   -999.25   -999.25   -999.25   -999.25   -999.25   -999.25      0.82      1.02      0.91     81.00
 3219.6000   3219.60      4.55     88.00   2645.01     30.54   -999.25      0.33   -999.25   -999.25   -999.25   -999.25   -999.25   -999.25   -999.25   -999.25      0.74      0.94      0.87     81.00
 3219.8000   3219.80      4.35     87.00   2710.98     26.76   -999.25      0.12   -999.25   -999.25   -999.25   -999.25   -999.25   -999.25   -999.25   -999.25      0.65      0.85      0.83     81.00
 3220.0000   3220.00      4.15     88.00   2607.00     21.86   -999.25      0.00   -999.25   -999.25   -999.25   -999.25   -999.25   -999.25   -999.25   -999.25      0.61      0.83      0.81     81.00
 3220.2000   3220.20      3.95     86.00   2643.02     31.02   -999.25      0.00   -999.25   -999.25   -999.25   -999.25   -999.25   -999.25   -999.25   -999.25      0.66      0.91      0.86     81.00
 3220.4000   3220.40      3.75     85.00   2723.99     34.24   -999.25      0.00   -999.25   -999.25   -999.25   -999.25   -999.25   -999.25   -999.25   -999.25      0.70      0.99      0.90     81.00
 3220.6000   3220.60      3.55     84.00   2711.01     30.49   -999.25      0.00   -999.25   -999.25   -999.25   -999.25   -999.25   -999.25   -999.25   -999.25      0.74      1.08      0.94     81.00
 3220.8000   3220.80      3.35     86.00   2739.99     28.83   -999.25      0.00   -999.25   -999.25   -999.25   -999.25   -999.25   -999.25   -999.25   -999.25      0.78      1.16      0.98     81.00
 3221.0000   3221.00      3.15     86.00   2684.00     25.61   -999.25      0.13   -999.25   -999.25   -999.25   -999.25   -999.25   -999.25   -999.25   -999.25      0.87      1.22      0.98     81.00
 3221.2000   3221.20      2.95     87.00   2738.99     30.14   -999.25      0.34   -999.25   -999.25   -999.25   -999.25   -999.25   -999.25   -999.25   -999.25      0.99      1.26      0.94     81.00
 3221.4000   3221.40      2.75     87.00   2711.98     32.81   -999.25      0.55   -999.25   -999.25   -999.25   -999.25   -999.25   -999.25   -999.25   -999.25      1.12      1.31      0.89     81.00
 3221.6000   3221.60      2.55     87.00   2681.01     27.92   -999.25      0.77   -999.25   -999.25   -999.25   -999.25   -999.25   -999.25   -999.25   -999.25      1.25      1.35      0.85     81.00
 3221.8000   3221.80      2.35     86.00   2704.99     23.70   -999.25      0.98   -999.25   -999.25   -999.25   -999.25   -999.25   -999.25   -999.25   -999.25      1.38      1.39      0.81     81.00
