~Version Information
VERS.                       2.00: SCHLUMBERGER LAS - Version 2.00
WRAP.                         NO: One line per depth step
~Well Information
STRT.M                 1195.0000: Start Depth
STOP.M                 1544.0000: End Depth
STEP.M                    0.2000:  
NULL.                    -999.25:  
COMP.                    Bapetco: COMPANY
WELL.                  BED-15-13: WELL
FLD .                        BED: FLD
SRVC.               Schlumberger: SERVICE COMPANY
LOC .                           : LOCATION
DATE.                  29-Jul-20: LOG DATE
UWI .                  20EGP0554: API NUMBER
~Curve Information
DEPT.M                          : MWD Tool Measurement Depth
BDEP.M                          : Bit Depth
KPOSI.M                          : Kelly Position (Raw)
HKL .KLBF                       : Hook Load
SPP .PSI                        : Standpipe Pressure
ROP .M/HR                       : Rate of Penetration (MWD Depth Ave.)
PSPD.M/MIN                      : Instantaneous Pipe Speed
VIBC.CPS                        : Vibration Count
SSL_H.                           : Stick Slip Level from HDS1
SSS_H.                           : Stick Slip Percentage from HDS1
RPM_H.                           : Average RPM from HDS1
VIBXYH.                           : Vibration XY
VIBZH.                           : Vibration Z
#     DEPT      BDEP     KPOSI       HKL       SPP       ROP      PSPD      VIBC     SSL_H     SSS_H     RPM_H    VIBXYH     VIBZH
#        M         M         M      KLBF       PSI      M/HR     M/MIN       CPS                                                  
#
# Relog Number     0         0         0         0         0         0         0         0         0         0         0         0
#
~ASCII Data
# ...
 1244.6000   1244.60     17.79     65.00   2505.00     61.71   -999.25     11.27      2.06     96.34     98.00      2.10      0.60
 1244.8000   1244.80     17.60     67.00   2539.99     25.21   -999.25     12.17      2.67    104.81     98.00      2.13      0.60
 1245.0000   1245.00     17.39     67.00   2502.00     46.17   -999.25     13.08      3.00    108.02     98.00      2.13      0.60
 1245.2000   1245.20     17.20     67.00   2513.99     35.33   -999.25     13.98      2.98    105.94     98.00      2.13      0.60
 1245.4000   1245.40     16.99     68.00   2486.00     42.24   -999.25     14.89      2.41    100.71     98.00      2.13      0.60
 1245.6000   1245.60     16.80     66.00   2506.00     41.80   -999.25     15.80      2.17     97.80     98.34      2.13      0.60
 1245.8000   1245.80     16.59     67.00   2521.00     39.04   -999.25     14.90      2.78    100.89     99.56      2.13      0.60
 1246.0000   1246.00     16.39     67.00   2501.00     41.80   -999.25     13.49      2.58    100.34    100.00      2.13      0.60
 1246.2000   1246.20     16.19     67.00   2518.99     37.40   -999.25     12.07      2.00     97.86     99.87      2.16      0.60
 1246.4000   1246.40     16.00     67.00   2491.00     31.09   -999.25     10.65      2.00     96.51     98.57      2.20      0.60
 1246.6000   1246.60     15.80     67.00   2514.00     46.17   -999.25      9.24      2.00     97.11     98.00      2.25      0.60
 1246.8000   1246.80     15.60     67.00   2523.00     32.98   -999.25      7.82      1.94     97.31     98.00      2.30      0.60
 1247.0000   1247.00     15.40     67.00   2519.00     41.57   -999.25      7.22      1.39     82.13     98.00      2.34      0.60
 1247.2000   1247.20     15.20     67.00   2518.99     41.80   -999.25      7.75      1.00     67.77     98.40      2.39      0.60
 1247.4000   1247.40     14.99     67.00   2495.00     40.64   -999.25      8.29      1.00     55.36     99.74      2.39      0.61
 1247.6000   1247.60     14.79     68.00   2484.00     47.64   -999.25      8.82      1.00     53.38     99.29      2.36      0.64
 1247.8000   1247.80     14.60     67.00   2511.99     52.29   -999.25      9.35      1.00     53.86     98.42      2.32      0.66
 1248.0000   1248.00     14.40     67.00   2496.00     47.41   -999.25      9.88      1.00     58.52     98.00      2.29      0.68
 1248.2000   1248.20     14.19     67.00   2481.99     47.90   -999.25     10.41      1.00     66.98     98.00      2.26      0.71
 1248.4000   1248.40     13.99     68.00   2447.00     47.37   -999.25     10.94      1.00     67.41     98.41      2.23      0.73
 1248.6000   1248.60     13.80     68.00   2418.00     54.18   -999.25     10.75      1.00     58.94     99.29      2.19      0.75
 1248.8000   1248.80     13.60     67.00   2436.00     63.52   -999.25     10.46      0.93     50.36    100.00      2.16      0.78
 1249.0000   1249.00     13.40     67.00   2421.00     55.88   -999.25     10.18      0.51     41.25    100.00      2.13      0.80
 1249.2000   1249.20     13.20     68.00   2417.00     65.32   -999.25      9.89      0.10     32.14    100.00      2.11      0.80
 1249.4000   1249.40     12.99     68.00   2432.00     66.60   -999.25      9.61      0.00     24.35     99.46      2.10      0.80
 1249.6000   1249.60     12.80     68.00   2424.00     64.60   -999.25      9.32      0.00     16.97     98.75      2.09      0.80
 1249.8000   1249.80     12.59     68.00   2454.99     66.40   -999.25      9.04      0.00      9.59     98.04      2.07      0.80
 1250.0000   1250.00     12.39     67.00   2444.00     73.87   -999.25      8.76      0.00      9.81     98.69      2.06      0.80
 1250.2000   1250.20     12.19     67.00   2436.00     64.24   -999.25      8.47      0.00     10.48     99.43      2.04      0.80
 1250.4000   1250.40     11.99     67.00   2455.00     60.53   -999.25      8.19      0.00     11.18    100.00      2.03      0.80
 1250.6000   1250.60     11.80     67.00   2441.00     56.87   -999.25      8.00      0.00     11.98    100.00      2.02      0.80
 1250.8000   1250.80     11.60     68.00   2450.00     58.65   -999.25      8.00      0.00     12.78    100.00      2.00      0.80
 1251.0000   1251.00     11.40     68.00   2428.00     59.40   -999.25      8.00      0.00     15.69     99.49      1.99      0.80
 1251.2000   1251.20     11.20     68.00   2418.01     69.87   -999.25      8.00      0.00     19.38     98.78      1.99      0.80
 1251.4000   1251.40     11.00     68.00   2449.00     77.83   -999.25      8.00      0.00     23.06     98.08      2.01      0.80
 1251.6000   1251.60     10.80     67.00   2445.00     73.83   -999.25      8.00      0.00     22.37     98.63      2.04      0.80
 1251.8000   1251.80     10.60     67.00   2443.00     66.44   -999.25      8.00      0.00     21.14     99.35      2.07      0.80
 1252.0000   1252.00     10.39     67.00   2473.00     62.96   -999.25      8.00      0.00     19.98     99.94      2.09      0.80
 1252.2000   1252.20     10.19     67.00   2431.00     60.53   -999.25      8.00      0.00     19.75     99.18      2.12      0.80
 1252.4000   1252.40      9.99     68.00   2434.00     64.60   -999.25      8.00      0.00     19.52     98.42      2.15      0.80
 1252.6000   1252.60      9.79     68.00   2450.00     60.53   -999.25      8.00      0.00     19.68     98.36      2.17      0.80
 1252.8000   1252.80      9.60     68.00   2433.00     61.56   -999.25      8.97      0.00     20.34     99.19      2.20      0.80
 1253.0000   1253.00      9.39     68.00   2453.00     55.88   -999.25     10.57      0.00     21.01     99.99      2.23      0.80
 1253.2000   1253.20      9.20     68.00   2439.01     59.03   -999.25     12.17      0.00     21.93     99.25      2.25      0.80
 1253.4000   1253.40      8.99     67.00   2460.00     71.06   -999.25     13.77      0.00     22.85     98.51      2.29      0.79
 1253.6000   1253.60      8.80     67.00   2467.00     70.03   -999.25     15.36      0.00     23.47     98.00      2.33      0.77
 1253.8000   1253.80      8.59     67.00   2457.00     57.57   -999.25     16.96      0.00     23.47     98.00      2.38      0.75
 1254.0000   1254.00      8.39     68.00   2446.00     48.02   -999.25     18.56      0.00     23.54     98.00      2.42      0.73
 1254.2000   1254.20      8.19     67.00   2437.00     59.80   -999.25     20.16      0.00     25.18     98.00      2.46      0.71
 1254.4000   1254.40      8.00     68.00   2416.00     54.09   -999.25     21.76      0.00     26.83     98.00      2.51      0.69
 1254.6000   1254.60      7.79     67.00   2427.00     72.91   -999.25     23.36      0.00     27.33     98.00      2.55      0.67
 1254.8000   1254.80      7.60     67.00   2431.00     59.51   -999.25     22.80      0.00     26.93     98.00      2.59      0.65
 1255.0000   1255.00      7.39     67.00   2424.00     59.36   -999.25     20.79      0.00     26.54     98.00      2.63      0.63
 1255.2000   1255.20      7.20     68.00   2400.00     56.08   -999.25     18.78      0.00     26.94     98.00      2.68      0.61
 1255.4000   1255.40      6.99     67.00   2412.00     62.11   -999.25     16.77      0.00     27.35     98.00      2.63      0.60
 1255.6000   1255.60      6.79     67.00   2449.00     62.40   -999.25     14.77      0.00     26.40     98.41      2.54      0.60
 1255.8000   1255.80      6.59     66.00   2447.00     62.44   -999.25     12.76      0.00     24.24     99.19      2.45      0.60
 1256.0000   1256.00      6.40     67.00   2430.00     58.59   -999.25     10.75      0.00     22.08     99.97      2.36      0.60
 1256.2000   1256.20      6.19     67.00   2421.00     53.38   -999.25      8.74      0.00     22.63     99.15      2.27      0.60
 1256.4000   1256.40      6.00     67.00   2436.00     54.81   -999.25      6.74      0.00     23.28     98.26      2.18      0.60
 1256.6000   1256.60      5.79     68.00   2394.00     44.82   -999.25      5.05      0.00     25.17     98.00      2.09      0.60
 1256.8000   1256.80      5.59     68.00   2373.01     55.34   -999.25      5.46      0.00     27.59     98.00      2.00      0.60
