~Version Information
VERS.                       2.00: SCHLUMBERGER LAS - Version 2.00
WRAP.                         NO: One line per depth step
~Well Information
STRT.M                 1195.0000: Start Depth
STOP.M                 1544.0000: End Depth
STEP.M                    0.2000:  
NULL.                    -999.25:  
COMP.                    Bapetco: COMPANY
WELL.                  BED-15-13: WELL
FLD .                        BED: FLD
SRVC.               Schlumberger: SERVICE COMPANY
LOC .                           : LOCATION
DATE.                  29-Jul-20: LOG DATE
UWI .                  20EGP0554: API NUMBER
~Curve Information
DEPT.M                          : MWD Tool Measurement Depth
BDEP.M                          : Bit Depth
KPOSI.M                          : Kelly Position (Raw)
HKL .KLBF                       : Hook Load
SPP .PSI                        : Standpipe Pressure
ROP .M/HR                       : Rate of Penetration (MWD Depth Ave.)
PSPD.M/MIN                      : Instantaneous Pipe Speed
VIBC.CPS                        : Vibration Count
SSL_H.                           : Stick Slip Level from HDS1
SSS_H.                           : Stick Slip Percentage from HDS1
RPM_H.                           : Average RPM from HDS1
VIBXYH.                           : Vibration XY
VIBZH.                           : Vibration Z
#     DEPT      BDEP     KPOSI       HKL       SPP       ROP      PSPD      VIBC     SSL_H     SSS_H     RPM_H    VIBXYH     VIBZH
#        M         M         M      KLBF       PSI      M/HR     M/MIN       CPS                                                  
#
# Relog Number     0         0         0         0         0         0         0         0         0         0         0         0
#
~ASCII Data
# ...
 1443.0000   1443.00     21.45     68.00   2480.00     44.07   -999.25      3.16      3.00    101.22    100.00      1.74      0.26
 1443.2000   1443.20     21.26     68.00   2507.00     43.75   -999.25      3.58      3.00    100.12    100.00      1.72      0.23
 1443.4000   1443.40     21.06     69.00   2525.00     44.27   -999.25      3.99      3.00    100.74    100.00      1.70      0.20
 1443.6000   1443.60     20.86     69.00   2483.00     44.55   -999.25      4.41      3.00    101.90     99.41      1.72      0.20
 1443.8000   1443.80     20.65     69.00   2492.00     44.82   -999.25      4.82      3.00    103.46     98.40      1.74      0.20
 1444.0000   1444.00     20.46     69.00   2513.00     38.09   -999.25      5.24      3.00    103.69     98.00      1.76      0.20
 1444.2000   1444.20     20.26     69.00   2493.00     41.99   -999.25      5.65      3.00    103.17     97.97      1.78      0.20
 1444.4000   1444.40     20.06     69.00   2499.00     45.94   -999.25      6.04      3.00    106.92     96.95      1.80      0.20
 1444.6000   1444.60     19.86     69.00   2507.00     45.10   -999.25      6.30      3.00    110.07     96.07      1.82      0.20
 1444.8000   1444.80     19.66     70.00   2487.00     46.03   -999.25      6.56      3.00    104.63     97.11      1.84      0.20
 1445.0000   1445.00     19.46     70.00   2452.00     50.29   -999.25      6.82      3.00    100.08     98.00      1.83      0.22
 1445.2000   1445.20     19.26     69.00   2466.01     50.24   -999.25      7.08      3.00    100.57     98.00      1.81      0.24
 1445.4000   1445.40     19.06     69.00   2491.00     47.70   -999.25      7.34      2.95    100.86     98.11      1.79      0.27
 1445.6000   1445.60     18.86     69.00   2489.00     45.35   -999.25      7.60      2.45     99.37     99.09      1.77      0.29
 1445.8000   1445.80     18.66     69.00   2473.00     49.25   -999.25      7.86      2.05     98.14    100.00      1.76      0.32
 1446.0000   1446.00     18.46     69.00   2498.00     44.10   -999.25      7.77      2.66     99.97    100.00      1.74      0.35
 1446.2000   1446.20     18.26     69.00   2520.99     37.17   -999.25      7.27      3.00    100.77    100.00      1.72      0.37
 1446.4000   1446.40     18.06     69.00   2474.01     45.40   -999.25      6.77      3.00    100.25    100.00      1.70      0.40
 1446.6000   1446.60     17.86     69.00   2493.00     44.91   -999.25      6.27      3.00    101.00     98.72      1.70      0.38
 1446.8000   1446.80     17.66     69.00   2508.00     37.28   -999.25      5.77      3.00    102.95     96.22      1.70      0.35
 1447.0000   1447.00     17.46     70.00   2469.00     36.83   -999.25      5.27      3.00    104.76     96.00      1.70      0.33
 1447.2000   1447.20     17.27     70.00   2453.00     59.31   -999.25      4.77      2.94    105.65     96.12      1.70      0.30
 1447.4000   1447.40     17.26     70.00   2437.00     81.79   -999.25      4.27      2.61    102.21     96.78      1.70      0.28
 1447.6000   1447.60     17.06     70.00   2446.00     62.55   -999.25      4.12      2.28     98.77     97.45      1.70      0.25
 1447.8000   1447.80     16.86     69.00   2476.99     48.05   -999.25      4.39      2.10     96.92     98.00      1.70      0.23
 1448.0000   1448.00     16.66     69.00   2494.00     40.36   -999.25      4.65      2.67    102.78     98.00      1.70      0.20
 1448.2000   1448.20     16.45     70.00   2469.00     47.37   -999.25      4.92      3.00    104.76     98.00      1.70      0.22
 1448.4000   1448.40     16.26     69.00   2482.00     50.19   -999.25      5.19      3.00    101.59     98.00      1.70      0.25
 1448.6000   1448.60     16.06     69.00   2531.00     38.23   -999.25      5.45      3.00    100.28     98.56      1.70      0.28
 1448.8000   1448.80     15.86     69.00   2519.00     41.58   -999.25      5.72      3.00    100.85     99.69      1.70      0.30
 1449.0000   1449.00     15.66     69.00   2521.00     48.16   -999.25      5.98      3.00    101.38     99.27      1.70      0.33
 1449.2000   1449.20     15.46     69.00   2505.00     47.37   -999.25      5.46      3.00    101.90     98.27      1.70      0.36
 1449.4000   1449.40     15.26     69.00   2525.00     38.92   -999.25      4.88      3.00    102.02     98.92      1.70      0.39
 1449.6000   1449.60     15.06     69.00   2512.00     36.63   -999.25      4.30      3.00    101.88    100.00      1.72      0.38
 1449.8000   1449.80     14.86     70.00   2472.01     30.21   -999.25      3.73      3.00    101.01    100.00      1.79      0.34
 1450.0000   1450.00     14.66     73.00   2381.00     19.01   -999.25      3.15      1.57     74.03     98.00      1.85      0.29
 1450.2000   1450.20     14.46     72.00   2425.01     34.94   -999.25      4.33      0.26     29.34     98.00      1.91      0.25
 1450.4000   1450.40     14.26     71.00   2455.00     29.62   -999.25      6.13      0.00     20.18     99.13      1.97      0.21
 1450.6000   1450.60     14.06     71.00   2427.00     57.39   -999.25      7.93      0.00     22.25     99.71      1.97      0.20
 1450.8000   1450.80     13.86     70.00   2440.00     63.02   -999.25      9.73      0.00     28.18     98.96      1.95      0.20
 1451.0000   1451.00     13.66     69.00   2489.00     68.07   -999.25     11.53      0.00     34.11     98.20      1.93      0.20
 1451.2000   1451.20     13.45     68.00   2526.99     48.69   -999.25     13.34      1.40     66.74     98.94      1.92      0.20
 1451.4000   1451.40     13.26     69.00   2499.00     28.99   -999.25     15.14      2.91    101.20     99.82      1.90      0.20
 1451.6000   1451.60     13.06     71.00   2413.00     56.35   -999.25     15.22      2.40     96.47     98.79      1.88      0.20
 1451.8000   1451.80     12.86     71.00   2438.99     53.58   -999.25     13.72      2.00     93.24     98.25      1.87      0.20
 1452.0000   1452.00     12.65     69.00   2488.00     55.44   -999.25     12.23      2.00     94.88     99.29      1.85      0.20
 1452.2000   1452.20     12.45     69.00   2505.99     38.44   -999.25     10.73      2.00     96.00    100.00      1.84      0.20
 1452.4000   1452.40     12.26     70.00   2472.00     28.48   -999.25      9.24      2.01     96.06     99.99      1.84      0.20
 1452.6000   1452.60     12.06     71.00   2466.00     37.82   -999.25      7.74      2.53    101.94     98.93      1.84      0.20
 1452.8000   1452.80     11.85     69.00   2505.99     56.18   -999.25      6.24      3.00    107.14     98.00      1.84      0.20
 1453.0000   1453.00     11.66     69.00   2520.00     55.13   -999.25      4.98      3.00    107.14     98.00      1.84      0.20
 1453.2000   1453.20     11.46     69.00   2501.00     41.92   -999.25      4.86      3.00    107.03     97.88      1.84      0.20
 1453.4000   1453.40     11.26     70.00   2512.00     60.35   -999.25      4.75      3.00    106.33     97.16      1.84      0.20
 1453.6000   1453.60     11.06     68.00   2522.01     70.66   -999.25      4.63      3.00    105.64     96.45      1.84      0.20
 1453.8000   1453.80     10.86     68.00   2565.99     53.14   -999.25      4.52      3.00    105.70     96.51      1.88      0.23
 1454.0000   1454.00     10.66     70.00   2510.00     36.72   -999.25      4.40      3.00    106.99     97.84      1.92      0.25
 1454.2000   1454.20     10.46     70.00   2483.00     63.72   -999.25      4.28      3.00    106.09     98.00      1.95      0.28
 1454.4000   1454.40     10.26     69.00   2497.00     60.05   -999.25      4.17      3.00    104.90     98.00      1.99      0.30
 1454.6000   1454.60     10.06     69.00   2489.00     54.18   -999.25      4.05      3.00    106.06     98.40      2.02      0.33
 1454.8000   1454.80      9.85     69.00   2505.00     32.91   -999.25      4.07      3.00    112.44     99.68      2.06      0.35
 1455.0000   1455.00      9.66     69.00   2519.00     39.58   -999.25      4.18      3.00    114.59     98.54      2.10      0.38
 1455.2000   1455.20      9.46     70.00   2486.00     56.03   -999.25      4.30      3.00    115.38     96.60      2.12      0.40
