~Version Information
VERS.                       2.00: SCHLUMBERGER LAS - Version 2.00
WRAP.                         NO: One line per depth step
~Well Information
STRT.M                 1790.0000: Start Depth
STOP.M                 3303.0000: End Depth
STEP.M                    0.2000:  
NULL.                    -999.25:  
COMP.                    Bapetco: COMPANY
WELL.                  BED-15-13: WELL
FLD .                        BED: FLD
SRVC.               Schlumberger: SERVICE COMPANY
LOC .                           : LOCATION
DATE.                  05-Aug-20: LOG DATE
UWI .                  20EGP0554: API NUMBER
~Curve Information
DEPT.M                          : MWD Tool Measurement Depth
BDEP.M                          : Bit Depth
KPOSI.M                          : Kelly Position (Raw)
HKL .KLBF                       : Hook Load
SPP .PSI                        : Standpipe Pressure
ROP .M/HR                       : Rate of Penetration (MWD Depth Ave.)
PSPD.FT/MIN                     : Instantaneous Pipe Speed
VIBC.CPS                        : Vibration Count
SSS_H.                           : Stick Slip Percentage from HDS1
SSL_H.                           : Stick Slip Level from HDS1
RPMMX_H.                           : Maximum RPM from HDS1
TNR .                           : Time Not Rotating from HDS1
PTNR.                           : Percentage Time Not Rotating from HDS1
RPM_H.                           : Average RPM from HDS1
RPMMX_H.                           : Maximum RPM from HDS1
DRPM_H.                           : Differential RPM from HDS1
VIBXH.                           : Vibration X
VIBYH.                           : Vibration Y
VIBZH.                           : Vibration Z
TEMPH.DEG C                      : Temperature from JTDAS Tool
#     DEPT      BDEP     KPOSI       HKL       SPP       ROP      PSPD      VIBC     SSS_H     SSL_H   RPMMX_H       TNR      PTNR     RPM_H   RPMMX_H    DRPM_H     VIBXH     VIBYH     VIBZH     TEMPH
#        M         M         M      KLBF       PSI      M/HR    FT/MIN       CPS                                                                                                                   DEG C
#
# Relog Number     0         0         0         0         0         0         0         0         0         0         0         0         0         0         0         0         0         0         0
#
~ASCII Data
# ...
 3206.0000   3206.00     18.15     89.00   2685.00     21.31   -999.25      0.95   -999.25   -999.25   -999.25   -999.25   -999.25   -999.25   -999.25   -999.25      0.81      1.00      0.59     80.00
 3206.2000   3206.20     17.95     89.00   2660.01     22.99   -999.25      0.79   -999.25   -999.25   -999.25   -999.25   -999.25   -999.25   -999.25   -999.25      0.80      1.00      0.60     80.00
 3206.4000   3206.40     17.75     88.00   2684.00     21.87   -999.25      0.53   -999.25   -999.25   -999.25   -999.25   -999.25   -999.25   -999.25   -999.25      0.80      1.00      0.60     80.00
 3206.6000   3206.60     17.55     88.00   2674.00     23.31   -999.25      0.26   -999.25   -999.25   -999.25   -999.25   -999.25   -999.25   -999.25   -999.25      0.80      1.00      0.60     80.00
 3206.8000   3206.80     17.35     88.00   2695.99     23.62   -999.25      0.00   -999.25   -999.25   -999.25   -999.25   -999.25   -999.25   -999.25   -999.25      0.80      1.00      0.60     80.00
 3207.0000   3207.00     17.15     88.00   2677.00     24.20   -999.25      0.27   -999.25   -999.25   -999.25   -999.25   -999.25   -999.25   -999.25   -999.25      0.80      1.00      0.60     80.00
 3207.2000   3207.20     16.94     89.00   2691.00     18.64   -999.25      0.54   -999.25   -999.25   -999.25   -999.25   -999.25   -999.25   -999.25   -999.25      0.80      1.00      0.60     80.00
 3207.4000   3207.40     16.75     89.00   2672.00     25.12   -999.25      0.81   -999.25   -999.25   -999.25   -999.25   -999.25   -999.25   -999.25   -999.25      0.80      1.00      0.60     80.00
 3207.6000   3207.60     16.55     88.00   2682.00     22.77   -999.25      0.92   -999.25   -999.25   -999.25   -999.25   -999.25   -999.25   -999.25   -999.25      0.80      1.00      0.60     80.06
 3207.8000   3207.80     16.35     89.00   2655.01     12.13   -999.25      0.64   -999.25   -999.25   -999.25   -999.25   -999.25   -999.25   -999.25   -999.25      0.80      1.00      0.60     80.34
 3208.0000   3208.00     16.15     89.00   2637.00     29.32   -999.25      0.36   -999.25   -999.25   -999.25   -999.25   -999.25   -999.25   -999.25   -999.25      0.80      1.00      0.60     80.61
 3208.2000   3208.20     15.95     88.00   2691.01     37.15   -999.25      0.09   -999.25   -999.25   -999.25   -999.25   -999.25   -999.25   -999.25   -999.25      0.80      1.00      0.60     80.89
 3208.4000   3208.40     15.75     87.00   2742.98     26.60   -999.25      0.15   -999.25   -999.25   -999.25   -999.25   -999.25   -999.25   -999.25   -999.25      0.83      1.00      0.63     80.87
 3208.6000   3208.60     15.55     88.00   2711.02     25.19   -999.25      0.36   -999.25   -999.25   -999.25   -999.25   -999.25   -999.25   -999.25   -999.25      0.87      1.00      0.67     80.66
 3208.8000   3208.80     15.35     87.00   2720.00     28.72   -999.25      0.57   -999.25   -999.25   -999.25   -999.25   -999.25   -999.25   -999.25   -999.25      0.91      1.00      0.71     80.45
 3209.0000   3209.00     15.15     87.00   2784.00     34.11   -999.25      0.78   -999.25   -999.25   -999.25   -999.25   -999.25   -999.25   -999.25   -999.25      0.95      1.00      0.75     80.24
 3209.2000   3209.20     14.94     87.00   2786.00     29.74   -999.25      0.99   -999.25   -999.25   -999.25   -999.25   -999.25   -999.25   -999.25   -999.25      1.00      1.00      0.80     80.02
 3209.4000   3209.40     14.75     88.00   2770.98     26.46   -999.25      1.19   -999.25   -999.25   -999.25   -999.25   -999.25   -999.25   -999.25   -999.25      0.96      1.00      0.84     80.18
 3209.6000   3209.60     14.55     88.00   2733.02     30.76   -999.25      1.39   -999.25   -999.25   -999.25   -999.25   -999.25   -999.25   -999.25   -999.25      0.92      1.00      0.88     80.38
 3209.8000   3209.80     14.35     87.00   2731.00     34.89   -999.25      1.59   -999.25   -999.25   -999.25   -999.25   -999.25   -999.25   -999.25   -999.25      0.88      1.00      0.92     80.58
 3210.0000   3210.00     14.15     86.00   2814.00     33.98   -999.25      1.79   -999.25   -999.25   -999.25   -999.25   -999.25   -999.25   -999.25   -999.25      0.84      1.00      0.96     80.78
 3210.2000   3210.20     13.95     87.00   2781.99     27.01   -999.25      1.99   -999.25   -999.25   -999.25   -999.25   -999.25   -999.25   -999.25   -999.25      0.80      1.00      1.00     80.98
 3210.4000   3210.40     13.74     86.00   2731.05     26.21   -999.25      1.80   -999.25   -999.25   -999.25   -999.25   -999.25   -999.25   -999.25   -999.25      0.84      1.08      1.00     81.00
 3210.6000   3210.60     13.55     85.00   2831.95     23.88   -999.25      1.58   -999.25   -999.25   -999.25   -999.25   -999.25   -999.25   -999.25   -999.25      0.88      1.16      1.00     81.00
 3210.8000   3210.80     13.35     87.00   2794.01     26.24   -999.25      1.36   -999.25   -999.25   -999.25   -999.25   -999.25   -999.25   -999.25   -999.25      0.93      1.25      1.00     81.00
 3211.0000   3211.00     13.15     87.00   2774.00     34.98   -999.25      1.14   -999.25   -999.25   -999.25   -999.25   -999.25   -999.25   -999.25   -999.25      0.97      1.34      1.00     81.00
 3211.2000   3211.20     12.95     87.00   2761.00     27.79   -999.25      1.00   -999.25   -999.25   -999.25   -999.25   -999.25   -999.25   -999.25   -999.25      0.99      1.38      1.00     81.00
 3211.4000   3211.40     12.75     87.00   2742.00     27.70   -999.25      1.00   -999.25   -999.25   -999.25   -999.25   -999.25   -999.25   -999.25   -999.25      0.95      1.30      1.00     81.00
 3211.6000   3211.60     12.55     86.00   2747.00     28.34   -999.25      1.00   -999.25   -999.25   -999.25   -999.25   -999.25   -999.25   -999.25   -999.25      0.91      1.23      1.00     81.00
 3211.8000   3211.80     12.35     86.00   2802.99     39.31   -999.25      1.00   -999.25   -999.25   -999.25   -999.25   -999.25   -999.25   -999.25   -999.25      0.88      1.15      1.00     81.00
 3212.0000   3212.00     12.15     86.00   2806.00     37.93   -999.25      1.00   -999.25   -999.25   -999.25   -999.25   -999.25   -999.25   -999.25   -999.25      0.84      1.08      1.00     81.00
 3212.2000   3212.20     11.95     86.00   2829.99     31.56   -999.25      0.99   -999.25   -999.25   -999.25   -999.25   -999.25   -999.25   -999.25   -999.25      0.80      1.00      1.00     81.00
 3212.4000   3212.40     11.75     86.00   2791.99     26.91   -999.25      0.79   -999.25   -999.25   -999.25   -999.25   -999.25   -999.25   -999.25   -999.25      0.84      1.00      1.00     81.00
 3212.6000   3212.60     11.55     86.00   2774.01     25.80   -999.25      0.59   -999.25   -999.25   -999.25   -999.25   -999.25   -999.25   -999.25   -999.25      0.88      1.00      1.00     81.00
 3212.8000   3212.80     11.35     86.00   2793.00     33.40   -999.25      0.39   -999.25   -999.25   -999.25   -999.25   -999.25   -999.25   -999.25   -999.25      0.92      1.00      1.00     81.00
 3213.0000   3213.00     11.15     86.00   2780.00     33.90   -999.25      0.20   -999.25   -999.25   -999.25   -999.25   -999.25   -999.25   -999.25   -999.25      0.96      1.00      1.00     81.00
 3213.2000   3213.20     10.95     86.00   2802.99     33.28   -999.25      0.00   -999.25   -999.25   -999.25   -999.25   -999.25   -999.25   -999.25   -999.25      1.00      1.00      1.00     81.00
 3213.4000   3213.40     10.75     85.00   2780.03     27.85   -999.25      0.23   -999.25   -999.25   -999.25   -999.25   -999.25   -999.25   -999.25   -999.25      1.17      1.00      0.96     81.00
 3213.6000   3213.60     10.55     86.00   2836.97     27.69   -999.25      0.47   -999.25   -999.25   -999.25   -999.25   -999.25   -999.25   -999.25   -999.25      1.36      1.00      0.91     81.00
 3213.8000   3213.80     10.35     86.00   2849.00     25.65   -999.25      0.70   -999.25   -999.25   -999.25   -999.25   -999.25   -999.25   -999.25   -999.25      1.54      1.00      0.86     81.00
