~Version Information
VERS.                       2.00: SCHLUMBERGER LAS - Version 2.00
WRAP.                         NO: One line per depth step
~Well Information
STRT.M                 1790.0000: Start Depth
STOP.M                 3303.0000: End Depth
STEP.M                    0.2000:  
NULL.                    -999.25:  
COMP.                    Bapetco: COMPANY
WELL.                  BED-15-13: WELL
FLD .                        BED: FLD
SRVC.               Schlumberger: SERVICE COMPANY
LOC .                           : LOCATION
DATE.                  05-Aug-20: LOG DATE
UWI .                  20EGP0554: API NUMBER
~Curve Information
DEPT.M                          : MWD Tool Measurement Depth
BDEP.M                          : Bit Depth
KPOSI.M                          : Kelly Position (Raw)
HKL .KLBF                       : Hook Load
SPP .PSI                        : Standpipe Pressure
ROP .M/HR                       : Rate of Penetration (MWD Depth Ave.)
PSPD.FT/MIN                     : Instantaneous Pipe Speed
VIBC.CPS                        : Vibration Count
SSS_H.                           : Stick Slip Percentage from HDS1
SSL_H.                           : Stick Slip Level from HDS1
RPMMX_H.                           : Maximum RPM from HDS1
TNR .                           : Time Not Rotating from HDS1
PTNR.                           : Percentage Time Not Rotating from HDS1
RPM_H.                           : Average RPM from HDS1
RPMMX_H.                           : Maximum RPM from HDS1
DRPM_H.                           : Differential RPM from HDS1
VIBXH.                           : Vibration X
VIBYH.                           : Vibration Y
VIBZH.                           : Vibration Z
TEMPH.DEG C                      : Temperature from JTDAS Tool
#     DEPT      BDEP     KPOSI       HKL       SPP       ROP      PSPD      VIBC     SSS_H     SSL_H   RPMMX_H       TNR      PTNR     RPM_H   RPMMX_H    DRPM_H     VIBXH     VIBYH     VIBZH     TEMPH
#        M         M         M      KLBF       PSI      M/HR    FT/MIN       CPS                                                                                                                   DEG C
#
# Relog Number     0         0         0         0         0         0         0         0         0         0         0         0         0         0         0         0         0         0         0
#
~ASCII Data
# ...
 3230.0000   3230.00     23.16     88.00   2571.00     30.43   -999.25      1.00   -999.25   -999.25   -999.25   -999.25   -999.25   -999.25   -999.25   -999.25      0.80      0.96      0.80     81.00
 3230.2000   3230.20     22.96     89.00   2586.00     26.68   -999.25      1.00   -999.25   -999.25   -999.25   -999.25   -999.25   -999.25   -999.25   -999.25      0.80      0.92      0.80     81.00
 3230.4000   3230.40     22.77     88.00   2595.01     34.15   -999.25      1.00   -999.25   -999.25   -999.25   -999.25   -999.25   -999.25   -999.25   -999.25      0.80      0.88      0.80     81.00
 3230.6000   3230.60     22.56     88.00   2619.99     40.72   -999.25      1.03   -999.25   -999.25   -999.25   -999.25   -999.25   -999.25   -999.25   -999.25      0.80      0.85      0.80     81.00
 3230.8000   3230.80     22.36     87.00   2598.01     38.81   -999.25      1.23   -999.25   -999.25   -999.25   -999.25   -999.25   -999.25   -999.25   -999.25      0.80      0.81      0.80     81.00
 3231.0000   3231.00     22.16     86.00   2631.00     29.00   -999.25      1.43   -999.25   -999.25   -999.25   -999.25   -999.25   -999.25   -999.25   -999.25      0.80      0.84      0.84     81.19
 3231.2000   3231.20     21.97     85.00   2699.00     30.10   -999.25      1.64   -999.25   -999.25   -999.25   -999.25   -999.25   -999.25   -999.25   -999.25      0.80      0.89      0.89     81.45
 3231.4000   3231.40     21.76     85.00   2720.00     22.25   -999.25      1.84   -999.25   -999.25   -999.25   -999.25   -999.25   -999.25   -999.25   -999.25      0.80      0.94      0.94     81.70
 3231.6000   3231.60     21.56     85.00   2725.00     29.39   -999.25      1.89   -999.25   -999.25   -999.25   -999.25   -999.25   -999.25   -999.25   -999.25      0.80      0.99      0.99     81.96
 3231.8000   3231.80     21.36     87.00   2684.01     13.78   -999.25      1.30   -999.25   -999.25   -999.25   -999.25   -999.25   -999.25   -999.25   -999.25      0.84      1.00      1.00     82.00
 3232.0000   3232.00     21.17     87.00   2611.00     25.06   -999.25      0.72   -999.25   -999.25   -999.25   -999.25   -999.25   -999.25   -999.25   -999.25      0.89      1.00      1.00     82.00
 3232.2000   3232.20     20.96     87.00   2677.99     26.60   -999.25      0.14   -999.25   -999.25   -999.25   -999.25   -999.25   -999.25   -999.25   -999.25      0.94      1.00      1.00     82.00
 3232.4000   3232.40     20.76     88.00   2636.96     31.22   -999.25      0.29   -999.25   -999.25   -999.25   -999.25   -999.25   -999.25   -999.25   -999.25      0.98      1.00      1.00     82.00
 3232.6000   3232.60     20.56     89.00   2561.04     26.73   -999.25      0.67   -999.25   -999.25   -999.25   -999.25   -999.25   -999.25   -999.25   -999.25      1.00      1.00      1.05     82.00
 3232.8000   3232.80     20.36     88.00   2529.01     22.25   -999.25      1.04   -999.25   -999.25   -999.25   -999.25   -999.25   -999.25   -999.25   -999.25      1.00      1.00      1.13     82.00
 3233.0000   3233.00     20.16     87.00   2615.00     40.48   -999.25      1.42   -999.25   -999.25   -999.25   -999.25   -999.25   -999.25   -999.25   -999.25      1.00      1.00      1.20     82.00
 3233.2000   3233.20     19.96     86.00   2691.01     51.47   -999.25      1.80   -999.25   -999.25   -999.25   -999.25   -999.25   -999.25   -999.25   -999.25      1.00      1.00      1.28     82.00
 3233.4000   3233.40     19.76     86.00   2742.97     29.55   -999.25      2.09   -999.25   -999.25   -999.25   -999.25   -999.25   -999.25   -999.25   -999.25      1.00      1.00      1.36     82.00
 3233.6000   3233.60     19.56     87.00   2690.03     32.44   -999.25      2.27   -999.25   -999.25   -999.25   -999.25   -999.25   -999.25   -999.25   -999.25      1.00      1.02      1.38     82.00
 3233.8000   3233.80     19.37     87.00   2695.00     32.81   -999.25      2.46   -999.25   -999.25   -999.25   -999.25   -999.25   -999.25   -999.25   -999.25      1.00      1.06      1.34     82.00
 3234.0000   3234.00     19.17     86.00   2651.00     37.88   -999.25      2.65   -999.25   -999.25   -999.25   -999.25   -999.25   -999.25   -999.25   -999.25      1.00      1.10      1.30     82.00
 3234.2000   3234.20     18.97     85.00   2640.02     34.15   -999.25      2.83   -999.25   -999.25   -999.25   -999.25   -999.25   -999.25   -999.25   -999.25      1.00      1.14      1.26     82.00
 3234.4000   3234.40     18.76     86.00   2712.96     17.36   -999.25      2.94   -999.25   -999.25   -999.25   -999.25   -999.25   -999.25   -999.25   -999.25      1.00      1.19      1.21     82.00
 3234.6000   3234.60     18.56     87.00   2637.04     33.50   -999.25      2.38   -999.25   -999.25   -999.25   -999.25   -999.25   -999.25   -999.25   -999.25      1.00      1.18      1.18     82.00
 3234.8000   3234.80     18.37     87.00   2707.98     51.04   -999.25      1.82   -999.25   -999.25   -999.25   -999.25   -999.25   -999.25   -999.25   -999.25      1.00      1.15      1.15     82.00
 3235.0000   3235.00     18.17     87.00   2725.00     44.38   -999.25      1.26   -999.25   -999.25   -999.25   -999.25   -999.25   -999.25   -999.25   -999.25      1.00      1.11      1.11     82.00
 3235.2000   3235.20     17.97     88.00   2656.99     32.84   -999.25      0.70   -999.25   -999.25   -999.25   -999.25   -999.25   -999.25   -999.25   -999.25      1.00      1.08      1.08     82.00
 3235.4000   3235.40     17.76     88.00   2606.98     35.77   -999.25      0.14   -999.25   -999.25   -999.25   -999.25   -999.25   -999.25   -999.25   -999.25      1.00      1.05      1.05     82.00
 3235.6000   3235.60     17.57     88.00   2568.02     36.65   -999.25      0.00   -999.25   -999.25   -999.25   -999.25   -999.25   -999.25   -999.25   -999.25      1.00      1.02      1.02     82.00
 3235.8000   3235.80     17.36     87.00   2631.98     34.57   -999.25      0.00   -999.25   -999.25   -999.25   -999.25   -999.25   -999.25   -999.25   -999.25      0.98      1.00      0.97     82.00
 3236.0000   3236.00     17.17     87.00   2612.00     32.28   -999.25      0.00   -999.25   -999.25   -999.25   -999.25   -999.25   -999.25   -999.25   -999.25      0.95      1.00      0.89     82.00
 3236.2000   3236.20     16.96     88.00   2604.00     33.52   -999.25      0.00   -999.25   -999.25   -999.25   -999.25   -999.25   -999.25   -999.25   -999.25      0.91      1.00      0.82     82.00
 3236.4000   3236.40     16.77     88.00   2597.98     29.85   -999.25      0.00   -999.25   -999.25   -999.25   -999.25   -999.25   -999.25   -999.25   -999.25      0.87      1.00      0.74     82.00
 3236.6000   3236.60     16.56     89.00   2564.02     29.15   -999.25      0.00   -999.25   -999.25   -999.25   -999.25   -999.25   -999.25   -999.25   -999.25      0.84      1.00      0.67     82.00
 3236.8000   3236.80     16.36     88.00   2580.00     36.21   -999.25      0.00   -999.25   -999.25   -999.25   -999.25   -999.25   -999.25   -999.25   -999.25      0.80      1.00      0.60     82.00
 3237.0000   3237.00     16.17     89.00   2584.00     39.60   -999.25      0.00   -999.25   -999.25   -999.25   -999.25   -999.25   -999.25   -999.25   -999.25      0.76      0.96      0.68     82.00
 3237.2000   3237.20     15.96     89.00   2569.99     27.62   -999.25      0.00   -999.25   -999.25   -999.25   -999.25   -999.25   -999.25   -999.25   -999.25      0.72      0.92      0.75     82.00
 3237.4000   3237.40     15.77     90.00   2525.00     16.47   -999.25      0.00   -999.25   -999.25   -999.25   -999.25   -999.25   -999.25   -999.25   -999.25      0.69      0.89      0.83     82.00
 3237.6000   3237.60     15.56     89.00   2534.00     54.61   -999.25      0.00   -999.25   -999.25   -999.25   -999.25   -999.25   -999.25   -999.25   -999.25      0.65      0.85      0.90     82.00
 3237.8000   3237.80     15.36     88.00   2556.99     54.90   -999.25      0.00   -999.25   -999.25   -999.25   -999.25   -999.25   -999.25   -999.25   -999.25      0.61      0.81      0.98     82.00
