~Version Information
VERS.                       2.00: SCHLUMBERGER LAS - Version 2.00
WRAP.                         NO: One line per depth step
~Well Information
STRT.M                 1790.0000: Start Depth
STOP.M                 3303.0000: End Depth
STEP.M                    0.2000:  
NULL.                    -999.25:  
COMP.                    Bapetco: COMPANY
WELL.                  BED-15-13: WELL
FLD .                        BED: FLD
SRVC.               Schlumberger: SERVICE COMPANY
LOC .                           : LOCATION
DATE.                  05-Aug-20: LOG DATE
UWI .                  20EGP0554: API NUMBER
~Curve Information
DEPT.M                          : MWD Tool Measurement Depth
BDEP.M                          : Bit Depth
KPOSI.M                          : Kelly Position (Raw)
HKL .KLBF                       : Hook Load
SPP .PSI                        : Standpipe Pressure
ROP .M/HR                       : Rate of Penetration (MWD Depth Ave.)
PSPD.FT/MIN                     : Instantaneous Pipe Speed
VIBC.CPS                        : Vibration Count
SSS_H.                           : Stick Slip Percentage from HDS1
SSL_H.                           : Stick Slip Level from HDS1
RPMMX_H.                           : Maximum RPM from HDS1
TNR .                           : Time Not Rotating from HDS1
PTNR.                           : Percentage Time Not Rotating from HDS1
RPM_H.                           : Average RPM from HDS1
RPMMX_H.                           : Maximum RPM from HDS1
DRPM_H.                           : Differential RPM from HDS1
VIBXH.                           : Vibration X
VIBYH.                           : Vibration Y
VIBZH.                           : Vibration Z
TEMPH.DEG C                      : Temperature from JTDAS Tool
#     DEPT      BDEP     KPOSI       HKL       SPP       ROP      PSPD      VIBC     SSS_H     SSL_H   RPMMX_H       TNR      PTNR     RPM_H   RPMMX_H    DRPM_H     VIBXH     VIBYH     VIBZH     TEMPH
#        M         M         M      KLBF       PSI      M/HR    FT/MIN       CPS                                                                                                                   DEG C
#
# Relog Number     0         0         0         0         0         0         0         0         0         0         0         0         0         0         0         0         0         0         0
#
~ASCII Data
# ...
 3294.0000   3294.00     16.40     89.00   2813.00     17.24   -999.25      1.26   -999.25   -999.25   -999.25   -999.25   -999.25   -999.25   -999.25   -999.25      1.12      1.23      0.72     84.00
 3294.2000   3294.20     16.20     88.00   2832.00     18.41   -999.25      2.25   -999.25   -999.25   -999.25   -999.25   -999.25   -999.25   -999.25   -999.25      1.05      1.09      0.65     84.00
 3294.4000   3294.40     16.00     88.00   2832.99     18.32   -999.25      3.25   -999.25   -999.25   -999.25   -999.25   -999.25   -999.25   -999.25   -999.25      1.03      1.03      0.60     84.00
 3294.6000   3294.60     15.80     89.00   2808.01     18.50   -999.25      4.53   -999.25   -999.25   -999.25   -999.25   -999.25   -999.25   -999.25   -999.25      1.11      1.11      0.60     84.00
 3294.8000   3294.80     15.60     89.00   2816.00     10.83   -999.25      6.76   -999.25   -999.25   -999.25   -999.25   -999.25   -999.25   -999.25   -999.25      1.20      1.20      0.60     84.00
 3295.0000   3295.00     15.39     89.00   2729.00     16.00   -999.25      8.98   -999.25   -999.25   -999.25   -999.25   -999.25   -999.25   -999.25   -999.25      1.20      1.32      0.84     84.00
 3295.2000   3295.20     15.19     87.00   2731.01      7.57   -999.25      9.60   -999.25   -999.25   -999.25   -999.25   -999.25   -999.25   -999.25   -999.25      1.18      1.40      1.00     84.00
 3295.4000   3295.40     14.99     87.00   2760.02     14.80   -999.25      8.88   -999.25   -999.25   -999.25   -999.25   -999.25   -999.25   -999.25   -999.25      1.11      1.40      1.00     84.00
 3295.6000   3295.60     14.80     86.00   2809.98     25.66   -999.25      5.59   -999.25   -999.25   -999.25   -999.25   -999.25   -999.25   -999.25   -999.25      1.04      1.40      1.00     84.00
 3295.8000   3295.80     14.60     87.00   2889.98     10.12   -999.25      2.30   -999.25   -999.25   -999.25   -999.25   -999.25   -999.25   -999.25   -999.25      1.00      1.40      0.90     84.00
 3296.0000   3296.00     14.40     88.00   2828.00     17.47   -999.25      1.52   -999.25   -999.25   -999.25   -999.25   -999.25   -999.25   -999.25   -999.25      1.00      1.40      0.64     84.00
 3296.2000   3296.20     14.20     89.00   2756.00      9.01   -999.25      1.00   -999.25   -999.25   -999.25   -999.25   -999.25   -999.25   -999.25   -999.25      1.00      1.21      0.79     84.00
 3296.4000   3296.40     14.00     89.00   2771.00      9.65   -999.25      3.21   -999.25   -999.25   -999.25   -999.25   -999.25   -999.25   -999.25   -999.25      1.00      1.01      1.00     84.00
 3296.6000   3296.60     13.80     89.00   2770.00     11.78   -999.25      4.80   -999.25   -999.25   -999.25   -999.25   -999.25   -999.25   -999.25   -999.25      1.10      1.20      1.00     84.00
 3296.8000   3296.80     13.59     88.00   2715.01     12.77   -999.25      3.76   -999.25   -999.25   -999.25   -999.25   -999.25   -999.25   -999.25   -999.25      1.19      1.39      1.00     84.00
 3297.0000   3297.00     13.40     88.00   2758.00     11.55   -999.25      2.81   -999.25   -999.25   -999.25   -999.25   -999.25   -999.25   -999.25   -999.25      1.10      1.40      0.90     84.00
 3297.2000   3297.20     13.19     88.00   2719.00     11.44   -999.25      2.12   -999.25   -999.25   -999.25   -999.25   -999.25   -999.25   -999.25   -999.25      1.01      1.39      0.81     84.00
 3297.4000   3297.40     12.99     90.00   2719.98      8.12   -999.25      8.09   -999.25   -999.25   -999.25   -999.25   -999.25   -999.25   -999.25   -999.25      1.16      1.24      0.96     84.00
 3297.6000   3297.60     12.80     89.00   2684.02      8.53   -999.25     14.55   -999.25   -999.25   -999.25   -999.25   -999.25   -999.25   -999.25   -999.25      1.42      1.31      1.00     84.00
 3297.8000   3297.80     12.60     88.00   2714.99      9.07   -999.25     17.34   -999.25   -999.25   -999.25   -999.25   -999.25   -999.25   -999.25   -999.25      1.63      1.46      1.00     84.00
 3298.0000   3298.00     12.39     88.00   2768.00     23.86   -999.25     19.75   -999.25   -999.25   -999.25   -999.25   -999.25   -999.25   -999.25   -999.25      1.70      1.59      1.00     84.00
 3298.2000   3298.20     12.19     88.00   2712.00     16.81   -999.25     14.66   -999.25   -999.25   -999.25   -999.25   -999.25   -999.25   -999.25   -999.25      1.77      1.73      1.00     84.00
 3298.4000   3298.40     11.99     87.00   2719.01     14.63   -999.25      9.57   -999.25   -999.25   -999.25   -999.25   -999.25   -999.25   -999.25   -999.25      1.65      1.65      1.00     84.00
 3298.6000   3298.60     11.79     87.00   2733.99      9.98   -999.25     11.52   -999.25   -999.25   -999.25   -999.25   -999.25   -999.25   -999.25   -999.25      1.35      1.35      1.00     84.00
 3298.8000   3298.80     11.60     87.00   2754.00     12.14   -999.25     16.62   -999.25   -999.25   -999.25   -999.25   -999.25   -999.25   -999.25   -999.25      1.26      1.26      1.00     84.00
 3299.0000   3299.00     11.39     86.00   2743.00     12.91   -999.25     13.15   -999.25   -999.25   -999.25   -999.25   -999.25   -999.25   -999.25   -999.25      1.37      1.37      1.00     84.00
 3299.2000   3299.20     11.20     87.00   2767.99      6.22   -999.25      7.73   -999.25   -999.25   -999.25   -999.25   -999.25   -999.25   -999.25   -999.25      1.40      1.40      1.00     84.00
 3299.4000   3299.40     11.00     89.00   2730.98     11.09   -999.25      4.34   -999.25   -999.25   -999.25   -999.25   -999.25   -999.25   -999.25   -999.25      1.35      1.35      0.95     84.00
 3299.6000   3299.60     10.80     91.00   2692.02     15.90   -999.25      6.88   -999.25   -999.25   -999.25   -999.25   -999.25   -999.25   -999.25   -999.25      1.27      1.27      0.87     84.00
 3299.8000   3299.80     10.60     92.00   2608.02      5.92   -999.25     11.43   -999.25   -999.25   -999.25   -999.25   -999.25   -999.25   -999.25   -999.25      1.20      1.22      0.78     84.00
 3300.0000   3300.00     10.40     92.00   2596.00     25.08   -999.25      8.60   -999.25   -999.25   -999.25   -999.25   -999.25   -999.25   -999.25   -999.25      1.20      1.32      0.68     84.00
 3300.2000   3300.20     10.19     91.00   2630.99     12.39   -999.25      5.76   -999.25   -999.25   -999.25   -999.25   -999.25   -999.25   -999.25   -999.25      1.18      1.36      0.60     84.00
 3300.4000   3300.40      9.99     91.00   2604.02     37.43   -999.25      4.26   -999.25   -999.25   -999.25   -999.25   -999.25   -999.25   -999.25   -999.25      1.09      1.17      0.60     84.00
 3300.6000   3300.60      9.80     90.00   2647.98      9.49   -999.25      4.95   -999.25   -999.25   -999.25   -999.25   -999.25   -999.25   -999.25   -999.25      1.00      1.01      0.61     84.00
 3300.8000   3300.80      9.59     91.00   2642.00     33.16   -999.25      5.63   -999.25   -999.25   -999.25   -999.25   -999.25   -999.25   -999.25   -999.25      1.00      1.12      0.72     84.00
 3301.0000   3301.00      9.40     89.00   2650.00     27.91   -999.25      6.17   -999.25   -999.25   -999.25   -999.25   -999.25   -999.25   -999.25   -999.25      1.00      1.23      0.83     84.00
 3301.2000   3301.20      9.20     88.00   2685.00     16.46   -999.25      6.53   -999.25   -999.25   -999.25   -999.25   -999.25   -999.25   -999.25   -999.25      1.00      1.34      0.94     84.00
 3301.4000   3301.40      8.99     87.00   2693.01     12.12   -999.25      6.89   -999.25   -999.25   -999.25   -999.25   -999.25   -999.25   -999.25   -999.25      1.03      1.40      1.00     84.00
 3301.6000   3301.60      8.80     87.00   2717.99     23.14   -999.25      7.76   -999.25   -999.25   -999.25   -999.25   -999.25   -999.25   -999.25   -999.25      1.11      1.40      1.00     84.00
 3301.8000   3301.80      8.59     86.00   2755.99     18.54   -999.25      8.84   -999.25   -999.25   -999.25   -999.25   -999.25   -999.25   -999.25   -999.25      1.18      1.40      1.00     84.00
