~Version Information
VERS.                       2.00: SCHLUMBERGER LAS - Version 2.00
WRAP.                         NO: One line per depth step
~Well Information
STRT.M                 1195.0000: Start Depth
STOP.M                 1544.0000: End Depth
STEP.M                    0.2000:  
NULL.                    -999.25:  
COMP.                    Bapetco: COMPANY
WELL.                  BED-15-13: WELL
FLD .                        BED: FLD
SRVC.               Schlumberger: SERVICE COMPANY
LOC .                           : LOCATION
DATE.                  29-Jul-20: LOG DATE
UWI .                  20EGP0554: API NUMBER
~Curve Information
DEPT.M                          : MWD Tool Measurement Depth
BDEP.M                          : Bit Depth
KPOSI.M                          : Kelly Position (Raw)
HKL .KLBF                       : Hook Load
SPP .PSI                        : Standpipe Pressure
ROP .M/HR                       : Rate of Penetration (MWD Depth Ave.)
PSPD.M/MIN                      : Instantaneous Pipe Speed
VIBC.CPS                        : Vibration Count
SSL_H.                           : Stick Slip Level from HDS1
SSS_H.                           : Stick Slip Percentage from HDS1
RPM_H.                           : Average RPM from HDS1
VIBXYH.                           : Vibration XY
VIBZH.                           : Vibration Z
#     DEPT      BDEP     KPOSI       HKL       SPP       ROP      PSPD      VIBC     SSL_H     SSS_H     RPM_H    VIBXYH     VIBZH
#        M         M         M      KLBF       PSI      M/HR     M/MIN       CPS                                                  
#
# Relog Number     0         0         0         0         0         0         0         0         0         0         0         0
#
~ASCII Data
# ...
 1306.6000   1306.60     13.74     67.00   2250.00     64.04   -999.25      6.56      1.00     56.52     99.75      2.13      0.40
 1306.8000   1306.80     13.53     68.00   2214.01     61.52   -999.25      6.38      1.00     58.13     98.98      2.13      0.40
 1307.0000   1307.00     13.33     68.00   2198.00     70.09   -999.25      6.19      1.00     59.74     98.22      2.13      0.40
 1307.2000   1307.20     13.13     68.00   2198.01     62.18   -999.25      6.00      1.00     58.88     98.00      2.13      0.40
 1307.4000   1307.40     12.93     68.00   2220.00     63.87   -999.25      5.81      1.00     57.04     98.00      2.13      0.40
 1307.6000   1307.60     12.73     69.00   2210.00     68.07   -999.25      5.63      1.00     55.20     98.00      2.13      0.40
 1307.8000   1307.80     12.54     69.00   2183.01     77.26   -999.25      5.44      1.00     50.94     98.69      2.13      0.40
 1308.0000   1308.00     12.33     68.00   2239.00     58.97   -999.25      5.25      1.00     46.54     99.41      2.13      0.40
 1308.2000   1308.20     12.14     69.00   2203.99     60.06   -999.25      5.06      0.93     42.56     99.86      2.13      0.40
 1308.4000   1308.40     11.94     70.00   2178.00     66.24   -999.25      4.76      0.57     40.30     99.14      2.13      0.40
 1308.6000   1308.60     11.73     70.00   2200.00     63.68   -999.25      4.39      0.21     38.04     98.42      2.13      0.38
 1308.8000   1308.80     11.54     69.00   2210.00     84.71   -999.25      4.03      0.00     33.51     98.31      2.13      0.36
 1309.0000   1309.00     11.33     69.00   2201.00     63.12   -999.25      3.67      0.00     25.85     99.05      2.13      0.34
 1309.2000   1309.20     11.14     69.00   2188.01     59.55   -999.25      3.31      0.00     18.18     99.79      2.13      0.33
 1309.4000   1309.40     10.93     69.00   2212.00     53.90   -999.25      2.94      0.00     14.95    100.00      2.13      0.31
 1309.6000   1309.60     10.73     70.00   2197.00     62.08   -999.25      2.58      0.00     13.48    100.00      2.13      0.29
 1309.8000   1309.80     10.53     70.00   2203.00     88.27   -999.25      2.22      0.00     12.01    100.00      2.13      0.27
 1310.0000   1310.00     10.34     69.00   2215.00     72.47   -999.25      1.85      0.00     10.62     99.28      2.13      0.25
 1310.2000   1310.20     10.13     69.00   2225.99     55.13   -999.25      1.49      0.00      9.23     98.56      2.13      0.24
 1310.4000   1310.40      9.93     69.00   2197.00     74.62   -999.25      1.13      0.00      8.15     98.16      2.13      0.22
 1310.6000   1310.60      9.73     70.00   2234.00     73.26   -999.25      1.17      0.00      8.09     98.88      2.13      0.20
 1310.8000   1310.80      9.53     69.00   2206.01     70.44   -999.25      1.43      0.00      8.03     99.59      2.11      0.20
 1311.0000   1311.00      9.33     69.00   2262.00     56.82   -999.25      1.70      0.00      8.00    100.00      2.10      0.20
 1311.2000   1311.20      9.13     70.00   2238.00     69.65   -999.25      1.96      0.00      8.00    100.00      2.09      0.20
 1311.4000   1311.40      8.93     70.00   2248.00     79.83   -999.25      2.22      0.00      8.00    100.00      2.08      0.20
 1311.6000   1311.60      8.74     69.00   2277.00     78.27   -999.25      2.49      0.00      8.86     99.76      2.07      0.20
 1311.8000   1311.80      8.53     68.00   2284.00     82.08   -999.25      2.75      0.00     11.48     99.05      2.06      0.20
 1312.0000   1312.00      8.33     68.00   2277.00     54.49   -999.25      3.02      0.00     14.09     98.33      2.05      0.20
 1312.2000   1312.20      8.14     69.00   2307.00     71.24   -999.25      3.28      0.00     14.87     98.38      2.04      0.20
 1312.4000   1312.40      7.93     68.00   2307.00     83.01   -999.25      3.54      0.00     14.04     99.10      2.02      0.20
 1312.6000   1312.60      7.73     67.00   2340.00     57.57   -999.25      3.81      0.00     13.21     99.81      2.01      0.20
 1312.8000   1312.80      7.54     68.00   2324.00     55.91   -999.25      4.84      0.00     13.87     99.48      2.00      0.20
 1313.0000   1313.00      7.34     69.00   2301.00     69.96   -999.25      8.00      0.00     15.05     98.77      2.06      0.22
 1313.2000   1313.20      7.13     69.00   2331.01     76.37   -999.25     11.15      0.00     16.23     98.06      2.14      0.23
 1313.4000   1313.40      6.94     68.00   2382.99     55.70   -999.25     14.31      0.00     11.77     98.00      2.22      0.25
 1313.6000   1313.60      6.73     68.00   2458.00     37.90   -999.25     17.47      0.00      7.52     98.05      2.30      0.27
 1313.8000   1313.80      6.53     68.00   2420.01     91.29   -999.25     20.63      0.00     12.99     98.69      2.38      0.29
 1314.0000   1314.00      6.33     68.00   2423.00     72.55   -999.25     23.79      0.00     18.45     99.34      2.47      0.31
 1314.2000   1314.20      6.13     68.00   2394.00     64.24   -999.25     26.95      0.00     23.92     99.99      2.55      0.33
 1314.4000   1314.40      5.93     69.00   2387.00     78.97   -999.25     30.10      0.00     21.13    100.00      2.63      0.35
 1314.6000   1314.60      5.74     68.00   2394.00     55.09   -999.25     33.26      0.00     18.22    100.00      2.71      0.37
 1314.8000   1314.80      5.53     68.00   2392.00    101.44   -999.25     36.42      0.00     15.31    100.00      2.79      0.39
 1315.0000   1315.00      5.34     72.00   2235.00     16.66   -999.25     35.74      0.00     11.95    100.65      2.80      0.40
 1315.2000   1315.20      5.13     72.00   2143.00     40.61   -999.25     31.23      0.00      9.86    101.96      2.73      0.40
 1315.4000   1315.40      4.93     71.00   2163.00     63.76   -999.25     26.72      0.00     10.38    100.36      2.67      0.40
 1315.6000   1315.60      4.73     70.00   2188.00     51.38   -999.25     22.21      0.00     10.98     98.68      2.60      0.40
 1315.8000   1315.80      4.53     70.00   2183.00     46.25   -999.25     17.69      0.00     10.17     98.00      2.54      0.40
 1316.0000   1316.00      4.33     70.00   2217.00     47.26   -999.25     13.18      0.00      8.42     98.00      2.48      0.40
 1316.2000   1316.20      4.13     70.00   2207.00     48.57   -999.25     11.07      0.00      9.07     98.64      2.41      0.40
 1316.4000   1316.40      3.93     70.00   2202.00     59.51   -999.25     14.71      0.00     10.13     99.39      2.42      0.40
 1316.6000   1316.60      3.73     70.00   2192.00     81.59   -999.25     18.35      0.00     11.45     99.86      2.44      0.40
 1316.8000   1316.80      3.54     69.00   2208.00     73.48   -999.25     21.99      0.00     13.91     99.08      2.45      0.40
 1317.0000   1317.00      3.33     68.00   2213.00     57.97   -999.25     25.63      0.00     16.37     98.31      2.46      0.40
 1317.2000   1317.20      3.13     69.00   2194.00     47.99   -999.25     29.27      0.00     17.53     98.54      2.48      0.40
 1317.4000   1317.40      2.93     70.00   2209.00     54.66   -999.25     32.92      0.00     17.82     99.44      2.49      0.40
 1317.6000   1317.60      2.73     71.00   2209.00     48.69   -999.25     36.56      0.00     18.36    100.00      2.51      0.40
 1317.8000   1317.80      2.53     71.00   2199.00     57.91   -999.25     40.20      0.00     19.32    100.00      2.52      0.40
 1318.0000   1318.00      2.34     69.00   2231.00     55.95   -999.25     43.84      0.00     18.86     99.77      2.54      0.40
 1318.2000   1318.20      2.13     69.00   2239.00     60.72   -999.25     42.57      0.00     14.84     98.95      2.54      0.40
 1318.4000   1318.40      1.94     69.00   2247.00     56.91   -999.25     39.00      0.00     10.82     98.13      2.50      0.40
 1318.6000   1318.60      1.74     71.00   2212.00     51.04   -999.25     35.42      0.00     10.14     98.59      2.46      0.40
 1318.8000   1318.80      1.53     69.00   2204.00     89.69   -999.25     31.85      0.00     10.07     99.29      2.42      0.40
