~Version Information
VERS.                       2.00: SCHLUMBERGER LAS - Version 2.00
WRAP.                         NO: One line per depth step
~Well Information
STRT.M                 1790.0000: Start Depth
STOP.M                 3303.0000: End Depth
STEP.M                    0.2000:  
NULL.                    -999.25:  
COMP.                    Bapetco: COMPANY
WELL.                  BED-15-13: WELL
FLD .                        BED: FLD
SRVC.               Schlumberger: SERVICE COMPANY
LOC .                           : LOCATION
DATE.                  05-Aug-20: LOG DATE
UWI .                  20EGP0554: API NUMBER
~Curve Information
DEPT.M                          : MWD Tool Measurement Depth
BDEP.M                          : Bit Depth
KPOSI.M                          : Kelly Position (Raw)
HKL .KLBF                       : Hook Load
SPP .PSI                        : Standpipe Pressure
ROP .M/HR                       : Rate of Penetration (MWD Depth Ave.)
PSPD.FT/MIN                     : Instantaneous Pipe Speed
VIBC.CPS                        : Vibration Count
SSS_H.                           : Stick Slip Percentage from HDS1
SSL_H.                           : Stick Slip Level from HDS1
RPMMX_H.                           : Maximum RPM from HDS1
TNR .                           : Time Not Rotating from HDS1
PTNR.                           : Percentage Time Not Rotating from HDS1
RPM_H.                           : Average RPM from HDS1
RPMMX_H.                           : Maximum RPM from HDS1
DRPM_H.                           : Differential RPM from HDS1
VIBXH.                           : Vibration X
VIBYH.                           : Vibration Y
VIBZH.                           : Vibration Z
TEMPH.DEG C                      : Temperature from JTDAS Tool
#     DEPT      BDEP     KPOSI       HKL       SPP       ROP      PSPD      VIBC     SSS_H     SSL_H   RPMMX_H       TNR      PTNR     RPM_H   RPMMX_H    DRPM_H     VIBXH     VIBYH     VIBZH     TEMPH
#        M         M         M      KLBF       PSI      M/HR    FT/MIN       CPS                                                                                                                   DEG C
#
# Relog Number     0         0         0         0         0         0         0         0         0         0         0         0         0         0         0         0         0         0         0
#
~ASCII Data
# ...
 3150.0000   3150.00     16.41     87.00   2631.00     47.05   -999.25      3.96   -999.25   -999.25   -999.25   -999.25   -999.25   -999.25   -999.25   -999.25      1.95      1.91      0.91     80.00
 3150.2000   3150.20     16.22     86.00   2712.01     47.29   -999.25      4.65   -999.25   -999.25   -999.25   -999.25   -999.25   -999.25   -999.25   -999.25      2.00      2.00      1.00     80.00
 3150.4000   3150.40     16.01     86.00   2735.97     16.28   -999.25      5.34   -999.25   -999.25   -999.25   -999.25   -999.25   -999.25   -999.25   -999.25      1.87      1.91      1.00     80.00
 3150.6000   3150.60     15.82     86.00   2675.03     38.20   -999.25      5.96   -999.25   -999.25   -999.25   -999.25   -999.25   -999.25   -999.25   -999.25      1.73      1.82      1.00     80.00
 3150.8000   3150.80     15.61     86.00   2731.99     33.04   -999.25      5.16   -999.25   -999.25   -999.25   -999.25   -999.25   -999.25   -999.25   -999.25      1.58      1.72      1.00     80.00
 3151.0000   3151.00     15.41     86.00   2718.00     23.47   -999.25      4.37   -999.25   -999.25   -999.25   -999.25   -999.25   -999.25   -999.25   -999.25      1.44      1.63      1.00     80.00
 3151.2000   3151.20     15.22     86.00   2726.98     14.48   -999.25      3.57   -999.25   -999.25   -999.25   -999.25   -999.25   -999.25   -999.25   -999.25      1.43      1.63      0.93     80.00
 3151.4000   3151.40     15.01     87.00   2634.03     29.78   -999.25      3.06   -999.25   -999.25   -999.25   -999.25   -999.25   -999.25   -999.25   -999.25      1.49      1.69      0.83     80.00
 3151.6000   3151.60     14.81     86.00   2701.97     42.49   -999.25      3.29   -999.25   -999.25   -999.25   -999.25   -999.25   -999.25   -999.25   -999.25      1.54      1.74      0.73     80.00
 3151.8000   3151.80     14.61     86.00   2769.98     24.05   -999.25      3.51   -999.25   -999.25   -999.25   -999.25   -999.25   -999.25   -999.25   -999.25      1.59      1.79      0.63     80.00
 3152.0000   3152.00     14.42     86.00   2696.00     34.19   -999.25      3.74   -999.25   -999.25   -999.25   -999.25   -999.25   -999.25   -999.25   -999.25      1.60      1.72      0.68     80.00
 3152.2000   3152.20     14.21     86.00   2727.98     18.16   -999.25      3.96   -999.25   -999.25   -999.25   -999.25   -999.25   -999.25   -999.25   -999.25      1.60      1.60      0.80     80.00
 3152.4000   3152.40     14.01     86.00   2666.01     30.18   -999.25      4.00   -999.25   -999.25   -999.25   -999.25   -999.25   -999.25   -999.25   -999.25      1.60      1.49      0.91     80.00
 3152.6000   3152.60     13.81     87.00   2696.98     15.10   -999.25      4.00   -999.25   -999.25   -999.25   -999.25   -999.25   -999.25   -999.25   -999.25      1.59      1.40      1.00     80.00
 3152.8000   3152.80     13.61     87.00   2636.02     34.61   -999.25      4.00   -999.25   -999.25   -999.25   -999.25   -999.25   -999.25   -999.25   -999.25      1.55      1.40      1.00     80.00
 3153.0000   3153.00     13.41     86.00   2692.00     34.19   -999.25      4.00   -999.25   -999.25   -999.25   -999.25   -999.25   -999.25   -999.25   -999.25      1.51      1.40      1.00     80.00
 3153.2000   3153.20     13.22     87.00   2720.99     27.28   -999.25      3.73   -999.25   -999.25   -999.25   -999.25   -999.25   -999.25   -999.25   -999.25      1.47      1.40      1.00     80.00
 3153.4000   3153.40     13.02     87.00   2686.01     23.80   -999.25      3.28   -999.25   -999.25   -999.25   -999.25   -999.25   -999.25   -999.25   -999.25      1.43      1.40      1.00     80.00
 3153.6000   3153.60     12.81     87.00   2705.99     38.76   -999.25      2.82   -999.25   -999.25   -999.25   -999.25   -999.25   -999.25   -999.25   -999.25      1.39      1.40      0.97     80.00
 3153.8000   3153.80     12.61     87.00   2680.01     25.03   -999.25      2.37   -999.25   -999.25   -999.25   -999.25   -999.25   -999.25   -999.25   -999.25      1.35      1.40      0.85     80.00
 3154.0000   3154.00     12.41     87.00   2631.00     22.91   -999.25      2.04   -999.25   -999.25   -999.25   -999.25   -999.25   -999.25   -999.25   -999.25      1.31      1.40      0.72     80.00
 3154.2000   3154.20     12.21     87.00   2661.00     30.32   -999.25      2.24   -999.25   -999.25   -999.25   -999.25   -999.25   -999.25   -999.25   -999.25      1.27      1.40      0.60     80.00
 3154.4000   3154.40     12.02     87.00   2659.02     35.51   -999.25      2.44   -999.25   -999.25   -999.25   -999.25   -999.25   -999.25   -999.25   -999.25      1.22      1.40      0.47     80.00
 3154.6000   3154.60     11.81     86.00   2707.98     35.42   -999.25      2.64   -999.25   -999.25   -999.25   -999.25   -999.25   -999.25   -999.25   -999.25      1.20      1.40      0.42     80.00
 3154.8000   3154.80     11.61     86.00   2684.01     32.44   -999.25      2.84   -999.25   -999.25   -999.25   -999.25   -999.25   -999.25   -999.25   -999.25      1.20      1.40      0.46     80.00
 3155.0000   3155.00     11.41     86.00   2667.00     15.82   -999.25      3.10   -999.25   -999.25   -999.25   -999.25   -999.25   -999.25   -999.25   -999.25      1.20      1.40      0.51     80.00
 3155.2000   3155.20     11.22     86.00   2616.01     32.92   -999.25      3.53   -999.25   -999.25   -999.25   -999.25   -999.25   -999.25   -999.25   -999.25      1.20      1.40      0.55     80.00
 3155.4000   3155.40     11.02     86.00   2648.02     38.12   -999.25      3.97   -999.25   -999.25   -999.25   -999.25   -999.25   -999.25   -999.25   -999.25      1.20      1.40      0.59     80.00
 3155.6000   3155.60     10.81     85.00   2684.98     31.22   -999.25      4.40   -999.25   -999.25   -999.25   -999.25   -999.25   -999.25   -999.25   -999.25      1.24      1.40      0.64     80.00
 3155.8000   3155.80     10.62     85.00   2719.99     31.56   -999.25      4.83   -999.25   -999.25   -999.25   -999.25   -999.25   -999.25   -999.25   -999.25      1.29      1.40      0.69     80.00
 3156.0000   3156.00     10.41     85.00   2720.00     20.65   -999.25      6.53   -999.25   -999.25   -999.25   -999.25   -999.25   -999.25   -999.25   -999.25      1.34      1.40      0.74     80.00
 3156.2000   3156.20     10.22     86.00   2686.97     21.30   -999.25      9.00   -999.25   -999.25   -999.25   -999.25   -999.25   -999.25   -999.25   -999.25      1.38      1.40      0.78     80.00
 3156.4000   3156.40     10.02     85.00   2572.02     26.37   -999.25     11.46   -999.25   -999.25   -999.25   -999.25   -999.25   -999.25   -999.25   -999.25      1.40      1.40      0.84     80.00
 3156.6000   3156.60      9.81     84.00   2608.98     28.05   -999.25     13.93   -999.25   -999.25   -999.25   -999.25   -999.25   -999.25   -999.25   -999.25      1.40      1.40      0.91     80.00
 3156.8000   3156.80      9.62     84.00   2587.01     11.94   -999.25     16.71   -999.25   -999.25   -999.25   -999.25   -999.25   -999.25   -999.25   -999.25      1.40      1.40      0.97     80.00
 3157.0000   3157.00      9.41     84.00   2581.00     20.21   -999.25     19.73   -999.25   -999.25   -999.25   -999.25   -999.25   -999.25   -999.25   -999.25      1.40      1.40      1.04     80.00
 3157.2000   3157.20      9.21     84.00   2604.00     19.34   -999.25     22.76   -999.25   -999.25   -999.25   -999.25   -999.25   -999.25   -999.25   -999.25      1.40      1.40      1.10     80.00
 3157.4000   3157.40      9.01     83.00   2606.00     24.54   -999.25     25.40   -999.25   -999.25   -999.25   -999.25   -999.25   -999.25   -999.25   -999.25      1.40      1.40      1.16     80.00
 3157.6000   3157.60      8.82     84.00   2611.00     12.33   -999.25     28.02   -999.25   -999.25   -999.25   -999.25   -999.25   -999.25   -999.25   -999.25      1.42      1.44      1.18     80.00
 3157.8000   3157.80      8.61     83.00   2588.01     18.61   -999.25     29.45   -999.25   -999.25   -999.25   -999.25   -999.25   -999.25   -999.25   -999.25      1.50      1.60      1.10     80.00
