~Version Information
VERS.                       2.00: SCHLUMBERGER LAS - Version 2.00
WRAP.                         NO: One line per depth step
~Well Information
STRT.M                 1790.0000: Start Depth
STOP.M                 3303.0000: End Depth
STEP.M                    0.2000:  
NULL.                    -999.25:  
COMP.                    Bapetco: COMPANY
WELL.                  BED-15-13: WELL
FLD .                        BED: FLD
SRVC.               Schlumberger: SERVICE COMPANY
LOC .                           : LOCATION
DATE.                  05-Aug-20: LOG DATE
UWI .                  20EGP0554: API NUMBER
~Curve Information
DEPT.M                          : MWD Tool Measurement Depth
BDEP.M                          : Bit Depth
KPOSI.M                          : Kelly Position (Raw)
HKL .KLBF                       : Hook Load
SPP .PSI                        : Standpipe Pressure
ROP .M/HR                       : Rate of Penetration (MWD Depth Ave.)
PSPD.FT/MIN                     : Instantaneous Pipe Speed
VIBC.CPS                        : Vibration Count
SSS_H.                           : Stick Slip Percentage from HDS1
SSL_H.                           : Stick Slip Level from HDS1
RPMMX_H.                           : Maximum RPM from HDS1
TNR .                           : Time Not Rotating from HDS1
PTNR.                           : Percentage Time Not Rotating from HDS1
RPM_H.                           : Average RPM from HDS1
RPMMX_H.                           : Maximum RPM from HDS1
DRPM_H.                           : Differential RPM from HDS1
VIBXH.                           : Vibration X
VIBYH.                           : Vibration Y
VIBZH.                           : Vibration Z
TEMPH.DEG C                      : Temperature from JTDAS Tool
#     DEPT      BDEP     KPOSI       HKL       SPP       ROP      PSPD      VIBC     SSS_H     SSL_H   RPMMX_H       TNR      PTNR     RPM_H   RPMMX_H    DRPM_H     VIBXH     VIBYH     VIBZH     TEMPH
#        M         M         M      KLBF       PSI      M/HR    FT/MIN       CPS                                                                                                                   DEG C
#
# Relog Number     0         0         0         0         0         0         0         0         0         0         0         0         0         0         0         0         0         0         0
#
~ASCII Data
# ...
 3254.0000   3254.00     27.89     85.00   2833.00     12.08   -999.25      1.88   -999.25   -999.25   -999.25   -999.25   -999.25   -999.25   -999.25   -999.25      0.96      1.00      0.96     82.00
 3254.2000   3254.20     27.68     86.00   2827.01     36.43   -999.25      1.67   -999.25   -999.25   -999.25   -999.25   -999.25   -999.25   -999.25   -999.25      0.98      1.00      1.02     82.00
 3254.4000   3254.40     27.48     85.00   2849.01     36.55   -999.25      1.45   -999.25   -999.25   -999.25   -999.25   -999.25   -999.25   -999.25   -999.25      0.93      1.00      1.07     82.00
 3254.6000   3254.60     27.28     86.00   2877.99     14.57   -999.25      1.24   -999.25   -999.25   -999.25   -999.25   -999.25   -999.25   -999.25   -999.25      0.89      1.00      1.11     82.00
 3254.8000   3254.80     27.09     87.00   2880.00     36.95   -999.25      1.02   -999.25   -999.25   -999.25   -999.25   -999.25   -999.25   -999.25   -999.25      0.84      1.00      1.16     82.00
 3255.0000   3255.00     26.88     87.00   2810.00     29.74   -999.25      0.79   -999.25   -999.25   -999.25   -999.25   -999.25   -999.25   -999.25   -999.25      0.80      1.00      1.20     82.00
 3255.2000   3255.20     26.68     86.00   2828.00     34.61   -999.25      0.56   -999.25   -999.25   -999.25   -999.25   -999.25   -999.25   -999.25   -999.25      0.80      0.95      1.15     82.00
 3255.4000   3255.40     26.49     86.00   2840.99     27.25   -999.25      0.32   -999.25   -999.25   -999.25   -999.25   -999.25   -999.25   -999.25   -999.25      0.80      0.90      1.10     82.00
 3255.6000   3255.60     26.28     85.00   2821.01     17.45   -999.25      0.09   -999.25   -999.25   -999.25   -999.25   -999.25   -999.25   -999.25   -999.25      0.80      0.85      1.05     82.00
 3255.8000   3255.80     26.09     85.00   2804.00     28.40   -999.25      0.26   -999.25   -999.25   -999.25   -999.25   -999.25   -999.25   -999.25   -999.25      0.80      0.80      1.00     82.00
 3256.0000   3256.00     25.88     84.00   2793.00     15.13   -999.25      0.69   -999.25   -999.25   -999.25   -999.25   -999.25   -999.25   -999.25   -999.25      0.80      0.91      0.89     82.00
 3256.2000   3256.20     25.68     86.00   2774.98      6.01   -999.25      1.09   -999.25   -999.25   -999.25   -999.25   -999.25   -999.25   -999.25   -999.25      0.82      1.00      0.83     82.00
 3256.4000   3256.40     25.49     88.00   2706.03     51.72   -999.25      1.41   -999.25   -999.25   -999.25   -999.25   -999.25   -999.25   -999.25   -999.25      0.88      1.00      0.95     82.00
 3256.6000   3256.60     25.28     85.00   2769.97     35.03   -999.25      1.73   -999.25   -999.25   -999.25   -999.25   -999.25   -999.25   -999.25   -999.25      0.94      1.00      1.07     82.00
 3256.8000   3256.80     25.08     84.00   2820.99     17.58   -999.25      1.88   -999.25   -999.25   -999.25   -999.25   -999.25   -999.25   -999.25   -999.25      1.00      1.00      1.19     82.00
 3257.0000   3257.00     24.89     85.00   2811.00     14.63   -999.25      1.08   -999.25   -999.25   -999.25   -999.25   -999.25   -999.25   -999.25   -999.25      1.00      1.00      1.14     82.00
 3257.2000   3257.20     24.69     86.00   2905.99     16.57   -999.25      0.28   -999.25   -999.25   -999.25   -999.25   -999.25   -999.25   -999.25   -999.25      1.00      1.00      1.08     82.00
 3257.4000   3257.40     24.48     87.00   2848.96     31.58   -999.25      0.41   -999.25   -999.25   -999.25   -999.25   -999.25   -999.25   -999.25   -999.25      1.00      1.00      1.02     82.00
 3257.6000   3257.60     24.28     87.00   2766.04     46.40   -999.25      1.04   -999.25   -999.25   -999.25   -999.25   -999.25   -999.25   -999.25   -999.25      1.00      1.00      1.00     82.00
 3257.8000   3257.80     24.08     85.00   2803.99     37.40   -999.25      1.67   -999.25   -999.25   -999.25   -999.25   -999.25   -999.25   -999.25   -999.25      1.00      1.00      1.00     82.00
 3258.0000   3258.00     23.88     85.00   2852.00     20.91   -999.25      2.29   -999.25   -999.25   -999.25   -999.25   -999.25   -999.25   -999.25   -999.25      1.00      1.00      1.00     82.00
 3258.2000   3258.20     23.69     84.00   2798.00     32.44   -999.25      2.92   -999.25   -999.25   -999.25   -999.25   -999.25   -999.25   -999.25   -999.25      1.00      1.00      1.00     82.00
 3258.4000   3258.40     23.48     84.00   2792.00     14.81   -999.25      2.60   -999.25   -999.25   -999.25   -999.25   -999.25   -999.25   -999.25   -999.25      1.00      1.05      1.00     82.00
 3258.6000   3258.60     23.28     84.00   2799.00     10.68   -999.25      2.14   -999.25   -999.25   -999.25   -999.25   -999.25   -999.25   -999.25   -999.25      1.00      1.15      1.00     82.00
 3258.8000   3258.80     23.08     84.00   2806.00     14.18   -999.25      2.95   -999.25   -999.25   -999.25   -999.25   -999.25   -999.25   -999.25   -999.25      1.00      1.20      0.96     82.00
 3259.0000   3259.00     22.89     84.00   2836.00     18.43   -999.25      4.35   -999.25   -999.25   -999.25   -999.25   -999.25   -999.25   -999.25   -999.25      1.00      1.20      0.89     82.00
 3259.2000   3259.20     22.69     84.00   2849.00     17.60   -999.25      5.74   -999.25   -999.25   -999.25   -999.25   -999.25   -999.25   -999.25   -999.25      1.00      1.20      0.82     82.00
 3259.4000   3259.40     22.49     85.00   2837.00     11.66   -999.25      4.76   -999.25   -999.25   -999.25   -999.25   -999.25   -999.25   -999.25   -999.25      1.00      1.14      0.86     82.00
 3259.6000   3259.60     22.28     85.00   2833.00     30.75   -999.25      3.24   -999.25   -999.25   -999.25   -999.25   -999.25   -999.25   -999.25   -999.25      1.00      1.07      0.93     82.00
 3259.8000   3259.80     22.09     84.00   2841.00     11.28   -999.25      2.50   -999.25   -999.25   -999.25   -999.25   -999.25   -999.25   -999.25   -999.25      1.00      1.01      1.00     82.00
 3260.0000   3260.00     21.89     85.00   2843.00     26.92   -999.25      5.18   -999.25   -999.25   -999.25   -999.25   -999.25   -999.25   -999.25   -999.25      1.00      1.14      1.00     82.00
 3260.2000   3260.20     21.68     85.00   2832.98     19.02   -999.25      7.86   -999.25   -999.25   -999.25   -999.25   -999.25   -999.25   -999.25   -999.25      1.00      1.27      1.00     82.00
 3260.4000   3260.40     21.49     85.00   2764.01     13.47   -999.25      6.97   -999.25   -999.25   -999.25   -999.25   -999.25   -999.25   -999.25   -999.25      1.00      1.39      1.00     82.00
 3260.6000   3260.60     21.28     85.00   2792.99     10.11   -999.25      3.44   -999.25   -999.25   -999.25   -999.25   -999.25   -999.25   -999.25   -999.25      1.00      1.20      0.90     82.00
 3260.8000   3260.80     21.08     86.00   2860.98     13.38   -999.25      1.51   -999.25   -999.25   -999.25   -999.25   -999.25   -999.25   -999.25   -999.25      1.01      1.00      0.81     82.00
 3261.0000   3261.00     20.88     87.00   2760.00     18.93   -999.25      3.18   -999.25   -999.25   -999.25   -999.25   -999.25   -999.25   -999.25   -999.25      1.07      1.00      0.87     82.00
 3261.2000   3261.20     20.68     86.00   2735.03     17.77   -999.25      4.84   -999.25   -999.25   -999.25   -999.25   -999.25   -999.25   -999.25   -999.25      1.13      1.00      0.93     82.00
 3261.4000   3261.40     20.48     85.00   2861.98     34.71   -999.25      5.23   -999.25   -999.25   -999.25   -999.25   -999.25   -999.25   -999.25   -999.25      1.20      1.00      1.00     82.00
 3261.6000   3261.60     20.28     86.00   2823.02      7.52   -999.25      2.66   -999.25   -999.25   -999.25   -999.25   -999.25   -999.25   -999.25   -999.25      1.13      1.07      0.93     82.00
 3261.8000   3261.80     20.08     88.00   2769.01     28.78   -999.25      1.00   -999.25   -999.25   -999.25   -999.25   -999.25   -999.25   -999.25   -999.25      1.05      1.15      0.85     82.00
