~Version Information
VERS.                       2.00: SCHLUMBERGER LAS - Version 2.00
WRAP.                         NO: One line per depth step
~Well Information
STRT.M                 1195.0000: Start Depth
STOP.M                 1544.0000: End Depth
STEP.M                    0.2000:  
NULL.                    -999.25:  
COMP.                    Bapetco: COMPANY
WELL.                  BED-15-13: WELL
FLD .                        BED: FLD
SRVC.               Schlumberger: SERVICE COMPANY
LOC .                           : LOCATION
DATE.                  29-Jul-20: LOG DATE
UWI .                  20EGP0554: API NUMBER
~Curve Information
DEPT.M                          : MWD Tool Measurement Depth
BDEP.M                          : Bit Depth
KPOSI.M                          : Kelly Position (Raw)
HKL .KLBF                       : Hook Load
SPP .PSI                        : Standpipe Pressure
ROP .M/HR                       : Rate of Penetration (MWD Depth Ave.)
PSPD.M/MIN                      : Instantaneous Pipe Speed
VIBC.CPS                        : Vibration Count
SSL_H.                           : Stick Slip Level from HDS1
SSS_H.                           : Stick Slip Percentage from HDS1
RPM_H.                           : Average RPM from HDS1
VIBXYH.                           : Vibration XY
VIBZH.                           : Vibration Z
#     DEPT      BDEP     KPOSI       HKL       SPP       ROP      PSPD      VIBC     SSL_H     SSS_H     RPM_H    VIBXYH     VIBZH
#        M         M         M      KLBF       PSI      M/HR     M/MIN       CPS                                                  
#
# Relog Number     0         0         0         0         0         0         0         0         0         0         0         0
#
~ASCII Data
# ...
 1480.2000   1480.20     13.14     70.00   2481.99     54.53   -999.25      8.10      3.00    108.59     99.04      2.12      1.58
 1480.4000   1480.40     12.94     71.00   2435.01     48.98   -999.25      8.30      3.00    110.22     96.40      2.07      1.50
 1480.6000   1480.60     12.74     71.00   2410.00     63.84   -999.25      8.50      3.00    111.35     94.32      2.02      1.41
 1480.8000   1480.80     12.54     72.00   2390.00     48.05   -999.25      8.70      3.00    107.41     97.92      1.98      1.33
 1481.0000   1481.00     12.34     72.00   2407.00     56.96   -999.25      8.90      3.00    103.47    101.51      1.93      1.24
 1481.2000   1481.20     12.13     71.00   2436.00     62.55   -999.25      9.10      3.00    104.87     99.23      1.89      1.15
 1481.4000   1481.40     11.94     71.00   2455.00     57.53   -999.25      9.31      3.00    107.10     96.02      1.84      1.07
 1481.6000   1481.60     11.74     71.00   2458.00     54.05   -999.25      9.53      3.00    107.79     95.26      1.79      0.98
 1481.8000   1481.80     11.53     70.00   2427.01     65.32   -999.25      9.74      3.00    105.83     98.67      1.75      0.90
 1482.0000   1482.00     11.34     71.00   2433.00     53.61   -999.25      9.95      3.00    104.01    101.90      1.70      0.81
 1482.2000   1482.20     11.13     70.00   2463.00     55.57   -999.25     10.17      3.00    107.74     97.82      1.73      0.86
 1482.4000   1482.40     10.94     71.00   2459.00     63.68   -999.25     10.38      3.00    111.46     93.73      1.76      0.92
 1482.6000   1482.60     10.73     71.00   2462.00     55.74   -999.25     10.59      3.00    111.18     94.60      1.79      0.99
 1482.8000   1482.80     10.53     71.00   2451.00     53.58   -999.25     10.80      3.00    107.95     99.11      1.83      1.06
 1483.0000   1483.00     10.33     72.00   2463.00     55.03   -999.25     10.97      3.00    107.40    100.81      1.86      1.13
 1483.2000   1483.20     10.14     71.00   2462.99     53.14   -999.25     10.63      3.00    111.64     97.49      1.89      1.19
 1483.4000   1483.40      9.94     72.00   2442.00     41.48   -999.25     10.28      3.00    113.42     96.86      1.93      1.26
 1483.6000   1483.60      9.73     71.00   2439.00     61.19   -999.25      9.93      3.00    113.21     98.41      1.96      1.33
 1483.8000   1483.80      9.53     71.00   2476.99     55.88   -999.25      9.58      3.00    113.00     99.97      2.00      1.39
 1484.0000   1484.00      9.34     71.00   2508.00     56.18   -999.25      9.24      3.00    113.36     97.39      2.01      1.36
 1484.2000   1484.20      9.14     71.00   2494.00     47.93   -999.25      8.89      3.00    113.73     94.72      2.03      1.31
 1484.4000   1484.40      8.93     70.00   2505.00     49.48   -999.25      8.54      3.00    113.52     96.22      2.04      1.26
 1484.6000   1484.60      8.74     71.00   2475.00     45.64   -999.25      8.19      3.00    113.10     99.27      2.06      1.21
 1484.8000   1484.80      8.54     70.00   2461.00     48.57   -999.25      8.00      3.00    112.80     98.37      2.08      1.16
 1485.0000   1485.00      8.34     70.00   2480.00     45.90   -999.25      8.00      3.00    112.53     96.23      2.09      1.11
 1485.2000   1485.20      8.13     70.00   2504.00     48.37   -999.25      8.00      3.00    111.56     96.00      2.11      1.06
 1485.4000   1485.40      7.94     70.00   2504.00     46.14   -999.25      8.00      3.00    110.51     96.00      2.12      1.01
 1485.6000   1485.60      7.74     71.00   2491.00     46.36   -999.25      8.00      3.00    114.41     98.10      2.14      1.00
 1485.8000   1485.80      7.53     72.00   2471.00     45.44   -999.25      8.00      3.00    117.34     99.69      2.16      1.00
 1486.0000   1486.00      7.34     70.00   2491.00     61.92   -999.25      8.00      3.00    113.65     97.98      2.17      1.00
 1486.2000   1486.20      7.14     71.00   2469.00     45.79   -999.25      8.00      3.00    109.97     96.27      2.19      1.00
 1486.4000   1486.40      6.94     71.00   2452.00     46.25   -999.25      8.00      3.00    110.48     97.68      2.21      1.00
 1486.6000   1486.60      6.74     71.00   2456.00     49.03   -999.25      8.00      3.00    111.79     99.68      2.23      1.00
 1486.8000   1486.80      6.53     71.00   2444.00     46.72   -999.25      8.00      3.00    111.63     99.06      2.24      1.00
 1487.0000   1487.00      6.34     71.00   2458.00     41.77   -999.25      8.00      3.00    111.21     98.05      2.26      1.00
 1487.2000   1487.20      6.14     70.00   2459.00     45.79   -999.25      8.00      3.00    111.09     99.16      2.23      1.02
 1487.4000   1487.40      5.94     71.00   2443.00     40.19   -999.25      8.00      3.00    111.73     99.27      2.19      1.05
 1487.6000   1487.60      5.74     72.00   2439.00     41.05   -999.25      8.00      3.00    114.79     96.22      2.16      1.08
 1487.8000   1487.80      5.54     71.00   2460.99     54.15   -999.25      8.01      3.00    115.15     94.93      2.12      1.11
 1488.0000   1488.00      5.34     72.00   2427.00     40.84   -999.25      8.14      3.00    108.25     98.38      2.09      1.13
 1488.2000   1488.20      5.13     72.00   2410.00     50.35   -999.25      8.27      3.00    108.39     98.84      2.05      1.16
 1488.4000   1488.40      4.93     72.00   2429.00     43.20   -999.25      8.40      3.00    114.78     96.65      2.02      1.19
 1488.6000   1488.60      4.74     72.00   2420.00     53.38   -999.25      8.54      3.00    113.88     97.29      1.98      1.17
 1488.8000   1488.80      4.54     71.00   2447.99     50.00   -999.25      8.67      3.00    109.92     99.11      1.94      1.12
 1489.0000   1489.00      4.34     72.00   2425.00     31.36   -999.25      8.80      3.00    111.32     98.21      1.90      1.07
 1489.2000   1489.20      4.14     71.00   2398.01     53.11   -999.25      8.93      3.00    117.76     94.75      1.86      1.02
 1489.4000   1489.40      3.93     71.00   2420.00     41.59   -999.25      8.75      3.00    114.10     96.49      1.82      0.97
 1489.6000   1489.60      3.74     71.00   2433.00     52.86   -999.25      8.26      3.00    107.67     99.67      1.79      0.92
 1489.8000   1489.80      3.54     71.00   2454.99     42.11   -999.25      7.76      3.00    108.50     98.25      1.75      0.87
 1490.0000   1490.00      3.34     71.00   2426.00     57.47   -999.25      7.27      3.00    110.17     96.29      1.71      0.81
 1490.2000   1490.20      3.14     72.00   2435.99     36.95   -999.25      6.78      3.00    112.39     96.80      1.70      0.87
 1490.4000   1490.40      2.94     73.00   2376.01     67.76   -999.25      6.29      3.00    114.70     97.75      1.70      0.96
 1490.6000   1490.60      2.74     70.00   2410.01     71.06   -999.25      5.80      3.00    113.47     98.69      1.70      1.06
 1490.8000   1490.80      2.54     70.00   2505.98     51.38   -999.25      5.30      3.00    110.98     99.63      1.70      1.15
 1491.0000   1491.00      2.34     71.00   2479.00     37.00   -999.25      5.69      3.00    114.39     98.74      1.70      1.25
 1491.2000   1491.20      2.13     71.00   2446.00     56.35   -999.25      7.47      3.00    121.59     96.68      1.70      1.34
 1491.4000   1491.40      1.94     70.00   2439.00     52.40   -999.25      9.25      3.00    122.50     95.39      1.70      1.44
 1491.6000   1491.60      1.74     69.00   2454.00     56.62   -999.25     11.03      3.00    120.33     94.49      1.70      1.53
 1491.8000   1491.80      1.54     69.00   2477.99     48.49   -999.25     12.81      3.00    115.04     96.43      1.72      1.53
 1492.0000   1492.00     29.96     74.00   2314.00      1.65   -999.25     12.93      2.96    864.02     12.12      1.79      1.28
 1492.2000   1492.20     29.76     71.00   2404.02     67.94   -999.25      9.70      2.39    414.08     63.67      1.87      1.03
 1492.4000   1492.40     29.57     71.00   2472.99     52.24   -999.25      6.46      2.28    104.37     97.20      1.94      0.79
