~Version Information
VERS.                       2.00: SCHLUMBERGER LAS - Version 2.00
WRAP.                         NO: One line per depth step
~Well Information
STRT.M                 1195.0000: Start Depth
STOP.M                 1544.0000: End Depth
STEP.M                    0.2000:  
NULL.                    -999.25:  
COMP.                    Bapetco: COMPANY
WELL.                  BED-15-13: WELL
FLD .                        BED: FLD
SRVC.               Schlumberger: SERVICE COMPANY
LOC .                           : LOCATION
DATE.                  29-Jul-20: LOG DATE
UWI .                  20EGP0554: API NUMBER
~Curve Information
DEPT.M                          : MWD Tool Measurement Depth
BDEP.M                          : Bit Depth
KPOSI.M                          : Kelly Position (Raw)
HKL .KLBF                       : Hook Load
SPP .PSI                        : Standpipe Pressure
ROP .M/HR                       : Rate of Penetration (MWD Depth Ave.)
PSPD.M/MIN                      : Instantaneous Pipe Speed
VIBC.CPS                        : Vibration Count
SSL_H.                           : Stick Slip Level from HDS1
SSS_H.                           : Stick Slip Percentage from HDS1
RPM_H.                           : Average RPM from HDS1
VIBXYH.                           : Vibration XY
VIBZH.                           : Vibration Z
#     DEPT      BDEP     KPOSI       HKL       SPP       ROP      PSPD      VIBC     SSL_H     SSS_H     RPM_H    VIBXYH     VIBZH
#        M         M         M      KLBF       PSI      M/HR     M/MIN       CPS                                                  
#
# Relog Number     0         0         0         0         0         0         0         0         0         0         0         0
#
~ASCII Data
# ...
 1393.4000   1393.40     13.81     67.00   2600.00     58.56   -999.25      4.00      2.85     99.27     98.29      1.74      0.54
 1393.6000   1393.60     13.61     67.00   2576.99     48.84   -999.25      4.00      3.00    102.35     98.00      1.76      0.51
 1393.8000   1393.80     13.42     68.00   2501.02     50.68   -999.25      4.00      3.00    106.02     98.00      1.78      0.49
 1394.0000   1394.00     13.21     69.00   2508.00     42.19   -999.25      4.04      3.00    107.14     98.00      1.79      0.47
 1394.2000   1394.20     13.02     69.00   2482.00     64.67   -999.25      4.16      3.00    107.14     98.00      1.81      0.44
 1394.4000   1394.40     12.81     69.00   2490.00     49.47   -999.25      4.29      3.00    107.54     98.00      1.83      0.42
 1394.6000   1394.60     12.62     70.00   2442.00     50.35   -999.25      4.41      3.00    108.48     98.00      1.85      0.40
 1394.8000   1394.80     12.41     70.00   2404.01     64.40   -999.25      4.54      3.00    108.79     98.00      1.89      0.40
 1395.0000   1395.00     12.22     70.00   2423.00     49.78   -999.25      4.67      3.00    107.29     98.00      1.93      0.40
 1395.2000   1395.20     12.02     71.00   2421.98     25.16   -999.25      4.79      3.00    105.97     97.68      1.98      0.40
 1395.4000   1395.40     11.82     71.00   2346.01     59.49   -999.25      4.92      3.00    105.31     96.21      2.02      0.40
 1395.6000   1395.60     11.62     70.00   2429.00     53.05   -999.25      4.94      2.55    101.52     96.89      2.06      0.40
 1395.8000   1395.80     11.41     71.00   2436.00     40.80   -999.25      4.75      2.03     97.20     97.94      2.11      0.40
 1396.0000   1396.00     11.21     72.00   2375.00     17.92   -999.25      4.57      2.71     97.69    100.00      2.11      0.40
 1396.2000   1396.20     11.01     72.00   2393.01     38.04   -999.25      4.39      2.10     86.75    100.00      2.09      0.40
 1396.4000   1396.40     10.82     70.00   2426.00     36.12   -999.25      4.20      0.91     53.00     98.91      2.07      0.40
 1396.6000   1396.60     10.61     70.00   2402.01     45.50   -999.25      4.02      0.00     27.05     98.00      2.05      0.40
 1396.8000   1396.80     10.42     70.00   2454.99     39.09   -999.25      4.00      0.00     28.74     98.00      2.02      0.40
 1397.0000   1397.00     10.21     70.00   2423.00     52.73   -999.25      4.00      0.26     39.28     98.52      2.00      0.40
 1397.2000   1397.20     10.02     70.00   2419.00     43.92   -999.25      4.00      0.78     58.66     99.55      1.98      0.40
 1397.4000   1397.40      9.82     71.00   2401.00     46.58   -999.25      4.00      1.67     78.34     99.33      1.96      0.44
 1397.6000   1397.60      9.62     70.00   2423.01     40.01   -999.25      4.00      2.84     98.23     98.16      1.93      0.47
 1397.8000   1397.80      9.41     70.00   2473.99     32.48   -999.25      4.00      2.52    100.06     98.95      1.91      0.50
 1398.0000   1398.00      9.21     69.00   2493.00     55.44   -999.25      4.00      2.04     99.08    100.00      1.89      0.53
 1398.2000   1398.20      9.02     70.00   2459.00     32.66   -999.25      4.23      2.77    100.55    100.00      1.87      0.56
 1398.4000   1398.40      8.82     71.00   2456.00     32.52   -999.25      4.52      3.00    101.01     99.10      1.85      0.59
 1398.6000   1398.60      8.62     70.00   2463.00     39.21   -999.25      4.81      3.00    101.40     97.82      1.84      0.56
 1398.8000   1398.80      8.42     70.00   2454.00     44.59   -999.25      5.11      3.00    103.72     96.71      1.84      0.50
 1399.0000   1399.00      8.22     69.00   2467.00     44.91   -999.25      5.40      3.00    104.80     96.38      1.84      0.44
 1399.2000   1399.20      8.02     70.00   2460.01     48.84   -999.25      5.69      3.00    103.67     97.43      1.84      0.38
 1399.4000   1399.40      7.82     68.00   2510.99     48.84   -999.25      5.99      3.00    103.85     97.50      1.84      0.32
 1399.6000   1399.60      7.62     68.00   2532.99     39.26   -999.25      6.32      3.00    105.58     96.42      1.84      0.26
 1399.8000   1399.80      7.42     69.00   2488.01     29.61   -999.25      6.66      3.00    108.84     97.31      1.84      0.21
 1400.0000   1400.00      7.21     71.00   2434.00     25.20   -999.25      6.99      3.00    109.29     98.83      1.82      0.20
 1400.2000   1400.20      7.01     71.00   2391.02     52.99   -999.25      7.32      2.98    107.69    100.00      1.80      0.20
 1400.4000   1400.40      6.82     68.00   2470.99     44.17   -999.25      7.66      2.39     98.90    100.00      1.77      0.20
 1400.6000   1400.60      6.61     68.00   2525.00     37.40   -999.25      7.99      2.22     95.83     99.57      1.75      0.20
 1400.8000   1400.80      6.42     68.00   2542.00     36.54   -999.25      7.45      2.87    104.41     98.26      1.73      0.20
 1401.0000   1401.00      6.22     69.00   2490.00     36.71   -999.25      6.90      3.00    107.14     98.00      1.70      0.20
 1401.2000   1401.20      6.01     70.00   2467.99     42.68   -999.25      6.34      3.00    107.81     98.22      1.73      0.20
 1401.4000   1401.40      5.81     71.00   2442.00     38.07   -999.25      5.78      3.00    106.03     99.35      1.77      0.20
 1401.6000   1401.60      5.62     71.00   2448.00     50.42   -999.25      5.22      2.81    102.64     99.23      1.80      0.20
 1401.8000   1401.80      5.42     70.00   2464.00     46.76   -999.25      4.67      2.36     97.08     97.42      1.84      0.20
 1402.0000   1402.00      5.21     70.00   2466.00     55.78   -999.25      4.11      2.15     94.91     96.00      1.88      0.20
 1402.2000   1402.20      5.02     70.00   2496.98     31.53   -999.25      4.79      2.85    105.14     96.00      1.92      0.20
 1402.4000   1402.40      4.81     71.00   2432.01     38.48   -999.25      5.78      3.00    106.73     96.95      1.96      0.20
 1402.6000   1402.60      4.62     71.00   2436.00     34.17   -999.25      6.77      3.00    105.97     98.00      1.98      0.20
 1402.8000   1402.80      4.42     72.00   2405.01     42.55   -999.25      7.75      3.00    104.79     98.00      1.98      0.20
 1403.0000   1403.00      4.21     70.00   2474.00     59.51   -999.25      8.74      2.83    102.87     98.34      1.98      0.20
 1403.2000   1403.20      4.01     70.00   2493.99     56.35   -999.25      9.72      2.40     99.85     99.19      1.98      0.20
 1403.4000   1403.40      3.82     70.00   2435.01     54.53   -999.25     10.71      2.03     97.29    100.00      1.98      0.20
 1403.6000   1403.60      3.62     71.00   2424.00     43.20   -999.25     10.37      2.57    102.67    100.00      1.98      0.20
 1403.8000   1403.80      3.41     71.00   2456.99     44.41   -999.25      9.47      3.00    106.71    100.00      1.98      0.20
 1404.0000   1404.00      3.22     71.00   2449.00     50.54   -999.25      8.57      3.00    105.24    100.00      1.98      0.20
 1404.2000   1404.20      3.02     69.00   2463.00     50.38   -999.25      7.67      3.00    104.09     99.84      1.95      0.22
 1404.4000   1404.40      2.82     70.00   2458.00     50.10   -999.25      6.77      3.00    104.65     98.82      1.91      0.25
 1404.6000   1404.60      2.61     70.00   2488.00     42.11   -999.25      5.88      3.00    104.80     98.00      1.88      0.27
 1404.8000   1404.80      2.41     70.00   2473.00     51.13   -999.25      4.98      3.00    103.24     98.00      1.84      0.30
 1405.0000   1405.00      2.22     69.00   2501.00     44.63   -999.25      4.08      3.00    102.04     98.00      1.81      0.32
 1405.2000   1405.20      2.02     70.00   2478.00     53.52   -999.25      6.44      3.00    102.04     98.00      1.77      0.35
 1405.4000   1405.40      1.82     70.00   2488.00     39.23   -999.25      9.12      3.00    103.34     97.51      1.74      0.37
 1405.6000   1405.60      1.62     69.00   2493.00     56.14   -999.25     11.81      3.00    105.51     96.68      1.70      0.40
