~Version Information
VERS.                       2.00: SCHLUMBERGER LAS - Version 2.00
WRAP.                         NO: One line per depth step
~Well Information
STRT.M                 1790.0000: Start Depth
STOP.M                 3303.0000: End Depth
STEP.M                    0.2000:  
NULL.                    -999.25:  
COMP.                    Bapetco: COMPANY
WELL.                  BED-15-13: WELL
FLD .                        BED: FLD
SRVC.               Schlumberger: SERVICE COMPANY
LOC .                           : LOCATION
DATE.                  05-Aug-20: LOG DATE
UWI .                  20EGP0554: API NUMBER
~Curve Information
DEPT.M                          : MWD Tool Measurement Depth
BDEP.M                          : Bit Depth
KPOSI.M                          : Kelly Position (Raw)
HKL .KLBF                       : Hook Load
SPP .PSI                        : Standpipe Pressure
ROP .M/HR                       : Rate of Penetration (MWD Depth Ave.)
PSPD.FT/MIN                     : Instantaneous Pipe Speed
VIBC.CPS                        : Vibration Count
SSS_H.                           : Stick Slip Percentage from HDS1
SSL_H.                           : Stick Slip Level from HDS1
RPMMX_H.                           : Maximum RPM from HDS1
TNR .                           : Time Not Rotating from HDS1
PTNR.                           : Percentage Time Not Rotating from HDS1
RPM_H.                           : Average RPM from HDS1
RPMMX_H.                           : Maximum RPM from HDS1
DRPM_H.                           : Differential RPM from HDS1
VIBXH.                           : Vibration X
VIBYH.                           : Vibration Y
VIBZH.                           : Vibration Z
TEMPH.DEG C                      : Temperature from JTDAS Tool
#     DEPT      BDEP     KPOSI       HKL       SPP       ROP      PSPD      VIBC     SSS_H     SSL_H   RPMMX_H       TNR      PTNR     RPM_H   RPMMX_H    DRPM_H     VIBXH     VIBYH     VIBZH     TEMPH
#        M         M         M      KLBF       PSI      M/HR    FT/MIN       CPS                                                                                                                   DEG C
#
# Relog Number     0         0         0         0         0         0         0         0         0         0         0         0         0         0         0         0         0         0         0
#
~ASCII Data
# ...
 3126.0000   3126.00     11.64     83.00   2604.00     22.77   -999.25     27.28   -999.25   -999.25   -999.25   -999.25   -999.25   -999.25   -999.25   -999.25      1.68      2.15      1.00     79.00
 3126.2000   3126.20     11.43     83.00   2605.00     24.05   -999.25     30.44   -999.25   -999.25   -999.25   -999.25   -999.25   -999.25   -999.25   -999.25      1.63      2.31      1.00     79.00
 3126.4000   3126.40     11.24     82.00   2609.00     23.70   -999.25     32.94   -999.25   -999.25   -999.25   -999.25   -999.25   -999.25   -999.25   -999.25      1.60      2.33      1.02     79.00
 3126.6000   3126.60     11.03     82.00   2614.00     22.96   -999.25     35.45   -999.25   -999.25   -999.25   -999.25   -999.25   -999.25   -999.25   -999.25      1.60      2.15      1.08     79.00
 3126.8000   3126.80     10.83     82.00   2617.00     18.61   -999.25     37.95   -999.25   -999.25   -999.25   -999.25   -999.25   -999.25   -999.25   -999.25      1.60      1.97      1.14     79.00
 3127.0000   3127.00     10.63     83.00   2610.00     18.69   -999.25     37.17   -999.25   -999.25   -999.25   -999.25   -999.25   -999.25   -999.25   -999.25      1.61      1.80      1.20     79.00
 3127.2000   3127.20     10.43     83.00   2624.00     23.94   -999.25     36.33   -999.25   -999.25   -999.25   -999.25   -999.25   -999.25   -999.25   -999.25      1.76      1.80      1.20     79.00
 3127.4000   3127.40     10.24     83.00   2620.00     22.26   -999.25     35.48   -999.25   -999.25   -999.25   -999.25   -999.25   -999.25   -999.25   -999.25      1.92      1.80      1.20     79.00
 3127.6000   3127.60     10.04     82.00   2623.00     20.53   -999.25     35.79   -999.25   -999.25   -999.25   -999.25   -999.25   -999.25   -999.25   -999.25      2.08      1.80      1.20     79.00
 3127.8000   3127.80      9.84     82.00   2625.00     19.85   -999.25     37.62   -999.25   -999.25   -999.25   -999.25   -999.25   -999.25   -999.25   -999.25      2.18      1.82      1.20     79.00
 3128.0000   3128.00      9.63     82.00   2597.00     21.81   -999.25     39.45   -999.25   -999.25   -999.25   -999.25   -999.25   -999.25   -999.25   -999.25      2.12      1.88      1.20     79.00
 3128.2000   3128.20      9.44     82.00   2623.99     17.10   -999.25     40.87   -999.25   -999.25   -999.25   -999.25   -999.25   -999.25   -999.25   -999.25      2.05      1.95      1.20     79.00
 3128.4000   3128.40      9.24     83.00   2599.01     21.43   -999.25     39.99   -999.25   -999.25   -999.25   -999.25   -999.25   -999.25   -999.25   -999.25      1.98      1.99      1.19     79.00
 3128.6000   3128.60      9.04     82.00   2621.99     19.74   -999.25     39.11   -999.25   -999.25   -999.25   -999.25   -999.25   -999.25   -999.25   -999.25      1.85      1.93      1.13     79.00
 3128.8000   3128.80      8.84     82.00   2609.00     20.34   -999.25     38.24   -999.25   -999.25   -999.25   -999.25   -999.25   -999.25   -999.25   -999.25      1.73      1.87      1.07     79.00
 3129.0000   3129.00      8.64     83.00   2611.00     17.03   -999.25     35.93   -999.25   -999.25   -999.25   -999.25   -999.25   -999.25   -999.25   -999.25      1.61      1.80      1.00     79.00
 3129.2000   3129.20      8.44     83.00   2605.00     20.57   -999.25     33.10   -999.25   -999.25   -999.25   -999.25   -999.25   -999.25   -999.25   -999.25      1.66      1.91      1.00     79.00
 3129.4000   3129.40      8.24     83.00   2624.00     20.91   -999.25     30.27   -999.25   -999.25   -999.25   -999.25   -999.25   -999.25   -999.25   -999.25      1.72      2.03      1.00     79.00
 3129.6000   3129.60      8.04     83.00   2631.00     19.01   -999.25     29.84   -999.25   -999.25   -999.25   -999.25   -999.25   -999.25   -999.25   -999.25      1.78      2.15      1.00     79.00
 3129.8000   3129.80      7.83     83.00   2625.00     15.72   -999.25     31.38   -999.25   -999.25   -999.25   -999.25   -999.25   -999.25   -999.25   -999.25      1.80      2.09      1.07     79.00
 3130.0000   3130.00      7.63     84.00   2619.00     21.89   -999.25     32.92   -999.25   -999.25   -999.25   -999.25   -999.25   -999.25   -999.25   -999.25      1.80      1.91      1.19     79.00
 3130.2000   3130.20      7.44     83.00   2597.00     23.73   -999.25     34.65   -999.25   -999.25   -999.25   -999.25   -999.25   -999.25   -999.25   -999.25      1.80      1.73      1.31     79.00
 3130.4000   3130.40      7.23     83.00   2590.00     18.21   -999.25     36.87   -999.25   -999.25   -999.25   -999.25   -999.25   -999.25   -999.25   -999.25      1.85      1.63      1.37     79.00
 3130.6000   3130.60      7.03     83.00   2586.00     17.03   -999.25     39.08   -999.25   -999.25   -999.25   -999.25   -999.25   -999.25   -999.25   -999.25      2.04      1.76      1.24     79.00
 3130.8000   3130.80      6.84     83.00   2602.00     21.87   -999.25     41.72   -999.25   -999.25   -999.25   -999.25   -999.25   -999.25   -999.25   -999.25      2.22      1.88      1.12     79.00
 3131.0000   3131.00      6.64     83.00   2633.00     21.79   -999.25     47.03   -999.25   -999.25   -999.25   -999.25   -999.25   -999.25   -999.25   -999.25      2.40      2.00      1.00     79.00
 3131.2000   3131.20      6.44     82.00   2647.00     18.13   -999.25     52.34   -999.25   -999.25   -999.25   -999.25   -999.25   -999.25   -999.25   -999.25      2.33      2.07      1.00     79.00
 3131.4000   3131.40      6.23     83.00   2655.97     18.19   -999.25     57.65   -999.25   -999.25   -999.25   -999.25   -999.25   -999.25   -999.25   -999.25      2.27      2.13      1.00     79.00
 3131.6000   3131.60      6.03     83.00   2602.03     20.64   -999.25     48.62   -999.25   -999.25   -999.25   -999.25   -999.25   -999.25   -999.25   -999.25      2.21      2.19      1.00     79.00
 3131.8000   3131.80      5.84     82.00   2629.99     19.36   -999.25     38.59   -999.25   -999.25   -999.25   -999.25   -999.25   -999.25   -999.25   -999.25      2.08      2.08      1.06     79.00
 3132.0000   3132.00      5.63     83.00   2706.00     19.85   -999.25     28.55   -999.25   -999.25   -999.25   -999.25   -999.25   -999.25   -999.25   -999.25      1.94      1.94      1.13     79.00
 3132.2000   3132.20      5.43     84.00   2637.00     15.45   -999.25     29.62   -999.25   -999.25   -999.25   -999.25   -999.25   -999.25   -999.25   -999.25      1.81      1.81      1.20     79.00
 3132.4000   3132.40      5.24     85.00   2646.95     20.55   -999.25     31.34   -999.25   -999.25   -999.25   -999.25   -999.25   -999.25   -999.25   -999.25      1.85      1.85      1.15     79.00
 3132.6000   3132.60      5.04     84.00   2540.05     58.13   -999.25     33.06   -999.25   -999.25   -999.25   -999.25   -999.25   -999.25   -999.25   -999.25      1.90      1.90      1.10     79.00
 3132.8000   3132.80      4.84     83.00   2560.99     19.21   -999.25     34.78   -999.25   -999.25   -999.25   -999.25   -999.25   -999.25   -999.25   -999.25      1.95      1.95      1.05     79.00
 3133.0000   3133.00      4.64     82.00   2585.00     18.67   -999.25     36.37   -999.25   -999.25   -999.25   -999.25   -999.25   -999.25   -999.25   -999.25      2.00      2.00      1.00     79.00
 3133.2000   3133.20      4.44     83.00   2576.99     11.13   -999.25     37.95   -999.25   -999.25   -999.25   -999.25   -999.25   -999.25   -999.25   -999.25      1.90      1.90      1.00     79.00
 3133.4000   3133.40      4.24     84.00   2545.99      7.95   -999.25     37.98   -999.25   -999.25   -999.25   -999.25   -999.25   -999.25   -999.25   -999.25      1.80      1.80      1.00     79.00
 3133.6000   3133.60      4.03     84.00   2529.01     39.71   -999.25     34.94   -999.25   -999.25   -999.25   -999.25   -999.25   -999.25   -999.25   -999.25      1.86      1.93      1.00     79.00
 3133.8000   3133.80      3.83     83.00   2596.98     27.36   -999.25     31.90   -999.25   -999.25   -999.25   -999.25   -999.25   -999.25   -999.25   -999.25      1.93      2.05      1.00     79.00
