~Version Information
VERS.                       2.00: SCHLUMBERGER LAS - Version 2.00
WRAP.                         NO: One line per depth step
~Well Information
STRT.M                 1790.0000: Start Depth
STOP.M                 3303.0000: End Depth
STEP.M                    0.2000:  
NULL.                    -999.25:  
COMP.                    Bapetco: COMPANY
WELL.                  BED-15-13: WELL
FLD .                        BED: FLD
SRVC.               Schlumberger: SERVICE COMPANY
LOC .                           : LOCATION
DATE.                  05-Aug-20: LOG DATE
UWI .                  20EGP0554: API NUMBER
~Curve Information
DEPT.M                          : MWD Tool Measurement Depth
BDEP.M                          : Bit Depth
KPOSI.M                          : Kelly Position (Raw)
HKL .KLBF                       : Hook Load
SPP .PSI                        : Standpipe Pressure
ROP .M/HR                       : Rate of Penetration (MWD Depth Ave.)
PSPD.FT/MIN                     : Instantaneous Pipe Speed
VIBC.CPS                        : Vibration Count
SSS_H.                           : Stick Slip Percentage from HDS1
SSL_H.                           : Stick Slip Level from HDS1
RPMMX_H.                           : Maximum RPM from HDS1
TNR .                           : Time Not Rotating from HDS1
PTNR.                           : Percentage Time Not Rotating from HDS1
RPM_H.                           : Average RPM from HDS1
RPMMX_H.                           : Maximum RPM from HDS1
DRPM_H.                           : Differential RPM from HDS1
VIBXH.                           : Vibration X
VIBYH.                           : Vibration Y
VIBZH.                           : Vibration Z
TEMPH.DEG C                      : Temperature from JTDAS Tool
#     DEPT      BDEP     KPOSI       HKL       SPP       ROP      PSPD      VIBC     SSS_H     SSL_H   RPMMX_H       TNR      PTNR     RPM_H   RPMMX_H    DRPM_H     VIBXH     VIBYH     VIBZH     TEMPH
#        M         M         M      KLBF       PSI      M/HR    FT/MIN       CPS                                                                                                                   DEG C
#
# Relog Number     0         0         0         0         0         0         0         0         0         0         0         0         0         0         0         0         0         0         0
#
~ASCII Data
# ...
 3278.0000   3278.00      3.89     88.00   2701.00     35.82   -999.25      1.99   -999.25   -999.25   -999.25   -999.25   -999.25   -999.25   -999.25   -999.25      1.00      1.00      0.80     83.00
 3278.2000   3278.20      3.69     87.00   2662.01     36.82   -999.25      2.65   -999.25   -999.25   -999.25   -999.25   -999.25   -999.25   -999.25   -999.25      1.00      1.00      0.80     83.00
 3278.4000   3278.40      3.48     86.00   2683.02     24.64   -999.25      3.31   -999.25   -999.25   -999.25   -999.25   -999.25   -999.25   -999.25   -999.25      1.00      1.00      0.80     83.00
 3278.6000   3278.60      3.29     85.00   2715.98     16.49   -999.25      3.97   -999.25   -999.25   -999.25   -999.25   -999.25   -999.25   -999.25   -999.25      1.00      1.00      0.80     83.00
 3278.8000   3278.80      3.08     85.00   2727.00     21.09   -999.25      4.31   -999.25   -999.25   -999.25   -999.25   -999.25   -999.25   -999.25   -999.25      1.00      1.02      0.80     83.00
 3279.0000   3279.00      2.88     84.00   2749.00     16.30   -999.25      4.63   -999.25   -999.25   -999.25   -999.25   -999.25   -999.25   -999.25   -999.25      1.00      1.09      0.80     83.00
 3279.2000   3279.20      2.69     84.00   2733.01     19.60   -999.25      4.95   -999.25   -999.25   -999.25   -999.25   -999.25   -999.25   -999.25   -999.25      1.00      1.16      0.80     83.00
 3279.4000   3279.40      2.49     84.00   2767.04     15.24   -999.25      3.02   -999.25   -999.25   -999.25   -999.25   -999.25   -999.25   -999.25   -999.25      1.00      1.17      0.80     83.00
 3279.6000   3279.60      2.28     86.00   2858.96      9.82   -999.25      0.67   -999.25   -999.25   -999.25   -999.25   -999.25   -999.25   -999.25   -999.25      1.00      1.09      0.80     83.00
 3279.8000   3279.80      2.08     88.00   2739.03     36.51   -999.25      0.00   -999.25   -999.25   -999.25   -999.25   -999.25   -999.25   -999.25   -999.25      1.00      1.02      0.80     83.00
 3280.0000   3280.00      1.89     87.00   2750.00     39.06   -999.25      0.00   -999.25   -999.25   -999.25   -999.25   -999.25   -999.25   -999.25   -999.25      1.00      1.06      0.83     83.00
 3280.2000   3280.20      1.68     87.00   2771.98     19.79   -999.25      0.00   -999.25   -999.25   -999.25   -999.25   -999.25   -999.25   -999.25   -999.25      1.00      1.13      0.87     83.00
 3280.4000   3280.40      1.48     89.00   2690.00     32.67   -999.25      0.00   -999.25   -999.25   -999.25   -999.25   -999.25   -999.25   -999.25   -999.25      1.00      1.21      0.90     83.00
 3280.6000   3280.60      1.29     89.00   2698.00     36.73   -999.25      0.00   -999.25   -999.25   -999.25   -999.25   -999.25   -999.25   -999.25   -999.25      1.00      1.28      0.94     83.00
 3280.8000   3280.80      1.09     89.00   2686.00     44.05   -999.25      0.37   -999.25   -999.25   -999.25   -999.25   -999.25   -999.25   -999.25   -999.25      1.00      1.36      0.98     83.00
 3281.0000   3281.00      0.88     89.00   2715.00     32.04   -999.25      1.08   -999.25   -999.25   -999.25   -999.25   -999.25   -999.25   -999.25   -999.25      1.03      1.40      0.97     83.00
 3281.2000   3281.20     27.29     88.00   2640.02      5.39   -999.25      1.79   -999.25   -999.25   -999.25   -999.25   -999.25   -999.25   -999.25   -999.25      1.09      1.40      0.91     83.00
 3281.4000   3281.40     29.50     86.00   2720.05     72.21   -999.25      2.50   -999.25   -999.25   -999.25   -999.25   -999.25   -999.25   -999.25   -999.25      1.15      1.40      0.85     83.00
 3281.6000   3281.60     29.20     84.00   2829.95     38.59   -999.25      3.21   -999.25   -999.25   -999.25   -999.25   -999.25   -999.25   -999.25   -999.25      1.17      1.37      0.83     83.00
 3281.8000   3281.80     28.90     84.00   2807.01     18.10   -999.25      3.92   -999.25   -999.25   -999.25   -999.25   -999.25   -999.25   -999.25   -999.25      1.02      1.22      1.02     83.00
 3282.0000   3282.00     28.52     85.00   2851.00      4.47   -999.25      1.15   -999.25   -999.25   -999.25   -999.25   -999.25   -999.25   -999.25   -999.25      1.10      1.30      1.10     83.00
 3282.2000   3282.20     28.30     89.00   2744.00     27.97   -999.25      1.50   -999.25   -999.25   -999.25   -999.25   -999.25   -999.25   -999.25   -999.25      1.18      1.38      1.18     83.00
 3282.4000   3282.40     28.00     87.00   2732.02     14.55   -999.25      1.85   -999.25   -999.25   -999.25   -999.25   -999.25   -999.25   -999.25   -999.25      1.15      1.35      1.15     83.00
 3282.6000   3282.60     27.79     86.00   2773.98     31.70   -999.25      1.80   -999.25   -999.25   -999.25   -999.25   -999.25   -999.25   -999.25   -999.25      1.08      1.28      1.08     83.00
 3282.8000   3282.80     27.60     85.00   2810.99     13.02   -999.25      1.44   -999.25   -999.25   -999.25   -999.25   -999.25   -999.25   -999.25   -999.25      1.01      1.21      1.01     83.00
 3283.0000   3283.00     27.40     85.00   2810.00     14.08   -999.25      1.08   -999.25   -999.25   -999.25   -999.25   -999.25   -999.25   -999.25   -999.25      1.00      1.20      1.00     83.00
 3283.2000   3283.20     27.20     85.00   2801.00     13.84   -999.25      2.07   -999.25   -999.25   -999.25   -999.25   -999.25   -999.25   -999.25   -999.25      1.00      1.20      1.00     83.00
 3283.4000   3283.40     26.99     86.00   2799.98      8.01   -999.25      3.09   -999.25   -999.25   -999.25   -999.25   -999.25   -999.25   -999.25   -999.25      1.00      1.20      1.00     83.00
 3283.6000   3283.60     26.80     89.00   2767.02     21.94   -999.25      3.36   -999.25   -999.25   -999.25   -999.25   -999.25   -999.25   -999.25   -999.25      1.00      1.20      1.00     83.00
 3283.8000   3283.80     26.59     90.00   2712.01     28.64   -999.25      3.63   -999.25   -999.25   -999.25   -999.25   -999.25   -999.25   -999.25   -999.25      1.00      1.17      1.00     83.00
 3284.0000   3284.00     26.39     88.00   2715.00     37.13   -999.25      3.90   -999.25   -999.25   -999.25   -999.25   -999.25   -999.25   -999.25   -999.25      1.00      1.10      1.00     83.00
 3284.2000   3284.20     26.19     87.00   2740.02     13.44   -999.25      3.26   -999.25   -999.25   -999.25   -999.25   -999.25   -999.25   -999.25   -999.25      1.00      1.02      1.00     83.00
 3284.4000   3284.40     26.00     87.00   2810.95      9.73   -999.25      2.04   -999.25   -999.25   -999.25   -999.25   -999.25   -999.25   -999.25   -999.25      1.00      1.00      0.97     83.00
 3284.6000   3284.60     25.80     90.00   2705.05     15.01   -999.25      1.79   -999.25   -999.25   -999.25   -999.25   -999.25   -999.25   -999.25   -999.25      1.00      1.00      0.92     83.00
 3284.8000   3284.80     25.60     91.00   2691.00     28.36   -999.25      1.57   -999.25   -999.25   -999.25   -999.25   -999.25   -999.25   -999.25   -999.25      1.00      1.00      0.87     83.00
 3285.0000   3285.00     25.40     89.00   2738.00     76.17   -999.25      1.36   -999.25   -999.25   -999.25   -999.25   -999.25   -999.25   -999.25   -999.25      1.00      1.00      0.82     83.00
 3285.2000   3285.20     25.19     89.00   2757.01     17.58   -999.25      1.14   -999.25   -999.25   -999.25   -999.25   -999.25   -999.25   -999.25   -999.25      1.00      1.03      0.83     83.00
 3285.4000   3285.40     24.99     89.00   2782.00     33.23   -999.25      1.27   -999.25   -999.25   -999.25   -999.25   -999.25   -999.25   -999.25   -999.25      1.00      1.07      0.87     83.00
 3285.6000   3285.60     24.80     88.00   2782.00     25.58   -999.25      2.04   -999.25   -999.25   -999.25   -999.25   -999.25   -999.25   -999.25   -999.25      1.00      1.12      0.92     83.00
 3285.8000   3285.80     24.59     87.00   2748.01     48.86   -999.25      2.82   -999.25   -999.25   -999.25   -999.25   -999.25   -999.25   -999.25   -999.25      1.00      1.17      0.97     83.00
