~Version Information
VERS.                       2.00: SCHLUMBERGER LAS - Version 2.00
WRAP.                         NO: One line per depth step
~Well Information
STRT.M                 1790.0000: Start Depth
STOP.M                 3303.0000: End Depth
STEP.M                    0.2000:  
NULL.                    -999.25:  
COMP.                    Bapetco: COMPANY
WELL.                  BED-15-13: WELL
FLD .                        BED: FLD
SRVC.               Schlumberger: SERVICE COMPANY
LOC .                           : LOCATION
DATE.                  05-Aug-20: LOG DATE
UWI .                  20EGP0554: API NUMBER
~Curve Information
DEPT.M                          : MWD Tool Measurement Depth
BDEP.M                          : Bit Depth
KPOSI.M                          : Kelly Position (Raw)
HKL .KLBF                       : Hook Load
SPP .PSI                        : Standpipe Pressure
ROP .M/HR                       : Rate of Penetration (MWD Depth Ave.)
PSPD.FT/MIN                     : Instantaneous Pipe Speed
VIBC.CPS                        : Vibration Count
SSS_H.                           : Stick Slip Percentage from HDS1
SSL_H.                           : Stick Slip Level from HDS1
RPMMX_H.                           : Maximum RPM from HDS1
TNR .                           : Time Not Rotating from HDS1
PTNR.                           : Percentage Time Not Rotating from HDS1
RPM_H.                           : Average RPM from HDS1
RPMMX_H.                           : Maximum RPM from HDS1
DRPM_H.                           : Differential RPM from HDS1
VIBXH.                           : Vibration X
VIBYH.                           : Vibration Y
VIBZH.                           : Vibration Z
TEMPH.DEG C                      : Temperature from JTDAS Tool
#     DEPT      BDEP     KPOSI       HKL       SPP       ROP      PSPD      VIBC     SSS_H     SSL_H   RPMMX_H       TNR      PTNR     RPM_H   RPMMX_H    DRPM_H     VIBXH     VIBYH     VIBZH     TEMPH
#        M         M         M      KLBF       PSI      M/HR    FT/MIN       CPS                                                                                                                   DEG C
#
# Relog Number     0         0         0         0         0         0         0         0         0         0         0         0         0         0         0         0         0         0         0
#
~ASCII Data
# ...
 3246.0000   3246.00      7.16     89.00   2600.00     31.72   -999.25      0.29   -999.25   -999.25   -999.25   -999.25   -999.25   -999.25   -999.25   -999.25      1.00      1.00      0.82     82.00
 3246.2000   3246.20      6.97     89.00   2602.00     47.34   -999.25      0.46   -999.25   -999.25   -999.25   -999.25   -999.25   -999.25   -999.25   -999.25      1.00      1.00      0.85     82.00
 3246.4000   3246.40      6.76     88.00   2603.02     38.12   -999.25      0.63   -999.25   -999.25   -999.25   -999.25   -999.25   -999.25   -999.25   -999.25      1.00      1.00      0.89     82.00
 3246.6000   3246.60      6.57     87.00   2642.98     38.39   -999.25      0.79   -999.25   -999.25   -999.25   -999.25   -999.25   -999.25   -999.25   -999.25      1.00      1.00      0.92     82.00
 3246.8000   3246.80      6.37     86.00   2647.00     25.39   -999.25      0.96   -999.25   -999.25   -999.25   -999.25   -999.25   -999.25   -999.25   -999.25      1.00      1.00      0.96     82.00
 3247.0000   3247.00      6.17     85.00   2683.00     28.06   -999.25      0.83   -999.25   -999.25   -999.25   -999.25   -999.25   -999.25   -999.25   -999.25      1.00      1.00      0.99     82.00
 3247.2000   3247.20      5.96     85.00   2727.98     27.58   -999.25      0.61   -999.25   -999.25   -999.25   -999.25   -999.25   -999.25   -999.25   -999.25      1.00      1.04      0.96     82.00
 3247.4000   3247.40      5.77     87.00   2650.00     28.33   -999.25      0.39   -999.25   -999.25   -999.25   -999.25   -999.25   -999.25   -999.25   -999.25      1.00      1.08      0.92     82.00
 3247.6000   3247.60      5.56     86.00   2641.00     29.96   -999.25      0.17   -999.25   -999.25   -999.25   -999.25   -999.25   -999.25   -999.25   -999.25      1.00      1.13      0.87     82.00
 3247.8000   3247.80      5.36     86.00   2704.98     20.31   -999.25      0.00   -999.25   -999.25   -999.25   -999.25   -999.25   -999.25   -999.25   -999.25      1.00      1.18      0.82     82.00
 3248.0000   3248.00      5.16     86.00   2678.00     19.85   -999.25      0.00   -999.25   -999.25   -999.25   -999.25   -999.25   -999.25   -999.25   -999.25      0.96      1.16      0.82     82.00
 3248.2000   3248.20      4.96     88.00   2668.99     24.28   -999.25      0.00   -999.25   -999.25   -999.25   -999.25   -999.25   -999.25   -999.25   -999.25      0.87      1.07      0.86     82.00
 3248.4000   3248.40      4.77     88.00   2621.03     31.64   -999.25      0.00   -999.25   -999.25   -999.25   -999.25   -999.25   -999.25   -999.25   -999.25      0.79      0.99      0.90     82.00
 3248.6000   3248.60      4.57     88.00   2680.97     41.11   -999.25      0.00   -999.25   -999.25   -999.25   -999.25   -999.25   -999.25   -999.25   -999.25      0.71      0.91      0.94     82.00
 3248.8000   3248.80      4.37     89.00   2605.02     34.28   -999.25      0.00   -999.25   -999.25   -999.25   -999.25   -999.25   -999.25   -999.25   -999.25      0.63      0.83      0.98     82.00
 3249.0000   3249.00      4.16     88.00   2581.00     38.67   -999.25      0.00   -999.25   -999.25   -999.25   -999.25   -999.25   -999.25   -999.25   -999.25      0.60      0.78      1.00     82.00
 3249.2000   3249.20      3.96     86.00   2606.02     37.33   -999.25      0.00   -999.25   -999.25   -999.25   -999.25   -999.25   -999.25   -999.25   -999.25      0.60      0.75      1.00     82.00
 3249.4000   3249.40      3.77     86.00   2703.96     21.83   -999.25      0.00   -999.25   -999.25   -999.25   -999.25   -999.25   -999.25   -999.25   -999.25      0.60      0.72      1.00     82.00
 3249.6000   3249.60      3.56     88.00   2629.04     60.33   -999.25      0.00   -999.25   -999.25   -999.25   -999.25   -999.25   -999.25   -999.25   -999.25      0.60      0.69      1.00     82.00
 3249.8000   3249.80      3.37     88.00   2636.00     59.99   -999.25      0.00   -999.25   -999.25   -999.25   -999.25   -999.25   -999.25   -999.25   -999.25      0.60      0.66      1.00     82.00
 3250.0000   3250.00      3.16     89.00   2635.00     44.44   -999.25      0.00   -999.25   -999.25   -999.25   -999.25   -999.25   -999.25   -999.25   -999.25      0.60      0.63      1.00     82.00
 3250.2000   3250.20      2.97     89.00   2628.99     41.26   -999.25      0.00   -999.25   -999.25   -999.25   -999.25   -999.25   -999.25   -999.25   -999.25      0.60      0.60      1.00     82.00
 3250.4000   3250.40      2.76     89.00   2605.00     35.29   -999.25      0.00   -999.25   -999.25   -999.25   -999.25   -999.25   -999.25   -999.25   -999.25      0.66      0.63      0.88     82.00
 3250.6000   3250.60      2.57     89.00   2596.00     37.98   -999.25      0.00   -999.25   -999.25   -999.25   -999.25   -999.25   -999.25   -999.25   -999.25      0.72      0.66      0.76     82.00
 3250.8000   3250.80      2.36     90.00   2578.00     33.86   -999.25      0.00   -999.25   -999.25   -999.25   -999.25   -999.25   -999.25   -999.25   -999.25      0.78      0.69      0.64     82.00
 3251.0000   3251.00      2.17     89.00   2603.00     49.75   -999.25      0.00   -999.25   -999.25   -999.25   -999.25   -999.25   -999.25   -999.25   -999.25      0.84      0.72      0.52     82.00
 3251.2000   3251.20      1.97     89.00   2613.00     48.05   -999.25      0.00   -999.25   -999.25   -999.25   -999.25   -999.25   -999.25   -999.25   -999.25      0.90      0.75      0.40     82.00
 3251.4000   3251.40      1.76     89.00   2617.00     43.61   -999.25      0.00   -999.25   -999.25   -999.25   -999.25   -999.25   -999.25   -999.25   -999.25      0.96      0.78      0.28     82.00
 3251.6000   3251.60      1.56     89.00   2620.00     33.33   -999.25      0.00   -999.25   -999.25   -999.25   -999.25   -999.25   -999.25   -999.25   -999.25      1.00      0.81      0.26     82.00
 3251.8000   3251.80      1.36     89.00   2584.01     28.16   -999.25      0.00   -999.25   -999.25   -999.25   -999.25   -999.25   -999.25   -999.25   -999.25      1.00      0.86      0.42     82.00
 3252.0000   3252.00      1.16     88.00   2611.00     42.91   -999.25      0.00   -999.25   -999.25   -999.25   -999.25   -999.25   -999.25   -999.25   -999.25      1.00      0.90      0.59     82.00
 3252.2000   3252.20      0.97     88.00   2636.00     51.29   -999.25      0.00   -999.25   -999.25   -999.25   -999.25   -999.25   -999.25   -999.25   -999.25      1.00      0.94      0.75     82.00
 3252.4000   3252.40      0.76     88.00   2637.98     50.60   -999.25      0.00   -999.25   -999.25   -999.25   -999.25   -999.25   -999.25   -999.25   -999.25      1.00      0.98      0.91     82.00
 3252.6000   3252.60     29.50     90.00   2603.02      3.89   -999.25      0.45   -999.25   -999.25   -999.25   -999.25   -999.25   -999.25   -999.25   -999.25      0.95      1.00      1.00     82.00
 3252.8000   3252.80     29.13     88.00   2640.99    106.82   -999.25      0.89   -999.25   -999.25   -999.25   -999.25   -999.25   -999.25   -999.25   -999.25      0.86      1.00      1.00     82.00
 3253.0000   3253.00     28.89     86.00   2737.00     10.80   -999.25      0.64   -999.25   -999.25   -999.25   -999.25   -999.25   -999.25   -999.25   -999.25      0.80      1.00      0.98     82.00
 3253.2000   3253.20     28.68     85.00   2915.98     17.60   -999.25      0.38   -999.25   -999.25   -999.25   -999.25   -999.25   -999.25   -999.25   -999.25      0.80      1.00      0.92     82.00
 3253.4000   3253.40     28.48     85.00   2849.97     23.47   -999.25      0.12   -999.25   -999.25   -999.25   -999.25   -999.25   -999.25   -999.25   -999.25      0.80      1.00      0.86     82.00
 3253.6000   3253.60     28.29     84.00   2779.03     10.60   -999.25      0.53   -999.25   -999.25   -999.25   -999.25   -999.25   -999.25   -999.25   -999.25      0.80      1.00      0.80     82.00
 3253.8000   3253.80     28.09     85.00   2797.00     31.17   -999.25      1.55   -999.25   -999.25   -999.25   -999.25   -999.25   -999.25   -999.25   -999.25      0.88      1.00      0.88     82.00
