~Version Information
VERS.                       2.00: SCHLUMBERGER LAS - Version 2.00
WRAP.                         NO: One line per depth step
~Well Information
STRT.M                 1790.0000: Start Depth
STOP.M                 3303.0000: End Depth
STEP.M                    0.2000:  
NULL.                    -999.25:  
COMP.                    Bapetco: COMPANY
WELL.                  BED-15-13: WELL
FLD .                        BED: FLD
SRVC.               Schlumberger: SERVICE COMPANY
LOC .                           : LOCATION
DATE.                  05-Aug-20: LOG DATE
UWI .                  20EGP0554: API NUMBER
~Curve Information
DEPT.M                          : MWD Tool Measurement Depth
BDEP.M                          : Bit Depth
KPOSI.M                          : Kelly Position (Raw)
HKL .KLBF                       : Hook Load
SPP .PSI                        : Standpipe Pressure
ROP .M/HR                       : Rate of Penetration (MWD Depth Ave.)
PSPD.FT/MIN                     : Instantaneous Pipe Speed
VIBC.CPS                        : Vibration Count
SSS_H.                           : Stick Slip Percentage from HDS1
SSL_H.                           : Stick Slip Level from HDS1
RPMMX_H.                           : Maximum RPM from HDS1
TNR .                           : Time Not Rotating from HDS1
PTNR.                           : Percentage Time Not Rotating from HDS1
RPM_H.                           : Average RPM from HDS1
RPMMX_H.                           : Maximum RPM from HDS1
DRPM_H.                           : Differential RPM from HDS1
VIBXH.                           : Vibration X
VIBYH.                           : Vibration Y
VIBZH.                           : Vibration Z
TEMPH.DEG C                      : Temperature from JTDAS Tool
#     DEPT      BDEP     KPOSI       HKL       SPP       ROP      PSPD      VIBC     SSS_H     SSL_H   RPMMX_H       TNR      PTNR     RPM_H   RPMMX_H    DRPM_H     VIBXH     VIBYH     VIBZH     TEMPH
#        M         M         M      KLBF       PSI      M/HR    FT/MIN       CPS                                                                                                                   DEG C
#
# Relog Number     0         0         0         0         0         0         0         0         0         0         0         0         0         0         0         0         0         0         0
#
~ASCII Data
# ...
 3182.0000   3182.00     13.36     89.00   2573.00     30.10   -999.25      0.95   -999.25   -999.25   -999.25   -999.25   -999.25   -999.25   -999.25   -999.25      1.00      1.40      0.97     80.00
 3182.2000   3182.20     13.17     89.00   2579.00     30.25   -999.25      0.75   -999.25   -999.25   -999.25   -999.25   -999.25   -999.25   -999.25   -999.25      1.00      1.40      0.93     80.00
 3182.4000   3182.40     12.96     89.00   2566.00     30.02   -999.25      0.55   -999.25   -999.25   -999.25   -999.25   -999.25   -999.25   -999.25   -999.25      1.00      1.40      0.89     80.00
 3182.6000   3182.60     12.76     89.00   2571.00     28.31   -999.25      0.35   -999.25   -999.25   -999.25   -999.25   -999.25   -999.25   -999.25   -999.25      1.00      1.40      0.85     80.00
 3182.8000   3182.80     12.56     89.00   2558.00     27.12   -999.25      0.15   -999.25   -999.25   -999.25   -999.25   -999.25   -999.25   -999.25   -999.25      1.00      1.40      0.80     80.00
 3183.0000   3183.00     12.37     90.00   2563.00     32.92   -999.25      0.00   -999.25   -999.25   -999.25   -999.25   -999.25   -999.25   -999.25   -999.25      1.07      1.40      0.84     80.00
 3183.2000   3183.20     12.16     89.00   2568.01     30.80   -999.25      0.00   -999.25   -999.25   -999.25   -999.25   -999.25   -999.25   -999.25   -999.25      1.15      1.40      0.87     80.00
 3183.4000   3183.40     11.97     87.00   2610.02     31.41   -999.25      0.00   -999.25   -999.25   -999.25   -999.25   -999.25   -999.25   -999.25   -999.25      1.23      1.40      0.91     80.00
 3183.6000   3183.60     11.77     88.00   2650.98     29.11   -999.25      0.00   -999.25   -999.25   -999.25   -999.25   -999.25   -999.25   -999.25   -999.25      1.30      1.40      0.95     80.00
 3183.8000   3183.80     11.57     89.00   2570.02     29.14   -999.25      0.00   -999.25   -999.25   -999.25   -999.25   -999.25   -999.25   -999.25   -999.25      1.38      1.40      0.99     80.00
 3184.0000   3184.00     11.37     89.00   2558.00     28.23   -999.25      0.00   -999.25   -999.25   -999.25   -999.25   -999.25   -999.25   -999.25   -999.25      1.36      1.40      1.00     80.00
 3184.2000   3184.20     11.17     90.00   2533.00     15.28   -999.25      0.00   -999.25   -999.25   -999.25   -999.25   -999.25   -999.25   -999.25   -999.25      1.31      1.40      1.00     80.00
 3184.4000   3184.40     10.96     89.00   2554.03     28.67   -999.25      0.00   -999.25   -999.25   -999.25   -999.25   -999.25   -999.25   -999.25   -999.25      1.26      1.40      1.00     80.00
 3184.6000   3184.60     10.77     88.00   2615.97     32.18   -999.25      0.00   -999.25   -999.25   -999.25   -999.25   -999.25   -999.25   -999.25   -999.25      1.21      1.40      1.00     80.00
 3184.8000   3184.80     10.57     88.00   2632.00     27.08   -999.25      0.00   -999.25   -999.25   -999.25   -999.25   -999.25   -999.25   -999.25   -999.25      1.24      1.40      0.96     80.00
 3185.0000   3185.00     10.36     89.00   2596.00     27.48   -999.25      0.00   -999.25   -999.25   -999.25   -999.25   -999.25   -999.25   -999.25   -999.25      1.28      1.40      0.92     80.00
 3185.2000   3185.20     10.17     89.00   2591.99     26.95   -999.25      0.00   -999.25   -999.25   -999.25   -999.25   -999.25   -999.25   -999.25   -999.25      1.33      1.40      0.87     80.00
 3185.4000   3185.40      9.97     90.00   2569.99     25.55   -999.25      0.00   -999.25   -999.25   -999.25   -999.25   -999.25   -999.25   -999.25   -999.25      1.37      1.40      0.83     80.00
 3185.6000   3185.60      9.77     91.00   2540.01     26.53   -999.25      0.00   -999.25   -999.25   -999.25   -999.25   -999.25   -999.25   -999.25   -999.25      1.37      1.38      0.78     80.00
 3185.8000   3185.80      9.57     91.00   2497.01     13.93   -999.25      0.17   -999.25   -999.25   -999.25   -999.25   -999.25   -999.25   -999.25   -999.25      1.29      1.34      0.74     80.00
 3186.0000   3186.00      9.37     90.00   2482.00     51.29   -999.25      0.36   -999.25   -999.25   -999.25   -999.25   -999.25   -999.25   -999.25   -999.25      1.21      1.30      0.70     80.00
 3186.2000   3186.20      9.16     89.00   2555.01     53.68   -999.25      0.55   -999.25   -999.25   -999.25   -999.25   -999.25   -999.25   -999.25   -999.25      1.13      1.26      0.66     80.00
 3186.4000   3186.40      8.96     89.00   2604.02     35.16   -999.25      0.74   -999.25   -999.25   -999.25   -999.25   -999.25   -999.25   -999.25   -999.25      1.05      1.22      0.62     80.00
 3186.6000   3186.60      8.76     88.00   2653.98     44.77   -999.25      0.94   -999.25   -999.25   -999.25   -999.25   -999.25   -999.25   -999.25   -999.25      1.02      1.18      0.60     80.00
 3186.8000   3186.80      8.56     89.00   2588.02     32.68   -999.25      1.34   -999.25   -999.25   -999.25   -999.25   -999.25   -999.25   -999.25   -999.25      1.06      1.14      0.60     80.00
 3187.0000   3187.00      8.37     89.00   2557.00     22.69   -999.25      1.84   -999.25   -999.25   -999.25   -999.25   -999.25   -999.25   -999.25   -999.25      1.10      1.10      0.60     80.00
 3187.2000   3187.20      8.17     88.00   2619.00     32.32   -999.25      2.35   -999.25   -999.25   -999.25   -999.25   -999.25   -999.25   -999.25   -999.25      1.14      1.06      0.60     80.00
 3187.4000   3187.40      7.96     87.00   2624.99     32.91   -999.25      2.86   -999.25   -999.25   -999.25   -999.25   -999.25   -999.25   -999.25   -999.25      1.19      1.01      0.60     80.00
 3187.6000   3187.60      7.77     87.00   2609.01     10.25   -999.25      3.00   -999.25   -999.25   -999.25   -999.25   -999.25   -999.25   -999.25   -999.25      1.13      1.00      0.67     80.00
 3187.8000   3187.80      7.56     86.00   2638.99     25.52   -999.25      3.00   -999.25   -999.25   -999.25   -999.25   -999.25   -999.25   -999.25   -999.25      1.03      1.00      0.77     80.00
 3188.0000   3188.00      7.37     89.00   2496.00      4.22   -999.25      2.15   -999.25   -999.25   -999.25   -999.25   -999.25   -999.25   -999.25   -999.25      1.00      1.00      0.64     79.73
 3188.2000   3188.20      7.16     88.00   2604.02     17.33   -999.25      0.99   -999.25   -999.25   -999.25   -999.25   -999.25   -999.25   -999.25   -999.25      1.00      1.00      0.41     79.35
 3188.4000   3188.40      6.97     86.00   2690.99     24.93   -999.25      0.38   -999.25   -999.25   -999.25   -999.25   -999.25   -999.25   -999.25   -999.25      1.00      1.00      0.21     79.00
 3188.6000   3188.60      6.77     85.00   2664.01     13.18   -999.25      2.85   -999.25   -999.25   -999.25   -999.25   -999.25   -999.25   -999.25   -999.25      1.00      1.00      0.34     79.00
 3188.8000   3188.80      6.57     86.00   2668.00      6.82   -999.25      3.74   -999.25   -999.25   -999.25   -999.25   -999.25   -999.25   -999.25   -999.25      1.00      1.05      0.40     79.00
 3189.0000   3189.00      6.36     87.00   2632.00     16.46   -999.25      3.26   -999.25   -999.25   -999.25   -999.25   -999.25   -999.25   -999.25   -999.25      1.00      1.15      0.40     79.00
 3189.2000   3189.20      6.17     87.00   2653.99     11.37   -999.25      3.88   -999.25   -999.25   -999.25   -999.25   -999.25   -999.25   -999.25   -999.25      1.08      1.20      0.44     79.00
 3189.4000   3189.40      5.96     86.00   2606.99     12.22   -999.25      5.75   -999.25   -999.25   -999.25   -999.25   -999.25   -999.25   -999.25   -999.25      1.27      1.20      0.54     79.00
 3189.6000   3189.60      5.76     83.00   2591.01      8.45   -999.25      5.41   -999.25   -999.25   -999.25   -999.25   -999.25   -999.25   -999.25   -999.25      1.34      1.14      0.60     79.00
 3189.8000   3189.80      5.56     83.00   2659.98      7.33   -999.25      2.44   -999.25   -999.25   -999.25   -999.25   -999.25   -999.25   -999.25   -999.25      1.16      1.00      0.64     78.79
