~Version Information
VERS.                       2.00: SCHLUMBERGER LAS - Version 2.00
WRAP.                         NO: One line per depth step
~Well Information
STRT.M                 1195.0000: Start Depth
STOP.M                 1544.0000: End Depth
STEP.M                    0.2000:  
NULL.                    -999.25:  
COMP.                    Bapetco: COMPANY
WELL.                  BED-15-13: WELL
FLD .                        BED: FLD
SRVC.               Schlumberger: SERVICE COMPANY
LOC .                           : LOCATION
DATE.                  29-Jul-20: LOG DATE
UWI .                  20EGP0554: API NUMBER
~Curve Information
DEPT.M                          : MWD Tool Measurement Depth
BDEP.M                          : Bit Depth
KPOSI.M                          : Kelly Position (Raw)
HKL .KLBF                       : Hook Load
SPP .PSI                        : Standpipe Pressure
ROP .M/HR                       : Rate of Penetration (MWD Depth Ave.)
PSPD.M/MIN                      : Instantaneous Pipe Speed
VIBC.CPS                        : Vibration Count
SSL_H.                           : Stick Slip Level from HDS1
SSS_H.                           : Stick Slip Percentage from HDS1
RPM_H.                           : Average RPM from HDS1
VIBXYH.                           : Vibration XY
VIBZH.                           : Vibration Z
#     DEPT      BDEP     KPOSI       HKL       SPP       ROP      PSPD      VIBC     SSL_H     SSS_H     RPM_H    VIBXYH     VIBZH
#        M         M         M      KLBF       PSI      M/HR     M/MIN       CPS                                                  
#
# Relog Number     0         0         0         0         0         0         0         0         0         0         0         0
#
~ASCII Data
# ...
 1257.0000   1257.00      5.39     68.00   2361.00     59.18   -999.25      5.87      0.00     29.06     98.00      1.91      0.60
 1257.2000   1257.20      5.19     68.00   2358.00     56.32   -999.25      6.27      0.00     29.89     98.00      1.85      0.61
 1257.4000   1257.40      5.00     68.00   2339.00     61.34   -999.25      6.68      0.05     31.52     98.00      1.86      0.63
 1257.6000   1257.60      4.79     68.00   2350.00     58.51   -999.25      7.09      0.42     38.78     98.00      1.87      0.64
 1257.8000   1257.80      4.60     68.00   2361.00     59.25   -999.25      7.49      0.80     46.04     98.00      1.89      0.66
 1258.0000   1258.00      4.40     67.00   2326.00     94.54   -999.25      7.90      1.00     50.00     98.00      1.90      0.68
 1258.2000   1258.20      4.20     66.00   2339.00     59.93   -999.25      8.30      1.00     50.00     98.00      1.91      0.70
 1258.4000   1258.40      3.99     67.00   2355.00     75.98   -999.25      8.71      1.00     50.00     98.00      1.93      0.72
 1258.6000   1258.60      3.80     70.00   2239.99     25.03   -999.25      8.89      0.51     44.64     98.97      1.94      0.74
 1258.8000   1258.80      3.60     71.00   2171.02     71.93   -999.25      8.52      0.00     37.61     99.78      1.95      0.76
 1259.0000   1259.00      3.39     68.00   2187.00    118.43   -999.25      8.15      0.00     34.19     99.23      1.97      0.78
 1259.2000   1259.20      3.19     66.00   2232.01    117.18   -999.25      7.77      0.00     30.77     98.68      1.98      0.80
 1259.4000   1259.40      3.00     66.00   2286.99     64.61   -999.25      7.40      0.00     27.35     98.13      1.95      0.78
 1259.6000   1259.60      2.79     67.00   2241.99     58.15   -999.25      7.02      0.00     28.88     98.63      1.92      0.76
 1259.8000   1259.80      2.59     68.00   2182.01     72.69   -999.25      6.65      0.00     31.97     99.46      1.89      0.73
 1260.0000   1260.00      2.40     68.00   2175.00     56.08   -999.25      6.28      0.12     36.60     99.75      1.86      0.71
 1260.2000   1260.20      2.19     69.00   2162.00     60.01   -999.25      5.90      0.48     44.15     99.04      1.83      0.69
 1260.4000   1260.40      1.99     67.00   2149.00    106.78   -999.25      5.53      0.84     51.70     98.32      1.80      0.67
 1260.6000   1260.60      1.80     68.00   2147.00     60.46   -999.25      5.15      1.19     62.69     97.63      1.77      0.65
 1260.8000   1260.80      1.59     68.00   2125.01     69.43   -999.25      9.15      1.53     76.50     96.95      1.74      0.63
 1261.0000   1261.00      1.39     67.00   2140.00     61.56   -999.25     16.19      1.86     90.31     96.27      1.71      0.61
 1261.2000   1261.20     29.75     71.00   1738.02      1.60   -999.25     19.19      2.00     95.72     96.23      1.80      0.60
 1261.4000   1261.40     29.56     69.00   1809.99     81.29   -999.25     19.50      2.00     95.54     96.62      1.98      0.60
 1261.6000   1261.60     29.36     68.00   1846.98     98.48   -999.25     19.81      2.00     95.36     97.01      2.16      0.60
 1261.8000   1261.80     29.15     73.00   1714.03      8.48   -999.25     19.73      2.00     95.18     97.40      2.26      0.59
 1262.0000   1262.00     28.96     72.00   1756.00     66.21   -999.25     19.01      2.00     95.00     97.78      2.26      0.57
 1262.2000   1262.20     28.76     71.00   1805.01     68.38   -999.25     18.30      2.15     96.12     98.00      2.26      0.54
 1262.4000   1262.40     28.56     70.00   1852.99     76.46   -999.25     17.58      2.49     98.90     98.00      2.26      0.52
 1262.6000   1262.60     28.36     69.00   1863.00     67.32   -999.25     16.87      2.83    101.68     98.00      2.26      0.49
 1262.8000   1262.80     28.16     68.00   1880.00     95.24   -999.25     16.16      3.00    103.06     98.00      2.26      0.47
 1263.0000   1263.00     27.95     68.00   1892.00     88.77   -999.25     15.44      3.00    103.06     98.00      2.26      0.44
 1263.2000   1263.20     27.76     68.00   1920.00    100.13   -999.25     14.73      3.00    103.06     98.00      2.26      0.42
 1263.4000   1263.40     27.55     67.00   1916.00    104.21   -999.25     14.01      3.00    103.06     98.00      2.26      0.40
 1263.6000   1263.60     27.36     66.00   1953.00    101.51   -999.25     13.30      3.00    103.65     97.84      2.25      0.40
 1263.8000   1263.80     27.16     67.00   1928.01    105.53   -999.25     12.58      3.00    105.60     97.31      2.24      0.40
 1264.0000   1264.00     26.96     67.00   1964.00     84.91   -999.25     11.87      3.00    107.55     96.78      2.23      0.40
 1264.2000   1264.20     26.75     68.00   1930.00     80.81   -999.25     11.15      3.00    109.49     96.25      2.22      0.40
 1264.4000   1264.40     26.56     67.00   1947.00    105.78   -999.25     10.44      3.00    109.68     96.98      2.21      0.40
 1264.6000   1264.60     26.36     66.00   1974.00     84.23   -999.25      9.84      3.00    108.27     98.85      2.20      0.40
 1264.8000   1264.80     26.16     66.00   1987.00     86.46   -999.25      9.43      3.00    106.85    100.71      2.19      0.40
 1265.0000   1265.00     25.95     69.00   1946.00     57.30   -999.25      9.01      3.00    105.72    101.45      2.18      0.40
 1265.2000   1265.20     25.76     68.00   1917.00    114.17   -999.25      8.60      3.00    105.22     99.68      2.17      0.40
 1265.4000   1265.40     25.56     69.00   1926.00     68.48   -999.25      8.18      3.00    104.71     97.91      2.16      0.40
 1265.6000   1265.60     25.36     68.00   1932.00     76.03   -999.25      7.77      3.00    104.21     96.13      2.15      0.40
 1265.8000   1265.80     25.16     68.00   1952.99     76.81   -999.25      7.35      3.00    103.30     97.10      2.14      0.40
 1266.0000   1266.00     24.95     69.00   1965.00     69.91   -999.25      6.94      3.00    102.36     98.28      2.13      0.40
 1266.2000   1266.20     24.76     68.00   1960.01    111.24   -999.25      6.52      3.00    101.42     99.47      2.12      0.40
 1266.4000   1266.40     24.56     67.00   2014.99     88.06   -999.25      6.11      3.00    101.68     99.14      2.11      0.40
 1266.6000   1266.60     24.35     67.00   2079.99     63.50   -999.25      5.69      3.00    102.92     97.58      2.10      0.40
 1266.8000   1266.80     24.16     69.00   1988.02     48.31   -999.25      5.28      3.00    104.16     96.02      2.09      0.40
 1267.0000   1267.00     23.95     69.00   1962.00     72.43   -999.25      4.96      2.57    100.65     97.73      2.07      0.40
 1267.2000   1267.20     23.76     70.00   1962.99     39.66   -999.25      4.86      2.13     97.09     99.47      2.06      0.40
 1267.4000   1267.40     23.56     69.00   1909.01     68.95   -999.25      4.75      2.00     96.00    100.00      2.05      0.40
 1267.6000   1267.60     23.35     69.00   1928.00     50.68   -999.25      4.65      2.00     96.00    100.00      2.04      0.40
 1267.8000   1267.80     23.16     68.00   1901.01     67.52   -999.25      4.54      2.09     96.54     99.64      2.02      0.40
 1268.0000   1268.00     22.96     67.00   1961.00     71.94   -999.25      4.43      2.46     98.80     98.16      2.01      0.40
 1268.2000   1268.20     22.76     68.00   1963.99     61.67   -999.25      4.33      2.83    101.06     96.67      2.01      0.40
 1268.4000   1268.40     22.55     68.00   1924.00     38.53   -999.25      4.22      2.74    100.27     97.02      2.07      0.40
 1268.6000   1268.60     22.36     69.00   1893.01     63.84   -999.25      4.12      2.28     96.99     98.88      2.12      0.40
 1268.8000   1268.80     22.15     67.00   1985.98     64.80   -999.25      4.01      1.77     91.04    100.00      2.18      0.40
 1269.0000   1269.00     21.95     70.00   1931.00     35.99   -999.25      4.00      1.18     81.01    100.00      2.24      0.40
 1269.2000   1269.20     21.76     73.00   1831.02      9.48   -999.25      4.00      0.00     19.39     98.88      2.25      0.42
