~Version Information
VERS.                       2.00: SCHLUMBERGER LAS - Version 2.00
WRAP.                         NO: One line per depth step
~Well Information
STRT.M                 1195.0000: Start Depth
STOP.M                 1544.0000: End Depth
STEP.M                    0.2000:  
NULL.                    -999.25:  
COMP.                    Bapetco: COMPANY
WELL.                  BED-15-13: WELL
FLD .                        BED: FLD
SRVC.               Schlumberger: SERVICE COMPANY
LOC .                           : LOCATION
DATE.                  29-Jul-20: LOG DATE
UWI .                  20EGP0554: API NUMBER
~Curve Information
DEPT.M                          : MWD Tool Measurement Depth
BDEP.M                          : Bit Depth
KPOSI.M                          : Kelly Position (Raw)
HKL .KLBF                       : Hook Load
SPP .PSI                        : Standpipe Pressure
ROP .M/HR                       : Rate of Penetration (MWD Depth Ave.)
PSPD.M/MIN                      : Instantaneous Pipe Speed
VIBC.CPS                        : Vibration Count
SSL_H.                           : Stick Slip Level from HDS1
SSS_H.                           : Stick Slip Percentage from HDS1
RPM_H.                           : Average RPM from HDS1
VIBXYH.                           : Vibration XY
VIBZH.                           : Vibration Z
#     DEPT      BDEP     KPOSI       HKL       SPP       ROP      PSPD      VIBC     SSL_H     SSS_H     RPM_H    VIBXYH     VIBZH
#        M         M         M      KLBF       PSI      M/HR     M/MIN       CPS                                                  
#
# Relog Number     0         0         0         0         0         0         0         0         0         0         0         0
#
~ASCII Data
# ...
 1467.8000   1467.80     25.54     68.00   2506.99     66.97   -999.25      4.62      3.00    105.66     98.47      2.22      0.40
 1468.0000   1468.00     25.34     68.00   2490.00     61.56   -999.25      4.33      3.00    104.08     99.93      2.23      0.40
 1468.2000   1468.20     25.14     69.00   2470.00     67.72   -999.25      4.04      3.00    105.82     98.32      2.24      0.40
 1468.4000   1468.40     24.94     69.00   2482.00     60.68   -999.25      3.75      3.00    107.74     96.54      2.26      0.40
 1468.6000   1468.60     24.74     69.00   2473.00     38.28   -999.25      3.46      3.00    108.62     96.00      2.23      0.41
 1468.8000   1468.80     24.54     69.00   2466.00     56.49   -999.25      3.17      3.00    109.05     96.00      2.18      0.43
 1469.0000   1469.00     24.34     68.00   2433.00     74.71   -999.25      2.88      3.00    108.96     96.46      2.12      0.45
 1469.2000   1469.20     24.13     68.00   2485.00     72.77   -999.25      2.59      3.00    106.96     98.66      2.07      0.47
 1469.4000   1469.40     23.94     69.00   2489.00     65.48   -999.25      2.29      3.00    104.96    100.86      2.02      0.49
 1469.6000   1469.60     23.74     69.00   2506.00     71.83   -999.25      2.00      3.00    105.01    100.70      1.96      0.51
 1469.8000   1469.80     23.53     69.00   2494.00     72.16   -999.25      2.10      3.00    107.28     98.00      1.91      0.52
 1470.0000   1470.00     23.34     69.00   2480.00     71.23   -999.25      2.20      3.00    109.55     95.30      1.86      0.54
 1470.2000   1470.20     23.14     69.00   2496.00     43.75   -999.25      2.30      3.00    109.85     94.90      1.80      0.56
 1470.4000   1470.40     22.94     70.00   2476.00     59.58   -999.25      2.40      3.00    108.33     96.64      1.75      0.58
 1470.6000   1470.60     22.74     69.00   2457.00     75.88   -999.25      2.50      3.00    107.37     98.34      1.70      0.60
 1470.8000   1470.80     22.54     69.00   2468.00     60.64   -999.25      2.59      3.00    108.41     99.91      1.68      0.64
 1471.0000   1471.00     22.33     69.00   2435.00     56.15   -999.25      2.69      3.00    109.46    101.49      1.67      0.69
 1471.2000   1471.20     22.14     69.00   2477.00     60.86   -999.25      2.79      3.00    110.23    100.44      1.65      0.74
 1471.4000   1471.40     21.94     68.00   2474.00     62.44   -999.25      2.89      3.00    110.87     98.13      1.64      0.78
 1471.6000   1471.60     21.73     68.00   2508.00     56.18   -999.25      2.99      3.00    111.42     96.00      1.62      0.83
 1471.8000   1471.80     21.54     68.00   2503.00     59.03   -999.25      3.98      3.00    110.87     96.00      1.60      0.87
 1472.0000   1472.00     21.33     69.00   2476.00     41.87   -999.25      5.07      3.00    110.35     96.75      1.59      0.92
 1472.2000   1472.20     21.14     69.00   2464.01     48.52   -999.25      6.15      3.00    109.92    101.00      1.57      0.96
 1472.4000   1472.40     20.94     70.00   2501.00     40.09   -999.25      7.23      3.00    111.19    101.88      1.57      1.00
 1472.6000   1472.60     20.74     71.00   2453.99     36.61   -999.25      8.31      3.00    116.49     94.70      1.61      0.98
 1472.8000   1472.80     20.54     72.00   2378.02     57.49   -999.25      9.39      3.00    114.97     94.41      1.66      0.95
 1473.0000   1473.00     20.34     71.00   2415.00     63.44   -999.25     10.47      3.00    109.36     98.26      1.70      0.93
 1473.2000   1473.20     20.13     70.00   2435.01     61.52   -999.25     11.56      3.00    104.05    101.93      1.74      0.91
 1473.4000   1473.40     19.94     70.00   2474.00     51.86   -999.25     11.61      3.00    108.49     99.65      1.79      0.89
 1473.6000   1473.60     19.73     71.00   2485.00     60.13   -999.25     10.96      3.00    112.93     97.38      1.83      0.87
 1473.8000   1473.80     19.54     70.00   2462.01     68.91   -999.25     10.30      3.00    114.12     96.00      1.87      0.85
 1474.0000   1474.00     19.34     70.00   2439.00     68.12   -999.25      9.64      3.00    110.31     96.00      1.91      0.83
 1474.2000   1474.20     19.14     71.00   2438.01     72.38   -999.25      8.99      3.00    106.50     96.00      1.96      0.81
 1474.4000   1474.40     18.94     71.00   2464.00     59.58   -999.25      8.33      3.00    104.41     97.00      1.97      0.81
 1474.6000   1474.60     18.73     71.00   2451.00     60.31   -999.25      7.67      3.00    103.20     98.51      1.94      0.83
 1474.8000   1474.80     18.54     70.00   2463.00     65.76   -999.25      7.02      3.00    102.04     99.99      1.91      0.85
 1475.0000   1475.00     18.34     70.00   2417.00     65.80   -999.25      6.36      3.00    104.51     99.30      1.88      0.87
 1475.2000   1475.20     18.14     70.00   2429.01     66.14   -999.25      5.71      3.00    106.99     98.61      1.85      0.89
 1475.4000   1475.40     17.94     69.00   2475.99     66.92   -999.25      5.05      3.00    109.23     98.00      1.82      0.91
 1475.6000   1475.60     17.74     69.00   2494.00     59.22   -999.25      5.00      3.00    109.69     98.00      1.80      0.93
 1475.8000   1475.80     17.54     69.00   2524.99     53.46   -999.25      5.00      3.00    110.15     98.00      1.77      0.95
 1476.0000   1476.00     17.34     69.00   2519.00     58.04   -999.25      5.00      3.00    110.59     98.00      1.74      0.97
 1476.2000   1476.20     17.14     69.00   2470.01     51.42   -999.25      5.00      3.00    111.03     98.00      1.71      0.99
 1476.4000   1476.40     16.94     70.00   2496.00     55.88   -999.25      5.00      3.00    111.83     97.07      1.70      1.02
 1476.6000   1476.60     16.74     71.00   2467.00     63.52   -999.25      5.00      3.00    112.88     95.45      1.72      1.06
 1476.8000   1476.80     16.54     70.00   2456.00     59.26   -999.25      5.00      3.00    113.88     94.24      1.74      1.11
 1477.0000   1477.00     16.34     71.00   2465.00     57.06   -999.25      5.00      3.00    114.34     96.59      1.75      1.15
 1477.2000   1477.20     16.14     70.00   2448.00     65.68   -999.25      5.00      3.00    114.80     98.95      1.77      1.19
 1477.4000   1477.40     15.94     71.00   2431.00     54.05   -999.25      5.05      3.00    115.30    100.00      1.78      1.24
 1477.6000   1477.60     15.73     71.00   2421.00     47.78   -999.25      5.28      3.00    115.85    100.00      1.80      1.28
 1477.8000   1477.80     15.54     71.00   2438.00     51.21   -999.25      5.52      3.00    115.79     99.39      1.82      1.32
 1478.0000   1478.00     15.34     69.00   2492.00     61.16   -999.25      5.75      3.00    115.50     98.56      1.83      1.36
 1478.2000   1478.20     15.14     70.00   2478.99     47.16   -999.25      5.98      3.00    114.73     97.70      1.85      1.40
 1478.4000   1478.40     14.93     71.00   2427.01     50.76   -999.25      6.21      3.00    112.97     96.78      1.88      1.42
 1478.6000   1478.60     14.74     71.00   2418.00     54.66   -999.25      6.44      3.00    111.74     96.40      1.91      1.44
 1478.8000   1478.80     14.54     71.00   2424.00     52.45   -999.25      6.67      3.00    113.71     99.20      1.93      1.46
 1479.0000   1479.00     14.34     71.00   2492.00     49.31   -999.25      6.90      3.00    115.68    101.99      1.96      1.48
 1479.2000   1479.20     14.14     71.00   2454.00     60.06   -999.25      7.11      3.00    115.05     99.24      1.99      1.50
 1479.4000   1479.40     13.93     71.00   2437.00     70.39   -999.25      7.31      3.00    114.40     96.46      2.02      1.52
 1479.6000   1479.60     13.74     70.00   2440.00     77.88   -999.25      7.51      3.00    113.59     94.25      2.05      1.54
 1479.8000   1479.80     13.53     70.00   2474.99     69.83   -999.25      7.71      3.00    111.47     96.43      2.08      1.56
 1480.0000   1480.00     13.34     70.00   2466.00     70.43   -999.25      7.91      3.00    109.35     98.61      2.10      1.58
