~Version Information
VERS.                       2.00: SCHLUMBERGER LAS - Version 2.00
WRAP.                         NO: One line per depth step
~Well Information
STRT.M                 2124.0000: Start Depth
STOP.M                 3002.8000: End Depth
STEP.M                    0.2000:  
NULL.                    -999.25:  
COMP.                    Bapetco: COMPANY
WELL.                BED 3 C18-N: WELL
FLD .                      BED 3: FLD
SRVC.               Schlumberger: SERVICE COMPANY
LOC .                           : LOCATION
DATE.                  07-Jul-20: LOG DATE
UWI .                  20EGP0553: API NUMBER
~Curve Information
DEPT.M                          : MWD Tool Measurement Depth
BDEP.M                          : Bit Depth
KPOSI.M                          : Kelly Position (Raw)
HKL .KLBF                       : Hook Load
SPP .PSI                        : Standpipe Pressure
ROP .M/HR                       : Rate of Penetration (MWD Depth Ave.)
PSPD.M/MIN                      : Instantaneous Pipe Speed
VIBC.CPS                        : Vibration Count
SSL_H.                           : Stick Slip Level from HDS1
SSS_H.                           : Stick Slip Percentage from HDS1
RPM_H.                           : Average RPM from HDS1
VIBXYH.                           : Vibration XY
VIBZH.                           : Vibration Z
#     DEPT      BDEP     KPOSI       HKL       SPP       ROP      PSPD      VIBC     SSL_H     SSS_H     RPM_H    VIBXYH     VIBZH
#        M         M         M      KLBF       PSI      M/HR     M/MIN       CPS                                                  
#
# Relog Number     0         0         0         0         0         0         0         0         0         0         0         0
#
~ASCII Data
# ...
 2930.0000   2930.00     16.69     83.00   2806.00     19.41   -999.25     15.57      0.00     23.97    101.28      2.01      2.32
 2930.2000   2930.20     16.49     83.00   2845.00     21.95   -999.25     13.20      0.00     28.32    100.00      2.05      2.21
 2930.4000   2930.40     16.29     82.00   2861.01     27.64   -999.25     10.83      0.39     50.07    100.00      2.09      2.11
 2930.6000   2930.60     16.09     82.00   2885.99     23.79   -999.25      8.64      0.64     59.76    100.72      2.12      2.01
 2930.8000   2930.80     15.88     82.00   2889.00     23.45   -999.25      7.09      0.00     31.16    100.38      2.06      1.42
 2931.0000   2931.00     15.69     86.00   2707.00     12.71   -999.25      5.91      0.00     28.22     99.75      1.98      0.80
 2931.2000   2931.20     15.49     85.00   2737.01     20.99   -999.25      5.61      0.00     26.88    100.90      1.98      0.92
 2931.4000   2931.40     15.28     85.00   2759.03     17.31   -999.25      5.30      0.00     23.04    100.00      1.98      1.05
 2931.6000   2931.60     15.09     85.00   2820.97     20.26   -999.25      5.00      0.09     40.62     98.18      1.98      1.17
 2931.8000   2931.80     14.89     85.00   2809.00     27.48   -999.25      6.33      1.03     50.03    100.00      1.98      1.28
 2932.0000   2932.00     14.69     84.00   2821.00     22.77   -999.25      7.66      1.86     78.40    100.00      1.98      1.38
 2932.2000   2932.20     14.48     84.00   2768.01     20.76   -999.25      8.99      0.00     31.24    100.43      1.98      1.49
 2932.4000   2932.40     14.29     84.00   2804.98     21.95   -999.25     10.40      0.00     33.27    102.00      1.98      1.59
 2932.6000   2932.60     14.09     84.00   2757.02     15.92   -999.25     12.02      0.00     24.23    102.00      2.03      1.60
 2932.8000   2932.80     13.89     83.00   2793.99     20.64   -999.25     13.64      0.00     18.03    100.02      2.08      1.60
 2933.0000   2933.00     13.69     83.00   2783.00     18.02   -999.25     14.68      0.00     22.80    102.00      2.12      1.60
 2933.2000   2933.20     13.48     83.00   2792.00     17.18   -999.25     12.76      0.00     19.87    100.65      2.21      1.72
 2933.4000   2933.40     13.28     83.00   2795.00     19.74   -999.25     10.84      0.00     24.17    101.85      2.30      1.85
 2933.6000   2933.60     13.09     83.00   2801.00     18.93   -999.25      8.99      0.00     17.99    100.00      2.39      1.98
 2933.8000   2933.80     12.89     83.00   2841.99     20.97   -999.25      8.73      0.00     20.38    100.00      2.32      1.92
 2934.0000   2934.00     12.69     83.00   2888.00     26.02   -999.25      8.48      0.32     27.33     99.35      2.22      1.81
 2934.2000   2934.20     12.48     83.00   2909.99     24.22   -999.25      8.23      0.75     45.62     98.98      2.12      1.71
 2934.4000   2934.40     12.28     83.00   2867.00     24.91   -999.25      7.94      0.24     37.40    101.52      2.01      1.61
 2934.6000   2934.60     12.09     83.00   2857.00     20.12   -999.25      7.41      0.60     36.66    100.79      2.00      1.55
 2934.8000   2934.80     11.89     83.00   2859.00     20.69   -999.25      6.89      0.00     28.45    100.93      1.99      1.50
 2935.0000   2935.00     11.68     83.00   2923.00     26.37   -999.25      6.36      0.53     36.78     98.93      1.99      1.45
 2935.2000   2935.20     11.49     83.00   3036.00     27.42   -999.25      6.23      1.55     61.32     93.04      1.98      1.40
 2935.4000   2935.40     11.29     84.00   3018.03     51.03   -999.25      6.96      2.64     99.93     83.20      1.96      1.33
 2935.6000   2935.60     11.09     84.00   3069.97     32.13   -999.25      7.68      3.00    108.59     80.00      1.93      1.26
 2935.8000   2935.80     10.89     84.00   3040.01     35.41   -999.25      8.40      3.00    109.92     79.41      1.91      1.18
 2936.0000   2936.00     10.69     84.00   2995.00     30.04   -999.25      9.13      2.93    120.00     79.20      1.88      1.11
 2936.2000   2936.20     10.49     84.00   2898.98     26.60   -999.25      9.85      2.05     99.02     93.23      1.86      1.04
 2936.4000   2936.40     10.28     84.00   2833.97     23.50   -999.25      9.75      1.02     46.03    103.84      1.89      1.09
 2936.6000   2936.60     10.09     84.00   2778.03     16.88   -999.25      9.44      0.00     30.78    102.37      1.98      1.29
 2936.8000   2936.80      9.88     84.00   2745.01     20.29   -999.25      9.13      0.00     32.35    100.00      2.07      1.48
 2937.0000   2937.00      9.69     84.00   2715.00     18.11   -999.25      9.00      0.00     24.73    100.00      2.13      1.63
 2937.2000   2937.20      9.49     84.00   2708.02     20.29   -999.25      9.00      0.00     29.87    100.16      2.13      1.69
 2937.4000   2937.40      9.29     84.00   2769.08     22.19   -999.25      9.00      0.00     28.46    101.23      2.13      1.76
 2937.6000   2937.60      9.08     84.00   2924.92     15.58   -999.25      8.94      1.18     64.64     88.56      2.11      1.74
 2937.8000   2937.80      8.89     85.00   2861.02     53.74   -999.25      8.78      2.55    107.52     80.73      2.07      1.54
 2938.0000   2938.00      8.69     85.00   2898.00     53.74   -999.25      8.61      1.64     81.52     94.46      2.02      1.35
 2938.2000   2938.20      8.49     84.00   2925.00     46.52   -999.25      8.44      1.00     59.69    102.71      1.97      1.16
 2938.4000   2938.40      8.28     84.00   2941.99     33.48   -999.25      8.27      1.00     47.35     98.49      1.93      0.96
 2938.6000   2938.60      8.08     84.00   2925.01     29.99   -999.25      8.10      1.00     45.35    100.77      1.88      0.77
 2938.8000   2938.80      7.89     84.00   2875.01     28.90   -999.25      8.00      1.00     49.07    103.16      1.86      0.63
 2939.0000   2939.00      7.69     84.00   2832.00     20.84   -999.25      8.00      0.33     34.24    102.66      2.01      0.90
 2939.2000   2939.20      7.48     84.00   2790.01     15.35   -999.25      8.00      0.00     27.16    101.60      2.16      1.17
 2939.4000   2939.40      7.29     84.00   2831.99     16.62   -999.25      9.46      0.00     31.94    100.00      2.28      1.41
 2939.6000   2939.60      7.09     84.00   2821.01     18.50   -999.25     13.41      0.00     37.19    101.95      2.27      1.48
 2939.8000   2939.80      6.88     83.00   2786.01     16.02   -999.25     17.36      0.00     24.75    101.01      2.27      1.55
 2940.0000   2940.00      6.68     83.00   2797.00     16.19   -999.25     17.30      0.00     21.94    100.00      2.28      1.65
 2940.2000   2940.20      6.48     83.00   2781.99     16.84   -999.25     14.40      0.00     20.00    100.00      2.34      1.80
 2940.4000   2940.40      6.29     83.00   2747.00     16.16   -999.25     11.49      0.00     21.75    100.00      2.39      1.95
 2940.6000   2940.60      6.08     83.00   2741.00     16.42   -999.25     11.00      0.00     21.06    101.33      2.31      2.00
 2940.8000   2940.80      5.89     83.00   2914.96     14.36   -999.25     11.00      1.00     47.63     96.80      2.15      2.00
 2941.0000   2941.00      5.69     83.00   2919.00     19.48   -999.25     10.87      1.00     46.97    104.52      2.00      2.00
 2941.2000   2941.20      5.49     83.00   2980.98     19.81   -999.25      9.47      1.00     48.86    100.00      2.10      1.89
 2941.4000   2941.40      5.29     83.00   2904.04     17.36   -999.25      8.07      0.13     37.40    103.47      2.24      1.76
 2941.6000   2941.60      5.09     84.00   2989.96     17.37   -999.25      7.00      1.53     70.87     92.00      2.38      1.63
 2941.8000   2941.80      4.89     85.00   2929.01     39.49   -999.25      7.00      2.79    109.70     92.00      2.22      1.41
 2942.0000   2942.00      4.69     86.00   2768.00      9.88   -999.25      7.00      0.29     34.42     97.41      1.99      1.15
 2942.2000   2942.20      4.49     86.00   2773.00     32.56   -999.25      7.00      0.68     45.68     98.00      1.84      1.07
