~Version Information
VERS.                       2.00: SCHLUMBERGER LAS - Version 2.00
WRAP.                         NO: One line per depth step
~Well Information
STRT.M                 2124.0000: Start Depth
STOP.M                 3002.8000: End Depth
STEP.M                    0.2000:  
NULL.                    -999.25:  
COMP.                    Bapetco: COMPANY
WELL.                BED 3 C18-N: WELL
FLD .                      BED 3: FLD
SRVC.               Schlumberger: SERVICE COMPANY
LOC .                           : LOCATION
DATE.                  07-Jul-20: LOG DATE
UWI .                  20EGP0553: API NUMBER
~Curve Information
DEPT.M                          : MWD Tool Measurement Depth
BDEP.M                          : Bit Depth
KPOSI.M                          : Kelly Position (Raw)
HKL .KLBF                       : Hook Load
SPP .PSI                        : Standpipe Pressure
ROP .M/HR                       : Rate of Penetration (MWD Depth Ave.)
PSPD.M/MIN                      : Instantaneous Pipe Speed
VIBC.CPS                        : Vibration Count
SSL_H.                           : Stick Slip Level from HDS1
SSS_H.                           : Stick Slip Percentage from HDS1
RPM_H.                           : Average RPM from HDS1
VIBXYH.                           : Vibration XY
VIBZH.                           : Vibration Z
#     DEPT      BDEP     KPOSI       HKL       SPP       ROP      PSPD      VIBC     SSL_H     SSS_H     RPM_H    VIBXYH     VIBZH
#        M         M         M      KLBF       PSI      M/HR     M/MIN       CPS                                                  
#
# Relog Number     0         0         0         0         0         0         0         0         0         0         0         0
#
~ASCII Data
# ...
 2582.8000   2582.80     20.52     81.00   2809.00     70.63   -999.25      5.30      0.00     31.49     93.67      1.68      0.60
 2583.0000   2583.00     20.31     81.00   2809.00     71.02   -999.25      5.00      0.00     29.91     94.00      1.65      0.60
 2583.2000   2583.20     20.11     81.00   2797.01     70.84   -999.25      5.00      0.00     28.11     94.00      1.62      0.60
 2583.4000   2583.40     19.92     81.00   2818.00     71.02   -999.25      5.00      0.00     26.31     94.00      1.59      0.60
 2583.6000   2583.60     19.72     81.00   2817.00     71.02   -999.25      5.00      0.00     25.53     94.00      1.56      0.60
 2583.8000   2583.80     19.51     81.00   2798.00     70.84   -999.25      5.00      0.00     25.53     94.00      1.53      0.60
 2584.0000   2584.00     19.31     81.00   2826.00     71.03   -999.25      5.00      0.00     25.53     94.00      1.51      0.60
 2584.2000   2584.20     19.12     81.00   2792.00     70.58   -999.25      5.00      0.00     24.75     93.59      1.48      0.60
 2584.4000   2584.40     18.91     81.00   2775.01     71.28   -999.25      5.00      0.00     23.46     92.91      1.45      0.60
 2584.6000   2584.60     18.71     81.00   2791.99     71.02   -999.25      5.00      0.00     22.18     92.23      1.45      0.60
 2584.8000   2584.80     18.52     82.00   2775.00     70.84   -999.25      5.00      0.00     22.11     92.44      1.47      0.60
 2585.0000   2585.00     18.31     82.00   2761.00     70.58   -999.25      5.00      0.00     22.67     93.12      1.48      0.60
 2585.2000   2585.20     18.11     81.00   2756.00     71.02   -999.25      5.00      0.00     23.23     93.80      1.50      0.60
 2585.4000   2585.40     17.92     81.00   2760.00     71.03   -999.25      5.00      0.00     23.15     94.00      1.51      0.60
 2585.6000   2585.60     17.71     81.00   2760.00     71.10   -999.25      5.00      0.00     22.79     94.00      1.53      0.60
 2585.8000   2585.80     17.51     81.00   2741.00     70.31   -999.25      5.00      0.00     22.43     94.00      1.54      0.60
 2586.0000   2586.00     17.32     81.00   2796.00     71.02   -999.25      5.00      0.28     27.34     94.00      1.56      0.60
 2586.2000   2586.20     17.12     82.00   2780.99     63.12   -999.25      5.00      0.65     34.02     94.00      1.57      0.60
 2586.4000   2586.40     16.92     82.00   2752.99     62.84   -999.25      5.00      0.98     40.17     94.03      1.59      0.60
 2586.6000   2586.60     16.71     82.00   2738.01     62.64   -999.25      5.00      0.60     33.47     94.80      1.60      0.60
 2586.8000   2586.80     16.52     82.00   2742.00     62.99   -999.25      5.00      0.22     26.77     95.56      1.68      0.60
 2587.0000   2587.00     16.32     82.00   2724.00     62.72   -999.25      5.00      0.00     22.02     95.35      1.81      0.60
 2587.2000   2587.20     16.11     82.00   2766.00     62.70   -999.25      5.00      0.00     19.91     93.82      1.95      0.60
 2587.4000   2587.40     15.92     82.00   2770.98     62.96   -999.25      5.00      0.00     17.80     92.30      2.09      0.60
 2587.6000   2587.60     15.71     82.00   2734.02     62.62   -999.25      4.96      0.00     21.54     92.62      2.23      0.60
 2587.8000   2587.80     15.51     81.00   2739.00     62.96   -999.25      4.86      0.00     26.70     93.38      2.37      0.60
 2588.0000   2588.00     15.32     81.00   2748.00     62.70   -999.25      4.77      0.15     34.92     93.70      2.50      0.60
 2588.2000   2588.20     15.11     81.00   2761.00     62.80   -999.25      4.67      0.91     55.76     92.18      2.64      0.60
 2588.4000   2588.40     14.91     81.00   2773.99     62.77   -999.25      4.57      1.67     76.59     90.66      2.78      0.60
 2588.6000   2588.60     14.72     82.00   2763.01     62.96   -999.25      4.48      1.56     72.48     90.87      2.92      0.60
 2588.8000   2588.80     14.51     82.00   2745.00     62.70   -999.25      4.38      0.80     49.53     92.40      3.05      0.60
 2589.0000   2589.00     14.32     82.00   2735.00     62.96   -999.25      4.29      0.03     26.57     93.93      2.98      0.60
 2589.2000   2589.20     14.12     82.00   2745.02     62.96   -999.25      4.19      0.00     25.14     94.00      2.90      0.60
 2589.4000   2589.40     13.91     81.00   2813.02     62.84   -999.25      4.10      0.00     24.74     94.00      2.83      0.60
 2589.6000   2589.60     13.72     81.00   2858.98     62.00   -999.25      4.00      0.13     27.41     93.74      2.75      0.60
 2589.8000   2589.80     13.52     81.00   2810.01     62.70   -999.25      4.29      0.51     35.93     92.97      2.67      0.60
 2590.0000   2590.00     13.31     82.00   2780.00     62.72   -999.25      4.57      0.90     44.44     92.21      2.60      0.60
 2590.2000   2590.20     13.12     82.00   2747.00     62.70   -999.25      4.86      0.72     41.54     93.12      2.52      0.60
 2590.4000   2590.40     12.92     82.00   2760.01     62.96   -999.25      5.15      0.34     34.42     94.65      2.45      0.60
 2590.6000   2590.60     12.71     82.00   2773.99     62.84   -999.25      5.44      0.00     27.77     95.91      2.37      0.60
 2590.8000   2590.80     12.51     82.00   2764.00     61.84   -999.25      5.72      0.00     24.72     95.14      2.30      0.60
 2591.0000   2591.00     12.32     82.00   2753.00     62.70   -999.25      6.01      0.00     21.67     94.37      2.23      0.60
 2591.2000   2591.20     12.11     82.00   2736.01     62.72   -999.25      6.30      0.00     20.85     94.00      2.17      0.60
 2591.4000   2591.40     11.91     82.00   2766.01     62.84   -999.25      6.59      0.00     22.07     94.00      2.10      0.60
 2591.6000   2591.60     11.72     81.00   2777.99     62.24   -999.25      6.87      0.00     23.29     94.00      2.04      0.60
 2591.8000   2591.80     11.52     82.00   2788.00     62.48   -999.25      6.78      0.35     32.66     94.00      1.98      0.60
 2592.0000   2592.00     11.31     82.00   2760.00     62.80   -999.25      6.40      0.73     42.83     94.00      1.92      0.60
 2592.2000   2592.20     11.12     82.00   2745.00     62.99   -999.25      6.02      0.89     47.47     94.00      1.85      0.60
 2592.4000   2592.40     10.92     82.00   2746.00     62.24   -999.25      5.63      0.50     38.90     94.00      1.79      0.60
 2592.6000   2592.60     10.71     82.00   2749.00     62.48   -999.25      5.25      0.12     30.32     94.00      1.73      0.60
 2592.8000   2592.80     10.51     82.00   2741.00     62.64   -999.25      4.87      0.26     32.16     94.00      1.67      0.60
 2593.0000   2593.00     10.32     82.00   2759.00     62.62   -999.25      4.49      0.65     38.68     94.00      1.61      0.60
 2593.2000   2593.20     10.12     82.00   2760.99     62.64   -999.25      4.10      1.00     44.65     94.00      1.61      0.58
 2593.4000   2593.40      9.91     82.00   2739.00     62.84   -999.25      3.72      1.00     44.24     94.00      1.60      0.56
 2593.6000   2593.60      9.72     82.00   2745.00     62.40   -999.25      3.34      1.00     43.83     94.00      1.60      0.54
 2593.8000   2593.80      9.52     82.00   2726.00     62.62   -999.25      3.00      0.82     42.61     93.64      1.59      0.52
 2594.0000   2594.00      9.31     82.00   2750.00     62.64   -999.25      3.00      0.44     40.48     92.87      1.59      0.50
 2594.2000   2594.20      9.12     82.00   2755.00     62.84   -999.25      3.00      0.06     38.35     92.11      1.58      0.48
 2594.4000   2594.40      8.92     82.00   2749.99     62.88   -999.25      3.00      0.00     34.65     92.65      1.58      0.46
 2594.6000   2594.60      8.71     82.00   2730.01     62.55   -999.25      3.00      0.00     30.68     93.42      1.57      0.44
 2594.8000   2594.80      8.52     82.00   2718.00     62.96   -999.25      3.00      0.10     29.40     94.00      1.57      0.43
 2595.0000   2595.00      8.31     82.00   2733.00     62.99   -999.25      3.00      0.50     36.66     94.00      1.56      0.41
