~Version Information
VERS.                       2.00: SCHLUMBERGER LAS - Version 2.00
WRAP.                         NO: One line per depth step
~Well Information
STRT.M                 1134.0000: Start Depth
STOP.M                 2124.0000: End Depth
STEP.M                    0.2000:  
NULL.                    -999.25:  
COMP.                    Bapetco: COMPANY
WELL.                BED 3 C18-N: WELL
FLD .                      BED 3: FLD
SRVC.               Schlumberger: SERVICE COMPANY
LOC .                           : LOCATION
DATE.                  05-Jul-20: LOG DATE
UWI .                  20EGP0553: API NUMBER
~Curve Information
DEPT.M                          : MWD Tool Measurement Depth
BDEP.M                          : Bit Depth
KPOSI.M                          : Kelly Position (Raw)
HKL .KLBF                       : Hook Load
SPP .PSI                        : Standpipe Pressure
ROP .M/HR                       : Rate of Penetration (MWD Depth Ave.)
PSPD.M/MIN                      : Instantaneous Pipe Speed
VIBC.CPS                        : Vibration Count
SSL_H.                           : Stick Slip Level from HDS1
SSS_H.                           : Stick Slip Percentage from HDS1
RPM_H.                           : Average RPM from HDS1
VIBXYH.                           : Vibration XY
VIBZH.                           : Vibration Z
#     DEPT      BDEP     KPOSI       HKL       SPP       ROP      PSPD      VIBC     SSL_H     SSS_H     RPM_H    VIBXYH     VIBZH
#        M         M         M      KLBF       PSI      M/HR     M/MIN       CPS                                                  
#
# Relog Number     0         0         0         0         0         0         0         0         0         0         0         0
#
~ASCII Data
# ...
 1791.2000   1791.20      8.04     74.00   2359.98     52.29   -999.25     77.74      0.00     20.85     88.00      4.47      2.00
 1791.4000   1791.40      7.84     74.00   2280.01     50.88   -999.25     76.90      0.00     19.27     88.00      4.55      2.00
 1791.6000   1791.60      7.65     74.00   2259.00     53.42   -999.25     76.06      0.00     18.99     88.00      4.63      2.00
 1791.8000   1791.80      7.44     74.00   2270.00     41.00   -999.25     75.21      0.00     21.62     88.00      4.72      2.00
 1792.0000   1792.00      7.24     73.00   2367.00     35.75   -999.25     74.37      0.00     23.19     88.00      4.80      2.00
 1792.2000   1792.20      7.05     73.00   2515.01     33.54   -999.25     73.53      0.00     23.45     88.00      4.88      2.00
 1792.4000   1792.40      6.85     73.00   2563.99     32.38   -999.25     74.76      0.00     20.97     88.00      4.97      2.00
 1792.6000   1792.60      6.65     73.00   2550.00     28.97   -999.25     79.46      0.00     24.74     88.00      4.94      2.04
 1792.8000   1792.80      6.44     73.00   2529.01     29.22   -999.25     84.16      0.00     26.72     88.00      4.91      2.09
 1793.0000   1793.00      6.24     73.00   2522.00     26.53   -999.25     88.86      0.00     23.90     88.00      4.88      2.13
 1793.2000   1793.20      6.05     73.00   2523.00     25.29   -999.25     93.55      0.00     21.25     88.00      4.85      2.18
 1793.4000   1793.40      5.85     73.00   2518.00     20.12   -999.25     96.09      0.00     19.44     88.00      4.91      2.17
 1793.6000   1793.60      5.65     72.00   2512.00     21.31   -999.25     98.40      0.00     19.67     88.00      5.03      2.11
 1793.8000   1793.80      5.45     72.00   2519.00     20.69   -999.25    100.72      0.00     21.59     88.00      5.14      2.05
 1794.0000   1794.00      5.24     73.00   2514.00     20.38   -999.25    100.81      0.00     13.68     88.00      5.24      2.00
 1794.2000   1794.20      5.04     73.00   2535.01     24.72   -999.25     98.13      0.00     17.05     88.00      5.17      2.00
 1794.4000   1794.40      4.85     72.00   2557.00     24.04   -999.25     95.45      0.00     15.92     88.00      5.11      2.00
 1794.6000   1794.60      4.64     73.00   2554.00     25.82   -999.25     92.77      0.00     15.91     88.00      5.04      2.00
 1794.8000   1794.80      4.45     73.00   2593.99     26.92   -999.25     91.19      0.00     17.66     88.00      4.97      2.00
 1795.0000   1795.00      4.25     73.00   2601.00     33.62   -999.25     91.74      0.00     18.77     88.00      4.97      2.07
 1795.2000   1795.20      4.05     73.00   2623.00     34.57   -999.25     92.29      0.00     18.49     88.00      4.96      2.14
 1795.4000   1795.40      3.85     73.00   2604.00     32.02   -999.25     92.84      0.00     15.99     88.00      4.96      2.22
 1795.6000   1795.60      3.64     73.00   2603.00     32.50   -999.25     93.39      0.00     17.67     88.00      4.96      2.29
 1795.8000   1795.80      3.45     73.00   2608.00     32.08   -999.25     93.94      0.00     21.31     87.00      4.95      2.36
 1796.0000   1796.00      3.24     73.00   2626.00     32.81   -999.25     92.00      0.00     24.31     86.39      4.94      2.37
 1796.2000   1796.20      3.05     73.00   2630.01     35.51   -999.25     89.77      0.00     23.93     87.74      4.93      2.31
 1796.4000   1796.40      2.85     73.00   2655.00     38.96   -999.25     87.54      0.00     24.42     88.00      4.91      2.24
 1796.6000   1796.60      2.65     73.00   2675.00     39.07   -999.25     85.30      0.00     24.88     88.00      4.89      2.18
 1796.8000   1796.80      2.45     73.00   2692.00     39.40   -999.25     83.07      0.00     24.20     88.00      4.87      2.12
 1797.0000   1797.00      2.25     73.00   2663.00     40.14   -999.25     80.84      0.00     25.65     88.00      4.86      2.06
 1797.2000   1797.20      2.05     73.00   2669.00     38.62   -999.25     88.50      0.00     29.16     88.00      4.87      1.99
 1797.4000   1797.40      1.84     73.00   2679.00     40.16   -999.25    102.08      0.00     25.89     88.00      5.13      1.94
 1797.6000   1797.60      1.65     73.00   2669.99     38.83   -999.25    115.67      0.00     16.03     90.80      5.38      1.89
 1797.8000   1797.80     29.94     76.00   2562.03      5.84   -999.25    129.26      0.00     22.37     91.42      5.64      1.84
 1798.0000   1798.00     29.74     75.00   2651.00     30.88   -999.25    142.85      0.00     18.57     90.59      5.85      1.81
 1798.2000   1798.20     29.62     75.33   2633.67     31.82   -999.25    151.13      0.00     14.78     89.75      5.88      1.83
 1798.4000   1798.40     29.62     75.67   2616.33     32.76   -999.25    151.44      0.00     10.99     88.92      5.92      1.86
 1798.6000   1798.60     29.62     76.00   2599.00     33.71   -999.25    151.76      0.00      7.20     88.08      5.95      1.88
 1798.8000   1798.80     29.61     76.50   2579.50     96.20   -999.25    152.08      0.00      7.56     87.59      5.99      1.91
 1799.0000   1799.00     29.61     77.00   2560.00    158.70   -999.25    152.39      0.00      8.39     87.14      6.02      1.93
 1799.2000   1799.20     29.59     77.00   2559.00    214.99   -999.25    152.71      0.00      9.21     86.69      6.06      1.96
 1799.4000   1799.40     29.56     77.00   2558.00    271.28   -999.25    153.03      0.00     10.04     86.24      6.09      1.98
 1799.6000   1799.60     29.39     76.00   2611.01     15.25   -999.25    153.34      0.00     12.31     86.00      6.13      2.02
 1799.8000   1799.80     29.19     75.00   2693.98     27.37   -999.25    153.66      0.00     12.44     87.17      6.15      2.10
 1800.0000   1800.00     28.98     75.00   2689.00     25.22   -999.25    153.98      0.00     11.36     88.00      6.18      2.18
 1800.2000   1800.20     28.79     75.00   2617.99     30.25   -999.25    158.30      0.00     12.37     87.22      6.20      2.26
 1800.4000   1800.40     28.59     75.00   2575.01     32.40   -999.25    162.95      0.00     13.92     86.19      6.23      2.34
 1800.6000   1800.60     28.39     74.00   2599.99     44.03   -999.25    167.60      0.00     13.75     87.31      6.26      2.43
 1800.8000   1800.80     28.18     75.00   2558.01     38.89   -999.25    172.26      0.00     13.96     87.56      6.28      2.51
 1801.0000   1801.00     27.99     74.00   2548.00     45.48   -999.25    176.91      0.00     14.81     86.41      6.30      2.60
 1801.2000   1801.20     27.79     74.00   2529.00     38.00   -999.25    181.56      0.00     16.51     86.00      6.32      2.68
 1801.4000   1801.40     27.59     74.00   2535.00     38.51   -999.25    182.83      0.00     18.52     86.04      6.34      2.76
 1801.6000   1801.60     27.38     74.00   2549.00     43.89   -999.25    182.59      0.00     16.57     87.06      6.36      2.85
 1801.8000   1801.80     27.19     74.00   2559.00     51.04   -999.25    182.35      0.00     14.94     88.00      6.39      2.93
 1802.0000   1802.00     26.99     74.00   2580.00     54.12   -999.25    182.11      0.00     17.14     88.00      6.39      3.00
 1802.2000   1802.20     26.79     74.00   2548.00     46.22   -999.25    181.87      0.00     19.33     88.00      6.34      3.03
 1802.4000   1802.40     26.59     74.00   2562.00     47.99   -999.25    181.63      0.00     20.88     88.00      6.29      3.05
 1802.6000   1802.60     26.39     74.00   2537.00     57.74   -999.25    181.39      0.00     22.43     88.00      6.24      3.07
 1802.8000   1802.80     26.19     74.00   2549.00     53.95   -999.25    181.15      0.00     19.94     88.00      6.19      3.09
 1803.0000   1803.00     25.99     74.00   2538.00     60.68   -999.25    181.25      0.00     16.47     88.00      6.14      3.11
 1803.2000   1803.20     25.79     74.00   2535.00     52.64   -999.25    181.89      0.00     14.60     87.59      6.09      3.14
 1803.4000   1803.40     25.59     73.00   2540.00     62.56   -999.25    182.52      0.00     14.27     86.79      6.04      3.16
