~Version Information
VERS.                       2.00: SCHLUMBERGER LAS - Version 2.00
WRAP.                         NO: One line per depth step
~Well Information
STRT.M                 2124.0000: Start Depth
STOP.M                 3002.8000: End Depth
STEP.M                    0.2000:  
NULL.                    -999.25:  
COMP.                    Bapetco: COMPANY
WELL.                BED 3 C18-N: WELL
FLD .                      BED 3: FLD
SRVC.               Schlumberger: SERVICE COMPANY
LOC .                           : LOCATION
DATE.                  07-Jul-20: LOG DATE
UWI .                  20EGP0553: API NUMBER
~Curve Information
DEPT.M                          : MWD Tool Measurement Depth
BDEP.M                          : Bit Depth
KPOSI.M                          : Kelly Position (Raw)
HKL .KLBF                       : Hook Load
SPP .PSI                        : Standpipe Pressure
ROP .M/HR                       : Rate of Penetration (MWD Depth Ave.)
PSPD.M/MIN                      : Instantaneous Pipe Speed
VIBC.CPS                        : Vibration Count
SSL_H.                           : Stick Slip Level from HDS1
SSS_H.                           : Stick Slip Percentage from HDS1
RPM_H.                           : Average RPM from HDS1
VIBXYH.                           : Vibration XY
VIBZH.                           : Vibration Z
#     DEPT      BDEP     KPOSI       HKL       SPP       ROP      PSPD      VIBC     SSL_H     SSS_H     RPM_H    VIBXYH     VIBZH
#        M         M         M      KLBF       PSI      M/HR     M/MIN       CPS                                                  
#
# Relog Number     0         0         0         0         0         0         0         0         0         0         0         0
#
~ASCII Data
 2124.0000   2124.00   -999.25   -999.25   -999.25   -999.25   -999.25   -999.25   -999.25   -999.25   -999.25   -999.25   -999.25
 2124.2000   2124.20   -999.25   -999.25   -999.25   -999.25   -999.25   -999.25   -999.25   -999.25   -999.25   -999.25   -999.25
 2124.4000   2124.40   -999.25   -999.25   -999.25   -999.25   -999.25   -999.25   -999.25   -999.25   -999.25   -999.25   -999.25
 2124.6000   2124.60     19.07     80.00   2389.00      7.23   -999.25   -999.25   -999.25   -999.25   -999.25   -999.25   -999.25
 2124.8000   2124.80     18.86     79.00   2458.98     63.11   -999.25   -999.25   -999.25   -999.25   -999.25   -999.25   -999.25
 2125.0000   2125.00     18.67     77.00   2558.00     36.08   -999.25   -999.25      0.66     48.91     72.87      2.26      0.62
 2125.2000   2125.20     18.47     76.00   2645.00     42.81   -999.25   -999.25      2.50    100.55     75.34      2.26      0.72
 2125.4000   2125.40     18.27     76.00   2665.01     32.44   -999.25   -999.25      1.40     67.82     77.07      2.26      0.83
 2125.6000   2125.60     18.07     76.00   2679.99     33.32   -999.25     15.00      0.00     25.84     78.00      2.26      0.93
 2125.8000   2125.80     17.87     76.00   2664.00     31.07   -999.25     15.33      0.06     24.64     78.00      2.26      1.04
 2126.0000   2126.00     17.67     76.00   2677.00     33.80   -999.25     15.69      0.74     44.09     78.00      2.26      1.14
 2126.2000   2126.20     17.47     76.00   2687.00     38.87   -999.25     16.04      1.00     52.39     78.00      2.37      1.18
 2126.4000   2126.40     17.27     76.00   2676.02     33.72   -999.25     16.40      1.25     60.33     77.75      2.61      1.15
 2126.6000   2126.60     17.06     76.00   2722.98     34.54   -999.25     16.75      2.65     97.34     76.35      2.85      1.11
 2126.8000   2126.80     16.87     76.00   2698.01     30.65   -999.25     17.33      1.84     78.26     76.00      3.09      1.08
 2127.0000   2127.00     16.67     76.00   2711.00     33.73   -999.25     18.45      1.00     63.90     77.31      3.33      1.04
 2127.2000   2127.20     16.47     76.00   2706.00     32.29   -999.25     19.58      0.96     74.61     79.91      3.57      1.01
 2127.4000   2127.40     16.27     76.00   2697.00     29.92   -999.25     20.70      0.17     44.87     78.34      3.46      1.03
 2127.6000   2127.60     16.06     76.00   2701.00     30.53   -999.25     21.83      1.73     77.66     78.00      3.28      1.07
 2127.8000   2127.80     15.87     76.00   2696.00     35.07   -999.25     22.95      2.36     92.12     77.36      3.10      1.11
 2128.0000   2128.00     15.67     76.00   2696.00     29.92   -999.25     22.83      0.92     59.81     76.32      2.93      1.15
 2128.2000   2128.20     15.47     76.00   2704.00     31.76   -999.25     22.65      0.13     39.49     79.49      2.75      1.19
 2128.4000   2128.40     15.27     76.00   2699.01     30.91   -999.25     22.47      0.58     53.13     75.35      2.80      1.18
 2128.6000   2128.60     15.07     76.00   2726.99     39.79   -999.25     22.29      1.26     70.37     74.07      2.98      1.14
 2128.8000   2128.80     14.87     76.00   2731.00     36.12   -999.25     22.11      1.91     83.27     79.30      3.15      1.11
 2129.0000   2129.00     14.66     76.00   2718.00     35.51   -999.25     24.35      0.84     53.98     77.68      3.33      1.07
 2129.2000   2129.20     14.47     76.00   2695.00     29.92   -999.25     30.71      0.00     28.42     77.22      3.50      1.04
 2129.4000   2129.40     14.27     76.00   2678.01     32.48   -999.25     37.07      0.00     21.64     79.75      3.68      1.00
 2129.6000   2129.60     14.07     76.00   2690.99     29.53   -999.25     43.43      0.00     24.23     78.08      3.81      1.04
 2129.8000   2129.80     13.87     76.00   2690.00     32.20   -999.25     49.79      0.00     18.42     76.61      3.95      1.07
 2130.0000   2130.00     13.67     76.00   2694.00     36.30   -999.25     56.01      0.00     16.53     77.72      4.08      1.11
 2130.2000   2130.20     13.47     76.00   2675.00     30.98   -999.25     56.53      0.00     16.49     79.66      4.22      1.15
 2130.4000   2130.40     13.27     76.00   2684.00     30.99   -999.25     57.05      0.00     12.17     78.21      4.35      1.19
 2130.6000   2130.60     13.07     76.00   2692.00     33.20   -999.25     57.57      0.00     16.22     78.00      4.37      1.22
 2130.8000   2130.80     12.87     76.00   2698.00     37.56   -999.25     58.09      0.00     19.23     78.00      4.33      1.25
 2131.0000   2131.00     12.67     76.00   2701.00     35.94   -999.25     58.61      0.00     19.23     78.00      4.28      1.28
 2131.2000   2131.20     12.47     75.00   2725.00     40.77   -999.25     58.76      0.00     17.16     78.00      4.23      1.32
 2131.4000   2131.40     12.27     76.00   2719.99     33.56   -999.25     57.79      0.00     15.80     78.00      4.18      1.35
 2131.6000   2131.60     12.07     76.00   2708.01     38.67   -999.25     56.82      0.00     17.48     78.00      4.13      1.38
 2131.8000   2131.80     11.87     76.00   2734.99     39.60   -999.25     55.84      0.00     16.15     78.00      4.09      1.39
 2132.0000   2132.00     11.67     76.00   2695.00     35.16   -999.25     54.87      0.00     14.10     78.00      4.07      1.35
 2132.2000   2132.20     11.47     75.00   2728.00     38.39   -999.25     53.90      0.00     14.10     78.00      4.05      1.32
 2132.4000   2132.40     11.27     76.00   2719.01     35.24   -999.25     53.07      0.00     15.18     78.00      4.03      1.29
 2132.6000   2132.60     11.07     76.00   2732.99     40.77   -999.25     54.05      0.00     16.86     78.11      4.01      1.26
 2132.8000   2132.80     10.87     76.00   2728.00     42.39   -999.25     55.03      0.00     18.92     79.35      3.99      1.23
 2133.0000   2133.00     10.67     76.00   2718.00     37.28   -999.25     56.00      0.00     18.20     79.39      3.97      1.21
 2133.2000   2133.20     10.46     75.00   2714.99     35.82   -999.25     56.98      0.00     14.46     78.12      3.97      1.28
 2133.4000   2133.40     10.27     76.00   2692.01     35.41   -999.25     57.96      0.00     12.61     78.00      3.97      1.34
 2133.6000   2133.60     10.07     75.00   2708.99     36.45   -999.25     58.94      0.00     12.12     78.00      3.97      1.40
 2133.8000   2133.80      9.87     75.00   2706.00     37.62   -999.25     57.52      0.00     13.78     78.00      3.97      1.47
 2134.0000   2134.00      9.67     76.00   2724.00     37.38   -999.25     55.93      0.00     16.57     78.00      3.97      1.53
 2134.2000   2134.20      9.46     76.00   2734.00     46.17   -999.25     54.34      0.00     18.77     78.00      3.97      1.59
 2134.4000   2134.40      9.27     76.00   2723.00     39.78   -999.25     52.75      0.00     15.04     78.00      3.97      1.58
 2134.6000   2134.60      9.07     75.00   2728.00     37.79   -999.25     51.17      0.00     15.42     78.00      3.97      1.55
 2134.8000   2134.80      8.87     76.00   2714.00     46.91   -999.25     49.58      0.00     21.83     78.00      3.97      1.52
 2135.0000   2135.00      8.67     75.00   2750.00     45.37   -999.25     48.01      0.00     21.96     78.00      3.97      1.49
 2135.2000   2135.20      8.47     75.00   2750.00     36.04   -999.25     49.21      0.00     17.99     78.00      3.97      1.46
 2135.4000   2135.40      8.27     76.00   2738.00     51.04   -999.25     50.41      0.00     16.71     78.00      3.97      1.44
 2135.6000   2135.60      8.07     76.00   2744.00     47.34   -999.25     51.62      0.00     15.46     78.00      3.97      1.41
 2135.8000   2135.80      7.87     76.00   2741.00     43.56   -999.25     52.82      0.00     18.50     79.06      3.94      1.38
 2136.0000   2136.00      7.67     76.00   2694.00     43.17   -999.25     54.03      0.00     20.66     79.74      3.89      1.34
 2136.2000   2136.20      7.47     76.00   2726.00     30.72   -999.25     55.23      0.00     17.31     78.28      3.84      1.31
