~Version Information
VERS.                       2.00: SCHLUMBERGER LAS - Version 2.00
WRAP.                         NO: One line per depth step
~Well Information
STRT.M                 1134.0000: Start Depth
STOP.M                 2124.0000: End Depth
STEP.M                    0.2000:  
NULL.                    -999.25:  
COMP.                    Bapetco: COMPANY
WELL.                BED 3 C18-N: WELL
FLD .                      BED 3: FLD
SRVC.               Schlumberger: SERVICE COMPANY
LOC .                           : LOCATION
DATE.                  05-Jul-20: LOG DATE
UWI .                  20EGP0553: API NUMBER
~Curve Information
DEPT.M                          : MWD Tool Measurement Depth
BDEP.M                          : Bit Depth
KPOSI.M                          : Kelly Position (Raw)
HKL .KLBF                       : Hook Load
SPP .PSI                        : Standpipe Pressure
ROP .M/HR                       : Rate of Penetration (MWD Depth Ave.)
PSPD.M/MIN                      : Instantaneous Pipe Speed
VIBC.CPS                        : Vibration Count
SSL_H.                           : Stick Slip Level from HDS1
SSS_H.                           : Stick Slip Percentage from HDS1
RPM_H.                           : Average RPM from HDS1
VIBXYH.                           : Vibration XY
VIBZH.                           : Vibration Z
#     DEPT      BDEP     KPOSI       HKL       SPP       ROP      PSPD      VIBC     SSL_H     SSS_H     RPM_H    VIBXYH     VIBZH
#        M         M         M      KLBF       PSI      M/HR     M/MIN       CPS                                                  
#
# Relog Number     0         0         0         0         0         0         0         0         0         0         0         0
#
~ASCII Data
# ...
 1853.2000   1853.20      4.09     73.00   2529.00     32.21   -999.25    140.33      0.00     18.56     86.19      5.31      4.78
 1853.4000   1853.40      3.88     73.00   2527.00     27.03   -999.25    135.96      0.00     18.21     87.87      5.24      4.77
 1853.6000   1853.60      3.68     73.00   2499.00     32.86   -999.25    131.58      0.00     16.01     86.58      5.21      4.69
 1853.8000   1853.80      3.48     73.00   2491.00     28.90   -999.25    127.21      0.00     15.69     86.00      5.18      4.61
 1854.0000   1854.00      3.28     73.00   2522.00     33.28   -999.25    122.84      0.00     17.18     86.00      5.15      4.54
 1854.2000   1854.20      3.08     73.00   2534.00     31.94   -999.25    121.32      0.00     19.73     86.00      5.12      4.46
 1854.4000   1854.40      2.88     73.00   2516.00     28.55   -999.25    121.88      0.00     19.41     87.60      5.11      4.41
 1854.6000   1854.60      2.69     73.00   2519.00     32.08   -999.25    122.44      0.00     16.34     86.89      5.17      4.45
 1854.8000   1854.80      2.48     73.00   2542.99     32.02   -999.25    122.99      0.00     13.95     86.00      5.22      4.48
 1855.0000   1855.00      2.28     73.00   2527.00     34.55   -999.25    123.55      0.00     14.05     86.05      5.28      4.52
 1855.2000   1855.20      2.08     73.00   2524.00     35.01   -999.25    128.37      0.00     17.05     87.47      5.33      4.55
 1855.4000   1855.40      1.88     73.00   2524.00     34.11   -999.25    151.34      0.57     38.29     85.73      5.39      4.59
 1855.6000   1855.60      1.68     73.00   2539.97     36.75   -999.25    174.31      0.00     12.30     87.12      5.56      4.93
 1855.8000   1855.80     29.72     76.00   2287.06      4.87   -999.25    197.28      0.00     15.52     91.71      5.78      5.41
 1856.0000   1856.00     29.51     75.00   2341.00     24.07   -999.25    213.81      0.00     16.07     91.17      6.01      5.88
 1856.2000   1856.20     29.31     74.00   2380.01     33.16   -999.25    201.95      0.00     16.62     90.63      6.23      6.36
 1856.4000   1856.40     29.11     74.00   2422.99     27.85   -999.25    190.10      0.00     17.17     90.09      6.13      6.14
 1856.6000   1856.60     28.91     74.00   2411.00     38.79   -999.25    178.25      0.00     17.73     89.55      6.01      5.86
 1856.8000   1856.80     28.71     74.00   2394.00     33.88   -999.25    166.39      0.00     18.28     89.02      5.88      5.58
 1857.0000   1857.00     28.51     74.00   2399.00     33.25   -999.25    154.54      0.00     18.83     88.48      5.75      5.29
 1857.2000   1857.20     28.31     74.00   2412.00     40.55   -999.25    149.61      0.00     19.24     88.00      5.63      5.01
 1857.4000   1857.40     28.11     74.00   2395.00     36.30   -999.25    145.70      0.00     18.54     88.00      5.50      4.80
 1857.6000   1857.60     27.91     74.00   2432.00     32.36   -999.25    141.80      0.00     18.90     88.00      5.36      4.80
 1857.8000   1857.80     27.71     74.00   2407.01     45.24   -999.25    137.90      0.00     20.41     88.00      5.22      4.80
 1858.0000   1858.00     27.51     74.00   2427.00     45.62   -999.25    134.00      0.00     18.69     88.00      5.08      4.80
 1858.2000   1858.20     27.31     74.00   2405.00     44.38   -999.25    130.10      0.00     17.05     88.00      4.95      4.80
 1858.4000   1858.40     27.12     74.00   2394.00     46.09   -999.25    126.20      0.00     17.05     88.00      4.81      4.80
 1858.6000   1858.60     26.91     74.00   2450.00     48.97   -999.25    128.39      0.00     17.39     88.00      4.67      4.80
 1858.8000   1858.80     26.71     74.00   2473.99     48.25   -999.25    130.91      0.00     18.94     88.00      4.54      4.80
 1859.0000   1859.00     26.51     74.00   2452.00     57.23   -999.25    133.44      0.00     20.45     88.00      4.55      4.80
 1859.2000   1859.20     26.32     74.00   2507.00     47.78   -999.25    135.96      0.00     20.45     88.00      4.57      4.80
 1859.4000   1859.40     26.11     74.00   2503.00     53.61   -999.25    138.48      0.00     20.45     88.00      4.58      4.80
 1859.6000   1859.60     25.91     74.00   2539.00     44.80   -999.25    141.00      0.00     17.73     88.00      4.60      4.80
 1859.8000   1859.80     25.71     74.00   2551.00     48.40   -999.25    143.52      0.00     14.80     88.00      4.62      4.80
 1860.0000   1860.00     25.51     74.00   2552.00     38.93   -999.25    146.00      0.00     13.55     88.00      4.63      4.80
 1860.2000   1860.20     25.31     74.00   2581.00     50.73   -999.25    145.87      0.00     12.90     88.15      4.65      4.80
 1860.4000   1860.40     25.12     74.00   2596.00     48.69   -999.25    145.74      0.00     15.45     89.12      4.67      4.80
 1860.6000   1860.60     24.91     74.00   2601.00     46.20   -999.25    145.62      0.00     17.63     89.90      4.65      4.85
 1860.8000   1860.80     24.71     74.00   2595.00     50.41   -999.25    145.49      0.00     16.02     88.83      4.64      4.90
 1861.0000   1861.00     24.51     74.00   2612.00     44.25   -999.25    145.36      0.00     14.77     88.00      4.62      4.95
 1861.2000   1861.20     24.31     74.00   2632.01     48.25   -999.25    145.24      0.00     14.77     88.00      4.60      5.00
 1861.4000   1861.40     24.12     74.00   2654.00     44.82   -999.25    145.11      0.00     14.98     88.00      4.59      5.05
 1861.6000   1861.60     23.92     74.00   2626.00     47.93   -999.25    145.71      0.00     15.50     88.00      4.57      5.10
 1861.8000   1861.80     23.71     74.00   2629.00     48.69   -999.25    150.41      0.00     16.17     88.00      4.55      5.15
 1862.0000   1862.00     23.51     74.00   2585.00     55.68   -999.25    155.11      0.00     17.34     88.00      4.54      5.20
 1862.2000   1862.20     23.31     74.00   2580.00     38.44   -999.25    159.81      0.00     18.00     88.00      4.67      5.12
 1862.4000   1862.40     23.11     74.00   2577.00     46.76   -999.25    164.51      0.00     17.35     88.00      4.80      5.04
 1862.6000   1862.60     22.91     74.00   2573.00     35.18   -999.25    169.21      0.00     16.70     88.00      4.94      4.96
 1862.8000   1862.80     22.71     74.00   2569.00     48.11   -999.25    173.91      0.00     16.04     88.00      5.08      4.87
 1863.0000   1863.00     22.51     74.00   2564.00     40.82   -999.25    178.61      0.00     15.91     88.00      5.21      4.79
 1863.2000   1863.20     22.31     74.00   2577.00     44.80   -999.25    182.29      0.00     15.86     88.00      5.35      4.71
 1863.4000   1863.40     22.11     74.00   2568.00     59.95   -999.25    185.54      0.00     14.72     88.00      5.49      4.63
 1863.6000   1863.60     21.91     74.00   2565.00     37.75   -999.25    188.78      0.00     13.83     87.95      5.58      4.66
 1863.8000   1863.80     21.71     74.00   2541.01     37.08   -999.25    192.03      0.00     18.07     86.78      5.64      4.75
 1864.0000   1864.00     21.52     74.00   2542.00     45.24   -999.25    195.27      0.20     25.98     86.00      5.71      4.84
 1864.2000   1864.20     21.31     73.00   2544.99     46.77   -999.25    198.52      0.81     41.53     86.00      5.77      4.93
 1864.4000   1864.40     21.11     74.00   2494.01     36.31   -999.25    201.77      0.58     40.35     86.84      5.84      5.02
 1864.6000   1864.60     20.91     74.00   2462.00     38.21   -999.25    206.58      0.00     31.57     88.08      5.90      5.11
 1864.8000   1864.80     20.71     74.00   2449.00     35.86   -999.25    212.34      0.00     27.48     89.39      5.97      5.20
 1865.0000   1865.00     20.51     75.00   2394.00     41.58   -999.25    218.11      0.00     26.88     89.34      6.07      5.23
 1865.2000   1865.20     20.31     75.00   2354.97     36.09   -999.25    223.88      0.00     29.38     88.09      6.16      5.25
 1865.4000   1865.40     20.12     75.00   2240.01     59.12   -999.25    229.64      0.00     27.64     88.00      6.26      5.28
