~Version Information
VERS.                       2.00: SCHLUMBERGER LAS - Version 2.00
WRAP.                         NO: One line per depth step
~Well Information
STRT.M                 2124.0000: Start Depth
STOP.M                 3002.8000: End Depth
STEP.M                    0.2000:  
NULL.                    -999.25:  
COMP.                    Bapetco: COMPANY
WELL.                BED 3 C18-N: WELL
FLD .                      BED 3: FLD
SRVC.               Schlumberger: SERVICE COMPANY
LOC .                           : LOCATION
DATE.                  07-Jul-20: LOG DATE
UWI .                  20EGP0553: API NUMBER
~Curve Information
DEPT.M                          : MWD Tool Measurement Depth
BDEP.M                          : Bit Depth
KPOSI.M                          : Kelly Position (Raw)
HKL .KLBF                       : Hook Load
SPP .PSI                        : Standpipe Pressure
ROP .M/HR                       : Rate of Penetration (MWD Depth Ave.)
PSPD.M/MIN                      : Instantaneous Pipe Speed
VIBC.CPS                        : Vibration Count
SSL_H.                           : Stick Slip Level from HDS1
SSS_H.                           : Stick Slip Percentage from HDS1
RPM_H.                           : Average RPM from HDS1
VIBXYH.                           : Vibration XY
VIBZH.                           : Vibration Z
#     DEPT      BDEP     KPOSI       HKL       SPP       ROP      PSPD      VIBC     SSL_H     SSS_H     RPM_H    VIBXYH     VIBZH
#        M         M         M      KLBF       PSI      M/HR     M/MIN       CPS                                                  
#
# Relog Number     0         0         0         0         0         0         0         0         0         0         0         0
#
~ASCII Data
# ...
 2644.8000   2644.80     15.87     82.00   2920.00     62.99   -999.25      6.00      0.00     31.25     94.00      1.77      0.60
 2645.0000   2645.00     15.66     82.00   2929.00     60.09   -999.25      6.00      0.00     35.05     94.00      1.79      0.60
 2645.2000   2645.20     15.46     82.00   2934.99     43.32   -999.25      6.00      0.00     36.61     94.67      1.81      0.60
 2645.4000   2645.40     15.26     82.00   2911.02     58.14   -999.25      6.00      0.00     37.24     95.62      1.82      0.60
 2645.6000   2645.60     15.06     82.00   2949.98     59.03   -999.25      6.00      0.00     36.03     96.00      1.84      0.60
 2645.8000   2645.80     14.87     82.00   2954.00     61.30   -999.25      6.00      0.00     33.55     96.00      1.86      0.60
 2646.0000   2646.00     14.67     83.00   2952.00     61.36   -999.25      6.00      0.00     31.06     96.00      1.87      0.60
 2646.2000   2646.20     14.46     82.00   2936.00     62.48   -999.25      6.00      0.00     28.26     96.00      1.89      0.60
 2646.4000   2646.40     14.26     83.00   2922.00     62.96   -999.25      6.00      0.00     25.47     96.00      1.89      0.62
 2646.6000   2646.60     14.07     83.00   2926.00     62.48   -999.25      6.00      0.00     23.96     96.00      1.89      0.64
 2646.8000   2646.80     13.86     83.00   2899.01     62.96   -999.25      6.00      0.00     23.96     96.00      1.89      0.66
 2647.0000   2647.00     13.66     83.00   2908.00     62.84   -999.25      6.00      0.00     23.96     96.00      1.89      0.68
 2647.2000   2647.20     13.47     83.00   2913.00     62.80   -999.25      6.00      0.00     21.95     96.00      1.89      0.70
 2647.4000   2647.40     13.26     83.00   2909.00     62.84   -999.25      6.00      0.00     19.56     96.00      1.89      0.72
 2647.6000   2647.60     13.06     83.00   2899.00     62.72   -999.25      6.00      0.00     17.71     96.00      1.89      0.74
 2647.8000   2647.80     12.87     83.00   2905.00     62.84   -999.25      6.13      0.00     17.71     96.00      1.89      0.76
 2648.0000   2648.00     12.66     83.00   2897.00     62.80   -999.25      6.33      0.00     17.71     96.00      1.89      0.78
 2648.2000   2648.20     12.47     83.00   2892.00     62.72   -999.25      6.52      0.00     18.44     96.00      1.89      0.79
 2648.4000   2648.40     12.27     83.00   2887.01     62.84   -999.25      6.71      0.00     19.63     96.00      1.89      0.80
 2648.6000   2648.60     12.06     83.00   2905.99     62.96   -999.25      6.90      0.00     20.82     96.00      1.89      0.80
 2648.8000   2648.80     11.87     83.00   2905.00     62.70   -999.25      7.09      0.00     23.99     96.00      1.89      0.80
 2649.0000   2649.00     11.66     83.00   2897.00     62.96   -999.25      7.28      0.00     27.18     96.00      1.89      0.80
 2649.2000   2649.20     11.46     82.00   2918.00     61.96   -999.25      7.47      0.00     28.19     95.71      1.89      0.80
 2649.4000   2649.40     11.26     82.00   2905.01     62.96   -999.25      7.66      0.00     25.56     94.94      1.89      0.80
 2649.6000   2649.60     11.06     82.00   2921.99     62.70   -999.25      7.86      0.00     22.94     94.18      1.89      0.80
 2649.8000   2649.80     10.86     82.00   2905.00     62.72   -999.25      8.15      0.00     24.17     95.18      1.89      0.80
 2650.0000   2650.00     10.66     83.00   2897.00     62.84   -999.25      8.78      0.00     26.55     96.70      1.89      0.80
 2650.2000   2650.20     10.46     83.00   2897.99     62.96   -999.25      9.40      0.00     27.47     97.62      1.89      0.80
 2650.4000   2650.40     10.27     82.00   2875.01     51.59   -999.25     10.03      0.00     20.14     95.08      1.89      0.87
 2650.6000   2650.60     10.06     81.00   2892.99     23.68   -999.25     10.65      0.00     19.31     94.00      1.92      1.12
 2650.8000   2650.80      9.87     81.00   2923.99     30.43   -999.25     11.28      0.00     22.42     94.00      1.94      1.37
 2651.0000   2651.00      9.66     80.00   2948.00     31.30   -999.25     11.90      0.00     24.32     94.00      1.96      1.62
 2651.2000   2651.20      9.46     80.00   2950.00     31.41   -999.25     12.37      0.00     22.61     94.00      1.99      1.86
 2651.4000   2651.40      9.26     80.00   2950.00     27.25   -999.25     12.81      0.00     30.46     94.00      2.01      2.01
 2651.6000   2651.60      9.07     80.00   2959.00     32.40   -999.25     13.25      0.39     41.02     93.23      2.03      2.03
 2651.8000   2651.80      8.86     80.00   3039.98     44.99   -999.25     13.69      1.00     52.11     92.01      2.05      2.06
 2652.0000   2652.00      8.66     81.00   3013.00     55.12   -999.25     14.12      0.60     44.85     95.22      2.07      2.08
 2652.2000   2652.20      8.47     82.00   2910.00     62.80   -999.25     14.56      0.19     37.49     98.46      2.09      2.11
 2652.4000   2652.40      8.26     82.00   2913.99     62.62   -999.25     14.99      0.00     35.17     99.60      2.11      2.13
 2652.6000   2652.60      8.06     82.00   2890.01     61.76   -999.25     13.85      0.00     37.40     98.83      2.13      2.15
 2652.8000   2652.80      7.86     82.00   2880.00     62.99   -999.25     12.70      0.00     39.63     98.06      2.15      2.18
 2653.0000   2653.00      7.67     81.00   2815.00     56.40   -999.25     11.55      0.00     31.85     96.75      2.16      2.20
 2653.2000   2653.20      7.46     80.00   2830.01     22.05   -999.25     10.40      0.00     21.38     94.87      2.13      2.16
 2653.4000   2653.40      7.26     80.00   2880.02     20.53   -999.25      9.26      0.97     55.87     94.00      2.10      2.12
 2653.6000   2653.60      7.07     82.00   2913.98     48.39   -999.25      8.11      1.70     87.34     94.30      2.07      2.09
 2653.8000   2653.80      6.87     83.00   2877.01     48.16   -999.25      8.56      0.70     56.27     95.30      2.04      2.05
 2654.0000   2654.00      6.66     83.00   2891.00     48.40   -999.25      9.18      0.00     34.23     96.00      2.01      2.01
 2654.2000   2654.20      6.46     83.00   2881.00     48.05   -999.25      9.81      0.00     33.70     96.00      2.00      1.88
 2654.4000   2654.40      6.26     83.00   2874.00     48.28   -999.25     10.43      0.00     31.93     95.72      2.00      1.68
 2654.6000   2654.60      6.06     83.00   2866.00     48.40   -999.25     11.05      0.00     27.00     94.72      2.00      1.48
 2654.8000   2654.80      5.86     83.00   2889.99     48.16   -999.25     11.67      0.00     23.62     94.27      2.00      1.28
 2655.0000   2655.00      5.66     83.00   2886.00     48.40   -999.25     12.29      0.00     24.41     95.27      2.00      1.08
 2655.2000   2655.20      5.46     82.00   2920.00     48.28   -999.25     12.91      0.00     24.45     96.00      2.00      0.88
 2655.4000   2655.40      5.27     83.00   2923.99     48.16   -999.25     12.79      0.00     22.38     96.00      2.00      0.68
 2655.6000   2655.60      5.07     83.00   2913.01     48.28   -999.25     12.54      0.00     23.04     96.00      2.00      0.48
 2655.8000   2655.80      4.86     83.00   2890.01     48.40   -999.25     12.29      0.00     31.87     96.00      2.01      0.44
 2656.0000   2656.00      4.66     83.00   2884.00     48.16   -999.25     12.04      0.00     37.02     96.00      2.03      0.52
 2656.2000   2656.20      4.46     83.00   2857.00     48.40   -999.25     11.79      0.00     30.82     96.00      2.05      0.59
 2656.4000   2656.40      4.26     83.00   2862.00     48.05   -999.25     11.54      0.00     25.68     96.00      2.07      0.67
 2656.6000   2656.60      4.06     83.00   2860.00     48.16   -999.25     11.29      0.00     24.13     96.00      2.09      0.74
 2656.8000   2656.80      3.86     83.00   2860.00     48.40   -999.25     11.05      0.00     24.13     95.78      2.11      0.82
 2657.0000   2657.00      3.66     83.00   2844.00     48.16   -999.25     10.39      0.00     29.67     94.79      2.13      0.89
