~Version Information
VERS.                       2.00: SCHLUMBERGER LAS - Version 2.00
WRAP.                         NO: One line per depth step
~Well Information
STRT.M                 1134.0000: Start Depth
STOP.M                 2124.0000: End Depth
STEP.M                    0.2000:  
NULL.                    -999.25:  
COMP.                    Bapetco: COMPANY
WELL.                BED 3 C18-N: WELL
FLD .                      BED 3: FLD
SRVC.               Schlumberger: SERVICE COMPANY
LOC .                           : LOCATION
DATE.                  05-Jul-20: LOG DATE
UWI .                  20EGP0553: API NUMBER
~Curve Information
DEPT.M                          : MWD Tool Measurement Depth
BDEP.M                          : Bit Depth
KPOSI.M                          : Kelly Position (Raw)
HKL .KLBF                       : Hook Load
SPP .PSI                        : Standpipe Pressure
ROP .M/HR                       : Rate of Penetration (MWD Depth Ave.)
PSPD.M/MIN                      : Instantaneous Pipe Speed
VIBC.CPS                        : Vibration Count
SSL_H.                           : Stick Slip Level from HDS1
SSS_H.                           : Stick Slip Percentage from HDS1
RPM_H.                           : Average RPM from HDS1
VIBXYH.                           : Vibration XY
VIBZH.                           : Vibration Z
#     DEPT      BDEP     KPOSI       HKL       SPP       ROP      PSPD      VIBC     SSL_H     SSS_H     RPM_H    VIBXYH     VIBZH
#        M         M         M      KLBF       PSI      M/HR     M/MIN       CPS                                                  
#
# Relog Number     0         0         0         0         0         0         0         0         0         0         0         0
#
~ASCII Data
# ...
 1667.2000   1667.20     16.95     71.00   2664.00     39.07   -999.25    117.35      0.00     12.06    100.00      5.17      4.94
 1667.4000   1667.40     16.75     71.00   2649.00     41.67   -999.25    114.41      0.00     12.84    100.00      5.01      5.00
 1667.6000   1667.60     16.56     71.00   2668.00     39.48   -999.25    111.47      0.00     15.08     99.88      5.04      4.91
 1667.8000   1667.80     16.36     71.00   2642.01     37.17   -999.25    108.53      0.00     15.90     98.64      5.08      4.81
 1668.0000   1668.00     16.15     71.00   2655.00     32.28   -999.25    108.97      0.00     16.89     98.68      5.12      4.71
 1668.2000   1668.20     15.96     71.00   2655.00     39.58   -999.25    113.08      0.00     18.05     99.92      5.16      4.61
 1668.4000   1668.40     15.75     71.00   2639.00     32.38   -999.25    117.19      0.00     18.94     98.64      5.20      4.51
 1668.6000   1668.60     15.56     71.00   2651.00     42.96   -999.25    121.30      0.00     19.08     98.00      5.24      4.42
 1668.8000   1668.80     15.36     71.00   2673.99     39.78   -999.25    125.41      0.00     18.45     98.00      5.30      4.38
 1669.0000   1669.00     15.15     71.00   2661.00     38.79   -999.25    129.51      0.00     18.74     99.18      5.37      4.35
 1669.2000   1669.20     14.95     71.00   2676.00     36.78   -999.25    130.76      0.00     17.77     99.57      5.43      4.32
 1669.4000   1669.40     14.75     71.00   2674.00     42.70   -999.25    127.62      0.00     14.64     98.48      5.49      4.29
 1669.6000   1669.60     14.55     71.00   2677.00     42.73   -999.25    124.47      0.00     15.94     98.00      5.55      4.26
 1669.8000   1669.80     14.35     71.00   2680.00     42.83   -999.25    121.33      0.00     20.72     98.00      5.62      4.23
 1670.0000   1670.00     14.15     71.00   2690.00     44.03   -999.25    118.19      0.00     22.31     98.00      5.68      4.20
 1670.2000   1670.20     13.95     71.00   2695.00     47.23   -999.25    115.05      0.00     23.34     98.00      5.62      4.22
 1670.4000   1670.40     13.75     71.00   2676.00     45.86   -999.25    111.91      0.00     20.32     98.97      5.54      4.25
 1670.6000   1670.60     13.56     71.00   2679.00     41.67   -999.25    108.86      0.00     16.97     99.92      5.46      4.28
 1670.8000   1670.80     13.36     71.00   2672.00     43.07   -999.25    107.01      0.00     16.60     98.81      5.38      4.31
 1671.0000   1671.00     13.16     71.00   2654.00     46.50   -999.25    105.17      0.00     16.71     98.28      5.31      4.33
 1671.2000   1671.20     12.96     71.00   2675.00     42.16   -999.25    103.32      0.00     18.09     99.32      5.23      4.36
 1671.4000   1671.40     12.75     71.00   2662.00     45.90   -999.25    101.47      0.00     18.45     99.59      5.15      4.39
 1671.6000   1671.60     12.55     71.00   2647.00     36.41   -999.25     99.62      0.00     16.84     98.38      5.14      4.47
 1671.8000   1671.80     12.35     71.00   2661.00     36.87   -999.25     97.77      0.00     16.75     98.00      5.16      4.59
 1672.0000   1672.00     12.15     71.00   2654.00     46.01   -999.25     96.18      0.00     17.30     98.04      5.18      4.70
 1672.2000   1672.20     11.96     71.00   2679.00     44.52   -999.25    100.73      0.00     16.06     99.10      5.20      4.82
 1672.4000   1672.40     11.76     71.00   2667.00     44.36   -999.25    105.27      0.00     15.51    100.00      5.23      4.93
 1672.6000   1672.60     11.56     71.00   2675.00     45.76   -999.25    109.82      0.00     18.90    100.00      5.25      5.05
 1672.8000   1672.80     11.35     71.00   2655.00     35.62   -999.25    114.36      0.00     19.86    100.00      5.27      5.17
 1673.0000   1673.00     11.15     71.00   2669.00     49.72   -999.25    118.91      0.00     16.84    100.00      5.28      5.10
 1673.2000   1673.20     10.96     71.00   2680.00     37.49   -999.25    123.45      0.00     14.74    100.00      5.27      4.96
 1673.4000   1673.40     10.76     71.00   2668.00     42.11   -999.25    128.00      0.00     13.00    100.00      5.27      4.83
 1673.6000   1673.60     10.56     71.00   2657.00     51.15   -999.25    128.43      0.00     15.27     98.96      5.26      4.69
 1673.8000   1673.80     10.36     71.00   2696.99     38.53   -999.25    128.86      0.00     17.07     98.09      5.26      4.55
 1674.0000   1674.00     10.16     71.00   2684.00     49.07   -999.25    129.29      0.00     13.60     99.18      5.26      4.41
 1674.2000   1674.20      9.96     71.00   2681.99     36.87   -999.25    129.72      0.00     11.00    100.00      5.25      4.27
 1674.4000   1674.40      9.76     71.00   2655.00     42.01   -999.25    130.15      0.00     11.00    100.00      5.23      4.19
 1674.6000   1674.60      9.56     71.00   2664.00     44.66   -999.25    130.58      0.00     11.00    100.00      5.19      4.16
 1674.8000   1674.80      9.35     71.00   2688.99     34.38   -999.25    131.00      0.00     11.03    100.00      5.15      4.13
 1675.0000   1675.00      9.15     71.00   2668.00     44.13   -999.25    131.14      0.00     12.73    100.00      5.11      4.10
 1675.2000   1675.20      8.96     71.00   2677.00     42.47   -999.25    131.28      0.00     13.52     99.75      5.07      4.07
 1675.4000   1675.40      8.76     71.00   2695.00     53.88   -999.25    131.41      0.00     11.58     98.72      5.03      4.04
 1675.6000   1675.60      8.55     71.00   2691.00     42.27   -999.25    131.55      0.00     10.69     98.00      4.99      4.02
 1675.8000   1675.80      8.36     71.00   2672.00     41.88   -999.25    131.69      0.00     12.37     98.00      5.04      4.06
 1676.0000   1676.00      8.16     71.00   2685.00     41.90   -999.25    131.83      0.00     13.73     98.53      5.20      4.19
 1676.2000   1676.20      7.96     71.00   2657.99     42.55   -999.25    131.96      0.00     14.73     99.68      5.37      4.32
 1676.4000   1676.40      7.75     71.00   2631.00     40.45   -999.25    132.94      0.00     12.92     99.13      5.53      4.45
 1676.6000   1676.60      7.55     71.00   2654.00     40.43   -999.25    134.24      0.00     10.47     98.09      5.69      4.58
 1676.8000   1676.80      7.35     71.00   2618.01     29.27   -999.25    135.54      0.00     15.41     99.80      5.86      4.71
 1677.0000   1677.00      7.16     71.00   2602.00     27.45   -999.25    136.84      0.00     16.92     98.64      5.94      4.80
 1677.2000   1677.20      6.96     71.00   2613.00     30.76   -999.25    138.14      0.00     14.84     98.94      5.86      4.80
 1677.4000   1677.40      6.76     71.00   2624.00     28.62   -999.25    136.74      0.00     11.66    100.00      5.78      4.80
 1677.6000   1677.60      6.56     71.00   2617.00     27.76   -999.25    130.11      0.00     11.86     99.48      5.70      4.80
 1677.8000   1677.80      6.35     71.00   2652.99     29.48   -999.25    123.47      0.00     14.44     98.07      5.62      4.80
 1678.0000   1678.00      6.15     71.00   2653.00     34.84   -999.25    116.84      0.00     17.55     99.39      5.64      4.82
 1678.2000   1678.20      5.95     71.00   2653.00     40.41   -999.25    110.20      0.00     16.43     99.34      5.90      4.89
 1678.4000   1678.40      5.76     71.00   2671.00     38.02   -999.25    103.56      0.00     11.63     98.10      6.16      4.95
 1678.6000   1678.60      5.56     71.00   2636.99     35.16   -999.25    103.30      0.00     15.33     99.21      6.42      5.02
 1678.8000   1678.80      5.35     71.00   2542.02     36.83   -999.25    103.64      0.00     19.63    100.00      6.68      5.08
 1679.0000   1679.00      5.15     71.00   2385.00     39.11   -999.25    103.97      0.00     23.66    100.00      6.94      5.14
 1679.2000   1679.20      4.95     71.00   2322.02     35.84   -999.25    104.30      0.00     21.93     98.85      7.09      5.19
 1679.4000   1679.40      4.75     71.00   2417.99     34.93   -999.25    104.63      0.00     18.31     98.00      6.59      5.13
