~Version Information
VERS.                       2.00: SCHLUMBERGER LAS - Version 2.00
WRAP.                         NO: One line per depth step
~Well Information
STRT.M                 2124.0000: Start Depth
STOP.M                 3002.8000: End Depth
STEP.M                    0.2000:  
NULL.                    -999.25:  
COMP.                    Bapetco: COMPANY
WELL.                BED 3 C18-N: WELL
FLD .                      BED 3: FLD
SRVC.               Schlumberger: SERVICE COMPANY
LOC .                           : LOCATION
DATE.                  07-Jul-20: LOG DATE
UWI .                  20EGP0553: API NUMBER
~Curve Information
DEPT.M                          : MWD Tool Measurement Depth
BDEP.M                          : Bit Depth
KPOSI.M                          : Kelly Position (Raw)
HKL .KLBF                       : Hook Load
SPP .PSI                        : Standpipe Pressure
ROP .M/HR                       : Rate of Penetration (MWD Depth Ave.)
PSPD.M/MIN                      : Instantaneous Pipe Speed
VIBC.CPS                        : Vibration Count
SSL_H.                           : Stick Slip Level from HDS1
SSS_H.                           : Stick Slip Percentage from HDS1
RPM_H.                           : Average RPM from HDS1
VIBXYH.                           : Vibration XY
VIBZH.                           : Vibration Z
#     DEPT      BDEP     KPOSI       HKL       SPP       ROP      PSPD      VIBC     SSL_H     SSS_H     RPM_H    VIBXYH     VIBZH
#        M         M         M      KLBF       PSI      M/HR     M/MIN       CPS                                                  
#
# Relog Number     0         0         0         0         0         0         0         0         0         0         0         0
#
~ASCII Data
# ...
 2880.4000   2880.40      8.39     84.00   3041.96     52.67   -999.25      4.53      0.00     34.49     97.52      1.82      1.30
 2880.6000   2880.60      8.19     85.00   2951.04     53.86   -999.25      4.65      0.00     29.21    103.80      1.84      1.37
 2880.8000   2880.80      7.98     85.00   2886.02     53.75   -999.25      4.76      0.00     25.80    104.26      1.85      1.41
 2881.0000   2881.00      7.78     86.00   2845.00     53.68   -999.25      4.87      0.00     23.41    101.58      1.85      1.44
 2881.2000   2881.20      7.59     86.00   2868.00     52.06   -999.25      4.99      0.00     24.29    100.00      1.86      1.47
 2881.4000   2881.40      7.39     86.00   2881.00     41.41   -999.25      5.26      0.00     29.85    100.00      1.86      1.49
 2881.6000   2881.60      7.18     86.00   2880.00     41.26   -999.25      5.55      0.00     30.04     99.29      1.87      1.52
 2881.8000   2881.80      6.99     85.00   2879.00     41.36   -999.25      5.84      0.00     26.86     98.12      1.88      1.55
 2882.0000   2882.00      6.78     85.00   2880.00     41.26   -999.25      6.14      0.52     39.23     98.00      1.88      1.57
 2882.2000   2882.20      6.59     85.00   2869.00     41.31   -999.25      6.43      1.00     51.51     98.40      1.88      1.60
 2882.4000   2882.40      6.38     84.00   2864.03     40.48   -999.25      6.72      1.00     54.41    100.79      1.80      1.60
 2882.6000   2882.60      6.19     84.00   2917.97     39.23   -999.25      6.98      1.00     62.97    100.29      1.72      1.60
 2882.8000   2882.80      5.99     83.00   2917.00     25.43   -999.25      6.62      1.00     64.79     98.00      1.64      1.60
 2883.0000   2883.00      5.79     83.00   2960.00     28.44   -999.25      6.25      1.00     46.96     98.35      1.55      1.60
 2883.2000   2883.20      5.59     84.00   3021.99     41.21   -999.25      5.88      1.00     53.89    100.67      1.47      1.60
 2883.4000   2883.40      5.38     84.00   2977.03     41.26   -999.25      5.52      1.55     72.06     99.80      1.43      1.59
 2883.6000   2883.60      5.19     83.00   3028.97     38.96   -999.25      5.15      2.83    105.12     94.69      1.49      1.55
 2883.8000   2883.80      4.99     83.00   2975.01     18.94   -999.25      4.79      1.00     54.15     98.15      1.55      1.51
 2884.0000   2884.00      4.79     84.00   3044.00     30.69   -999.25      4.44      1.00     66.30     99.77      1.61      1.47
 2884.2000   2884.20      4.59     85.00   2954.99     41.36   -999.25      4.08      1.00     55.47     99.00      1.66      1.44
 2884.4000   2884.40      4.38     85.00   2923.99     41.26   -999.25      3.73      1.00     43.42     98.16      1.72      1.40
 2884.6000   2884.60      4.18     86.00   2894.01     41.31   -999.25      3.37      1.00     47.57     99.32      1.74      1.36
 2884.8000   2884.80      3.99     85.00   2867.01     41.46   -999.25      3.02      1.00     47.99     99.04      1.76      1.33
 2885.0000   2885.00      3.78     85.00   2860.00     41.26   -999.25      3.18      1.00     43.15     96.71      1.79      1.29
 2885.2000   2885.20      3.59     83.00   2936.02     36.12   -999.25      3.38      1.00     56.52     96.00      1.81      1.26
 2885.4000   2885.40      3.38     83.00   3017.04     23.05   -999.25      3.57      1.47     74.35     95.06      1.83      1.22
 2885.6000   2885.60      3.19     83.00   3096.96     29.99   -999.25      3.76      1.68     81.12     93.36      1.84      1.20
 2885.8000   2885.80      2.99     83.00   3146.99     30.87   -999.25      3.95      1.00     76.67     92.90      1.82      1.20
 2886.0000   2886.00      2.79     83.00   3124.00     33.98   -999.25      4.24      1.00     72.81     99.79      1.80      1.20
 2886.2000   2886.20      2.59     84.00   3039.00     40.92   -999.25      4.56      1.40     76.79    100.41      1.78      1.20
 2886.4000   2886.40      2.39     84.00   3027.99     41.26   -999.25      4.89      1.98     84.46     98.07      1.76      1.20
 2886.6000   2886.60      2.19     85.00   3000.01     41.26   -999.25      5.21      2.00     85.99     99.13      1.74      1.20
 2886.8000   2886.80      1.99     85.00   2980.00     41.36   -999.25      5.53      1.67     78.06    100.00      1.74      1.20
 2887.0000   2887.00      1.79     84.00   2963.00     40.38   -999.25      5.86      0.34     42.30    100.00      1.91      1.20
 2887.2000   2887.20     29.80     88.00   2801.02      3.43   -999.25      5.80      0.00     18.25     96.27      1.89      1.16
 2887.4000   2887.40     29.60     86.00   2880.03     25.83   -999.25      5.45      0.00     24.25     94.00      1.73      1.08
 2887.6000   2887.60     29.40     85.00   2942.97     23.36   -999.25      5.10      0.00     30.48     95.39      1.57      1.00
 2887.8000   2887.80     29.24     85.00   2959.10     24.12   -999.25      5.00      0.00     31.06     96.35      1.57      1.03
 2888.0000   2888.00     29.23     85.00   2975.22     24.89   -999.25      5.00      0.00     30.78     96.83      1.59      1.06
 2888.2000   2888.20     29.22     85.00   2991.33     25.65   -999.25      5.00      0.00     30.51     97.32      1.60      1.09
 2888.4000   2888.40     29.22     85.00   3007.44     26.41   -999.25      5.00      0.00     30.23     97.81      1.61      1.12
 2888.6000   2888.60     29.21     85.00   3023.56     27.18   -999.25      5.00      0.00     29.96     98.29      1.62      1.15
 2888.8000   2888.80     29.20     85.00   3039.67     27.94   -999.25      5.00      0.00     29.69     98.78      1.63      1.18
 2889.0000   2889.00     29.19     85.00   3055.78     28.70   -999.25      5.00      0.00     29.41     99.27      1.65      1.21
 2889.2000   2889.20     29.18     85.00   3071.90     29.47   -999.25      5.00      0.00     29.14     99.75      1.66      1.24
 2889.4000   2889.40     29.11     85.00   3088.02     30.24   -999.25      5.00      0.33     44.40     96.08      1.67      1.28
 2889.6000   2889.60     28.90     84.00   3127.98     42.02   -999.25      5.00      0.99     75.52     88.16      1.68      1.31
 2889.8000   2889.80     28.70     85.00   3082.01     48.63   -999.25      5.00      1.00     62.10     95.28      1.70      1.34
 2890.0000   2890.00     28.50     84.00   3048.00     34.74   -999.25      5.00      1.00     55.25    100.00      1.71      1.37
 2890.2000   2890.20     28.31     85.00   3116.99     44.17   -999.25      5.00      1.00     61.42    100.00      1.72      1.40
 2890.4000   2890.40     28.11     85.00   3090.00     50.98   -999.25      5.07      1.00     66.85     99.17      1.71      1.33
 2890.6000   2890.60     27.91     85.00   3082.00     47.87   -999.25      5.19      1.00     71.25     97.21      1.69      1.26
 2890.8000   2890.80     27.70     85.00   3099.00     46.75   -999.25      5.31      1.19     76.30     96.78      1.68      1.18
 2891.0000   2891.00     27.50     85.00   3065.00     49.28   -999.25      5.43      1.70     82.36     98.79      1.67      1.11
 2891.2000   2891.20     27.30     85.00   3079.00     49.22   -999.25      5.55      1.58     76.14     99.15      1.66      1.04
 2891.4000   2891.40     27.10     85.00   3094.99     44.00   -999.25      5.67      0.51     51.44     97.02      1.64      0.97
 2891.6000   2891.60     26.90     85.00   3070.01     48.28   -999.25      5.79      0.00     37.77     96.84      1.63      0.89
 2891.8000   2891.80     26.70     85.00   3047.01     60.06   -999.25      5.91      0.00     34.29     98.47      1.62      0.82
 2892.0000   2892.00     26.50     85.00   3049.00     60.35   -999.25      5.97      0.00     30.98    100.00      1.62      0.85
 2892.2000   2892.20     26.30     85.00   3041.00     60.86   -999.25      5.84      0.00     30.55    100.00      1.64      0.93
 2892.4000   2892.40     26.11     85.00   3023.02     58.81   -999.25      5.71      0.00     30.12    100.00      1.65      1.00
 2892.6000   2892.60     25.90     85.00   3057.98     48.81   -999.25      5.58      0.59     47.74     99.41      1.66      1.08
