~Version Information
VERS.                       2.00: SCHLUMBERGER LAS - Version 2.00
WRAP.                         NO: One line per depth step
~Well Information
STRT.M                 1134.0000: Start Depth
STOP.M                 2124.0000: End Depth
STEP.M                    0.2000:  
NULL.                    -999.25:  
COMP.                    Bapetco: COMPANY
WELL.                BED 3 C18-N: WELL
FLD .                      BED 3: FLD
SRVC.               Schlumberger: SERVICE COMPANY
LOC .                           : LOCATION
DATE.                  05-Jul-20: LOG DATE
UWI .                  20EGP0553: API NUMBER
~Curve Information
DEPT.M                          : MWD Tool Measurement Depth
BDEP.M                          : Bit Depth
KPOSI.M                          : Kelly Position (Raw)
HKL .KLBF                       : Hook Load
SPP .PSI                        : Standpipe Pressure
ROP .M/HR                       : Rate of Penetration (MWD Depth Ave.)
PSPD.M/MIN                      : Instantaneous Pipe Speed
VIBC.CPS                        : Vibration Count
SSL_H.                           : Stick Slip Level from HDS1
SSS_H.                           : Stick Slip Percentage from HDS1
RPM_H.                           : Average RPM from HDS1
VIBXYH.                           : Vibration XY
VIBZH.                           : Vibration Z
#     DEPT      BDEP     KPOSI       HKL       SPP       ROP      PSPD      VIBC     SSL_H     SSS_H     RPM_H    VIBXYH     VIBZH
#        M         M         M      KLBF       PSI      M/HR     M/MIN       CPS                                                  
#
# Relog Number     0         0         0         0         0         0         0         0         0         0         0         0
#
~ASCII Data
# ...
 1729.2000   1729.20     12.49     71.00   2723.00     42.50   -999.25    173.17      0.00     10.20     98.00      6.82      3.84
 1729.4000   1729.40     12.28     71.00   2717.00     44.88   -999.25    171.73      0.00     10.51     98.00      6.81      3.71
 1729.6000   1729.60     12.09     71.00   2725.00     38.12   -999.25    170.29      0.00     11.13     98.00      6.80      3.60
 1729.8000   1729.80     11.88     71.00   2717.00     49.48   -999.25    168.85      0.00     11.68     98.00      6.79      3.48
 1730.0000   1730.00     11.69     71.00   2701.00     42.01   -999.25    167.40      0.00     12.22     98.00      6.79      3.37
 1730.2000   1730.20     11.49     71.00   2726.00     33.08   -999.25    165.96      0.00     10.96     98.00      6.78      3.25
 1730.4000   1730.40     11.29     71.00   2718.00     46.61   -999.25    164.52      0.00     12.53     98.00      6.78      3.14
 1730.6000   1730.60     11.08     71.00   2769.00     42.73   -999.25    165.50      0.00     17.87     98.00      6.77      3.02
 1730.8000   1730.80     10.88     71.00   2759.00     48.40   -999.25    167.86      0.00     18.44     98.00      6.74      3.00
 1731.0000   1731.00     10.68     71.00   2736.00     45.38   -999.25    170.21      0.00     14.68     98.00      6.70      3.00
 1731.2000   1731.20     10.48     71.00   2707.00     35.16   -999.25    172.56      0.00     11.57     98.00      6.67      3.00
 1731.4000   1731.40     10.28     70.00   2712.00     37.28   -999.25    174.91      0.00      9.27     98.00      6.63      3.00
 1731.6000   1731.60     10.08     70.00   2724.00     44.49   -999.25    177.26      0.00      9.95     98.00      6.60      3.00
 1731.8000   1731.80      9.89     71.00   2727.00     37.31   -999.25    179.61      0.00      9.84     98.00      6.56      3.00
 1732.0000   1732.00      9.69     71.00   2709.00     39.14   -999.25    177.33      0.00      9.27     98.00      6.53      3.00
 1732.2000   1732.20      9.48     71.00   2633.97     51.16   -999.25    174.13      0.00      9.61     98.00      6.55      2.97
 1732.4000   1732.40      9.28     71.00   2523.01     48.96   -999.25    170.93      0.00     10.13     98.00      6.57      2.95
 1732.6000   1732.60      9.08     71.00   2418.00     41.54   -999.25    167.72      0.00     10.68     98.00      6.59      2.92
 1732.8000   1732.80      8.89     71.00   2430.00     43.17   -999.25    164.52      0.00     11.22     98.00      6.61      2.90
 1733.0000   1733.00      8.68     71.00   2476.00     49.37   -999.25    161.32      0.00     11.22     98.00      6.63      2.87
 1733.2000   1733.20      8.48     71.00   2576.02     52.02   -999.25    158.12      0.00     11.22     98.00      6.65      2.85
 1733.4000   1733.40      8.29     72.00   2650.99     53.86   -999.25    155.06      0.00     11.22     98.00      6.66      2.83
 1733.6000   1733.60      8.08     72.00   2747.00     53.88   -999.25    157.55      0.00     11.22     98.00      6.68      2.80
 1733.8000   1733.80      7.89     71.00   2744.00     53.58   -999.25    160.03      0.00     12.18     98.00      6.62      2.75
 1734.0000   1734.00      7.69     72.00   2782.00     52.80   -999.25    162.52      0.00     13.58     98.00      6.56      2.69
 1734.2000   1734.20      7.48     72.00   2767.00     44.55   -999.25    165.00      0.00     13.70     98.00      6.49      2.64
 1734.4000   1734.40      7.28     72.00   2766.00     41.24   -999.25    167.49      0.00     12.50     98.00      6.43      2.59
 1734.6000   1734.60      7.08     72.00   2767.00     41.44   -999.25    169.97      0.00     11.31     98.00      6.37      2.53
 1734.8000   1734.80      6.89     72.00   2750.00     41.16   -999.25    172.46      0.00     10.16     98.00      6.30      2.48
 1735.0000   1735.00      6.68     72.00   2746.00     41.26   -999.25    174.50      0.00      9.57     98.00      6.24      2.42
 1735.2000   1735.20      6.49     72.00   2740.00     41.43   -999.25    175.81      0.00      8.97     98.00      6.25      2.43
 1735.4000   1735.40      6.29     72.00   2750.00     41.26   -999.25    177.13      0.00      8.38     98.00      6.30      2.49
 1735.6000   1735.60      6.09     72.00   2764.00     41.33   -999.25    178.44      0.00      7.42     98.00      6.36      2.55
 1735.8000   1735.80      5.89     72.00   2766.00     41.33   -999.25    179.76      0.00      6.24     98.00      6.42      2.61
 1736.0000   1736.00      5.69     72.00   2760.00     40.67   -999.25    181.07      0.00      8.29     98.00      6.47      2.67
 1736.2000   1736.20      5.48     71.00   2787.00     40.35   -999.25    182.38      0.00     10.33     98.00      6.53      2.73
 1736.4000   1736.40      5.28     71.00   2779.00     41.16   -999.25    178.37      0.00     10.93     98.00      6.59      2.78
 1736.6000   1736.60      5.09     71.00   2770.00     39.89   -999.25    169.65      0.00     13.29     95.99      6.45      2.82
 1736.8000   1736.80      4.89     71.00   2786.00     35.84   -999.25    160.93      0.00     17.27     92.12      6.25      2.86
 1737.0000   1737.00      4.68     71.00   2788.00     35.13   -999.25    152.20      0.00     13.28     89.28      6.05      2.89
 1737.2000   1737.20      4.48     71.00   2782.00     34.07   -999.25    143.48      0.00     12.21     88.00      5.85      2.93
 1737.4000   1737.40      4.29     71.00   2782.00     34.76   -999.25    134.76      0.00     13.64     88.00      5.65      2.96
 1737.6000   1737.60      4.08     71.00   2793.00     34.86   -999.25    129.72      0.00     13.64     88.00      5.45      2.99
 1737.8000   1737.80      3.89     71.00   2768.01     40.99   -999.25    129.12      0.00     13.54     88.67      5.42      2.98
 1738.0000   1738.00      3.68     71.00   2774.00     39.82   -999.25    128.52      0.00     13.35     89.87      5.45      2.95
 1738.2000   1738.20      3.48     71.00   2790.00     39.55   -999.25    127.91      0.00     13.50     88.92      5.47      2.92
 1738.4000   1738.40      3.29     71.00   2787.00     40.06   -999.25    127.31      0.00     12.83     88.00      5.49      2.89
 1738.6000   1738.60      3.09     72.00   2781.99     41.26   -999.25    126.70      0.00      9.51     88.00      5.51      2.86
 1738.8000   1738.80      2.89     72.00   2741.01     41.09   -999.25    126.10      0.00      9.27     88.62      5.54      2.83
 1739.0000   1739.00      2.68     72.00   2749.00     41.33   -999.25    132.54      0.00     11.76     89.78      5.56      2.81
 1739.2000   1739.20      2.49     71.00   2754.00     40.50   -999.25    140.33      0.00     12.35     89.04      5.60      2.98
 1739.4000   1739.40      2.28     72.00   2762.00     41.15   -999.25    148.12      0.00     12.50     88.00      5.63      3.16
 1739.6000   1739.60      2.09     72.00   2759.00     41.26   -999.25    155.91      0.00     12.50     88.00      5.67      3.33
 1739.8000   1739.80      1.89     72.00   2726.01     41.33   -999.25    162.58      0.00     12.74     88.57      5.70      3.51
 1740.0000   1740.00      1.69     73.00   2614.50     26.67   -999.25    157.89      0.00     13.33     90.00      5.74      3.68
 1740.2000   1740.20     29.73     74.00   2503.01     12.02   -999.25    153.20      0.00     19.89     80.44      5.77      3.86
 1740.4000   1740.40     29.53     73.00   2558.99     38.51   -999.25    148.51      0.00     19.56     81.80      5.81      4.03
 1740.6000   1740.60     29.33     72.00   2612.00     32.10   -999.25    143.83      0.00     18.19     82.00      5.84      4.21
 1740.8000   1740.80     29.12     72.00   2644.99     47.58   -999.25    139.14      0.00     17.01     82.32      5.88      4.39
 1741.0000   1741.00     28.93     72.00   2644.00     39.36   -999.25    135.29      0.00     16.78     83.44      5.85      4.34
 1741.2000   1741.20     28.72     71.00   2658.00     51.43   -999.25    133.16      0.00     17.42     84.00      5.81      4.27
 1741.4000   1741.40     28.61     71.00   2662.33     83.62   -999.25    131.02      0.00     18.91     84.00      5.78      4.20
