~Version Information
VERS.                       2.00: SCHLUMBERGER LAS - Version 2.00
WRAP.                         NO: One line per depth step
~Well Information
STRT.M                 1134.0000: Start Depth
STOP.M                 2124.0000: End Depth
STEP.M                    0.2000:  
NULL.                    -999.25:  
COMP.                    Bapetco: COMPANY
WELL.                BED 3 C18-N: WELL
FLD .                      BED 3: FLD
SRVC.               Schlumberger: SERVICE COMPANY
LOC .                           : LOCATION
DATE.                  05-Jul-20: LOG DATE
UWI .                  20EGP0553: API NUMBER
~Curve Information
DEPT.M                          : MWD Tool Measurement Depth
BDEP.M                          : Bit Depth
KPOSI.M                          : Kelly Position (Raw)
HKL .KLBF                       : Hook Load
SPP .PSI                        : Standpipe Pressure
ROP .M/HR                       : Rate of Penetration (MWD Depth Ave.)
PSPD.M/MIN                      : Instantaneous Pipe Speed
VIBC.CPS                        : Vibration Count
SSL_H.                           : Stick Slip Level from HDS1
SSS_H.                           : Stick Slip Percentage from HDS1
RPM_H.                           : Average RPM from HDS1
VIBXYH.                           : Vibration XY
VIBZH.                           : Vibration Z
#     DEPT      BDEP     KPOSI       HKL       SPP       ROP      PSPD      VIBC     SSL_H     SSS_H     RPM_H    VIBXYH     VIBZH
#        M         M         M      KLBF       PSI      M/HR     M/MIN       CPS                                                  
#
# Relog Number     0         0         0         0         0         0         0         0         0         0         0         0
#
~ASCII Data
# ...
 1989.6000   1989.60      9.11     74.00   2320.00     41.99   -999.25     53.46      0.00     15.81     90.00      3.84      2.71
 1989.8000   1989.80      8.91     74.00   2318.00     48.34   -999.25     52.45      0.00     14.48     90.00      3.84      2.68
 1990.0000   1990.00      8.71     74.00   2313.00     39.48   -999.25     51.45      0.00     13.38     90.00      3.84      2.66
 1990.2000   1990.20      8.52     73.00   2312.00     39.79   -999.25     50.44      0.00     14.02     90.00      3.84      2.63
 1990.4000   1990.40      8.32     74.00   2308.00     42.01   -999.25     49.44      0.00     14.69     90.00      3.84      2.60
 1990.6000   1990.60      8.12     74.00   2303.00     38.44   -999.25     48.43      0.00     15.41     90.00      3.84      2.60
 1990.8000   1990.80      7.92     74.00   2282.01     46.14   -999.25     47.43      0.00     15.70     89.20      3.84      2.60
 1991.0000   1991.00      7.71     74.00   2266.00     42.60   -999.25     47.09      0.00     15.88     88.17      3.84      2.60
 1991.2000   1991.20      7.51     74.00   2211.99     43.89   -999.25     47.24      0.00     18.44     88.97      3.84      2.60
 1991.4000   1991.40      7.31     74.00   2153.01     39.89   -999.25     47.39      0.00     20.83     90.00      3.84      2.60
 1991.6000   1991.60      7.11     74.00   2126.01     33.11   -999.25     47.54      0.00     18.60     90.00      3.84      2.60
 1991.8000   1991.80      6.91     74.00   2177.99     41.06   -999.25     47.69      0.00     22.16     89.26      3.85      2.62
 1992.0000   1992.00      6.71     74.00   2265.00     40.64   -999.25     47.84      0.00     29.07     88.08      3.90      2.68
 1992.2000   1992.20      6.51     74.00   2311.02     41.26   -999.25     47.99      0.00     30.70     84.81      3.94      2.73
 1992.4000   1992.40      6.32     74.00   2396.99     43.84   -999.25     46.25      0.32     42.20     80.27      3.98      2.79
 1992.6000   1992.60      6.11     74.00   2466.99     37.70   -999.25     44.31      2.13    100.51     70.66      4.02      2.85
 1992.8000   1992.80      5.91     75.00   2386.02     44.05   -999.25     42.37      2.09     96.42     73.29      4.06      2.91
 1993.0000   1993.00      5.72     75.00   2311.00     40.23   -999.25     40.43      0.32     33.54     87.45      4.10      2.97
 1993.2000   1993.20      5.52     75.00   2317.00     40.06   -999.25     38.49      0.00     23.29     90.00      4.07      2.96
 1993.4000   1993.40      5.31     75.00   2309.00     40.41   -999.25     36.54      0.00     24.73     90.00      3.95      2.85
 1993.6000   1993.60      5.11     75.00   2291.00     35.44   -999.25     34.97      0.00     27.09     90.00      3.83      2.75
 1993.8000   1993.80      4.91     74.00   2272.00     30.76   -999.25     34.80      0.00     22.19     90.00      3.70      2.65
 1994.0000   1994.00      4.71     75.00   2264.00     31.82   -999.25     34.63      0.00     17.35     88.86      3.58      2.55
 1994.2000   1994.20      4.51     74.00   2309.00     37.95   -999.25     34.47      0.00     16.39     86.30      3.46      2.44
 1994.4000   1994.40      4.31     74.00   2319.00     38.12   -999.25     34.30      0.00     24.73     88.12      3.40      2.42
 1994.6000   1994.60      4.11     74.00   2346.00     43.66   -999.25     34.13      0.00     31.11     90.00      3.40      2.45
 1994.8000   1994.80      3.91     74.00   2326.00     39.48   -999.25     34.03      0.00     25.92     90.00      3.40      2.48
 1995.0000   1995.00      3.71     74.00   2318.00     41.62   -999.25     34.18      0.00     23.97     90.00      3.40      2.51
 1995.2000   1995.20      3.51     74.00   2314.99     41.33   -999.25     34.34      0.00     25.26     90.00      3.40      2.54
 1995.4000   1995.40      3.31     74.00   2291.00     40.46   -999.25     34.49      0.00     26.61     90.00      3.40      2.57
 1995.6000   1995.60      3.11     74.00   2286.00     38.90   -999.25     34.65      0.00     26.78     90.00      3.39      2.59
 1995.8000   1995.80      2.92     74.00   2284.00     37.08   -999.25     34.80      0.00     19.61     90.00      3.38      2.57
 1996.0000   1996.00      2.71     74.00   2286.00     35.66   -999.25     34.96      0.00     19.05     89.22      3.35      2.54
 1996.2000   1996.20      2.51     74.00   2295.00     36.98   -999.25     36.11      0.00     22.76     88.10      3.33      2.51
 1996.4000   1996.40      2.32     74.00   2298.00     40.50   -999.25     37.62      0.00     23.11     89.28      3.31      2.47
 1996.6000   1996.60      2.12     74.00   2290.00     38.02   -999.25     39.14      0.00     21.44     90.00      3.28      2.44
 1996.8000   1996.80      1.92     74.00   2273.00     32.72   -999.25     40.65      0.00     16.69     90.00      3.26      2.41
 1997.0000   1997.00      1.72     74.00   2255.00     34.19   -999.25     42.17      0.00     18.33     90.00      3.33      2.40
 1997.2000   1997.20     29.84     77.00   2066.02     11.22   -999.25     43.68      0.00     22.12     87.66      3.43      2.40
 1997.4000   1997.40     29.65     76.00   2147.99     35.30   -999.25     45.20      0.00     26.01     86.00      3.53      2.40
 1997.6000   1997.60     29.45     75.00   2225.00     35.71   -999.25     46.71      0.00     29.00     86.00      3.63      2.40
 1997.8000   1997.80     29.25     75.00   2236.00     28.72   -999.25     47.73      0.00     19.16     88.93      3.73      2.40
 1998.0000   1998.00     29.05     75.00   2212.00     31.64   -999.25     45.94      0.00     17.76     90.00      3.83      2.40
 1998.2000   1998.20     28.85     75.00   2236.00     31.32   -999.25     44.15      0.00     21.01     90.00      3.79      2.40
 1998.4000   1998.40     28.64     75.00   2237.00     28.71   -999.25     42.35      0.00     22.33     89.68      3.74      2.40
 1998.6000   1998.60     28.45     75.00   2246.01     31.07   -999.25     40.56      0.00     17.55     88.16      3.68      2.40
 1998.8000   1998.80     28.25     74.00   2292.99     29.10   -999.25     39.18      0.00     20.15     88.00      3.63      2.40
 1999.0000   1999.00     28.05     74.00   2318.00     34.57   -999.25     40.55      0.00     21.08     88.00      3.57      2.40
 1999.2000   1999.20     27.85     75.00   2343.01     32.18   -999.25     41.93      0.00     21.96     88.00      3.58      2.43
 1999.4000   1999.40     27.64     74.00   2398.99     35.31   -999.25     43.31      0.00     27.16     88.00      3.59      2.46
 1999.6000   1999.60     27.45     74.00   2417.00     44.20   -999.25     44.68      0.00     20.97     88.99      3.61      2.49
 1999.8000   1999.80     27.25     75.00   2397.00     32.90   -999.25     46.06      0.00     14.36     89.71      3.63      2.52
 2000.0000   2000.00     27.05     74.00   2405.00     36.01   -999.25     46.91      0.00     19.04     88.40      3.65      2.55
 2000.2000   2000.20     26.84     74.00   2425.00     43.48   -999.25     46.62      0.00     18.65     88.73      3.67      2.59
 2000.4000   2000.40     26.65     74.00   2436.00     44.02   -999.25     46.33      0.00     16.09     89.78      3.67      2.60
 2000.6000   2000.60     26.45     75.00   2433.00     46.14   -999.25     46.04      0.00     19.54     90.00      3.65      2.60
 2000.8000   2000.80     26.24     74.00   2445.00     40.45   -999.25     45.74      0.00     24.36     89.98      3.62      2.60
 2001.0000   2001.00     26.05     74.00   2456.00     38.21   -999.25     45.45      0.00     20.50     88.74      3.60      2.60
 2001.2000   2001.20     25.85     74.00   2473.00     40.20   -999.25     45.16      0.00     19.96     88.48      3.58      2.60
 2001.4000   2001.40     25.65     74.00   2475.00     37.53   -999.25     46.56      0.00     24.42     89.69      3.56      2.60
 2001.6000   2001.60     25.45     75.00   2453.00     38.84   -999.25     50.11      0.00     29.21     89.14      3.54      2.60
 2001.8000   2001.80     25.25     74.00   2446.00     47.74   -999.25     53.67      0.00     34.08     88.01      3.64      2.60
