~Version Information
VERS.                       2.00: SCHLUMBERGER LAS - Version 2.00
WRAP.                         NO: One line per depth step
~Well Information
STRT.M                 2124.0000: Start Depth
STOP.M                 3002.8000: End Depth
STEP.M                    0.2000:  
NULL.                    -999.25:  
COMP.                    Bapetco: COMPANY
WELL.                BED 3 C18-N: WELL
FLD .                      BED 3: FLD
SRVC.               Schlumberger: SERVICE COMPANY
LOC .                           : LOCATION
DATE.                  07-Jul-20: LOG DATE
UWI .                  20EGP0553: API NUMBER
~Curve Information
DEPT.M                          : MWD Tool Measurement Depth
BDEP.M                          : Bit Depth
KPOSI.M                          : Kelly Position (Raw)
HKL .KLBF                       : Hook Load
SPP .PSI                        : Standpipe Pressure
ROP .M/HR                       : Rate of Penetration (MWD Depth Ave.)
PSPD.M/MIN                      : Instantaneous Pipe Speed
VIBC.CPS                        : Vibration Count
SSL_H.                           : Stick Slip Level from HDS1
SSS_H.                           : Stick Slip Percentage from HDS1
RPM_H.                           : Average RPM from HDS1
VIBXYH.                           : Vibration XY
VIBZH.                           : Vibration Z
#     DEPT      BDEP     KPOSI       HKL       SPP       ROP      PSPD      VIBC     SSL_H     SSS_H     RPM_H    VIBXYH     VIBZH
#        M         M         M      KLBF       PSI      M/HR     M/MIN       CPS                                                  
#
# Relog Number     0         0         0         0         0         0         0         0         0         0         0         0
#
~ASCII Data
# ...
 2186.0000   2186.00     14.02     76.00   2757.00     40.48   -999.25     56.00      0.00     15.44     92.00      4.12      2.81
 2186.2000   2186.20     13.82     76.00   2741.99     41.67   -999.25     56.00      0.00     13.81     93.50      4.04      2.75
 2186.4000   2186.40     13.61     76.00   2721.02     42.81   -999.25     56.00      0.00     11.68     95.76      3.95      2.69
 2186.6000   2186.60     13.42     76.00   2757.98     38.02   -999.25     56.00      0.00     11.60     94.85      3.87      2.63
 2186.8000   2186.80     13.22     76.00   2732.01     42.34   -999.25     56.00      0.00     11.07     94.00      3.84      2.63
 2187.0000   2187.00     13.01     76.00   2735.00     41.21   -999.25     56.13      0.00      9.20     94.00      3.88      2.69
 2187.2000   2187.20     12.81     76.00   2729.00     37.62   -999.25     56.28      0.00      9.94     94.72      3.92      2.75
 2187.4000   2187.40     12.61     76.00   2732.00     43.29   -999.25     56.43      0.00     12.21     95.85      3.97      2.81
 2187.6000   2187.60     12.42     76.00   2726.00     35.53   -999.25     56.59      0.00     12.36     97.08      4.01      2.87
 2187.8000   2187.80     12.22     77.00   2693.01     46.00   -999.25     56.74      0.00     11.78     97.68      4.05      2.93
 2188.0000   2188.00     12.01     76.00   2673.00     34.56   -999.25     56.89      0.00     10.05     96.47      4.09      2.99
 2188.2000   2188.20     11.82     76.00   2659.00     43.40   -999.25     56.69      0.00      9.86     96.00      4.11      2.95
 2188.4000   2188.40     11.61     76.00   2671.00     29.70   -999.25     55.43      0.00     10.80     96.00      4.11      2.89
 2188.6000   2188.60     11.41     76.00   2681.00     35.62   -999.25     54.18      0.00     12.17     96.00      4.11      2.83
 2188.8000   2188.80     11.22     76.00   2721.99     44.38   -999.25     52.93      0.00     16.24     93.40      4.12      2.76
 2189.0000   2189.00     11.02     76.00   2760.00     37.19   -999.25     51.68      0.00     21.01     90.05      4.12      2.70
 2189.2000   2189.20     10.81     76.00   2717.00     39.36   -999.25     50.43      0.00     14.25     93.51      4.12      2.64
 2189.4000   2189.40     10.61     76.00   2731.00     49.03   -999.25     49.18      0.00      9.91     96.00      4.14      2.59
 2189.6000   2189.60     10.41     76.00   2727.00     35.83   -999.25     53.02      0.00     11.82     96.00      4.17      2.56
 2189.8000   2189.80     10.22     76.00   2721.00     41.41   -999.25     57.69      0.00     15.42     96.74      4.21      2.53
 2190.0000   2190.00     10.01     76.00   2744.00     43.79   -999.25     62.37      0.00     19.94     97.88      4.25      2.51
 2190.2000   2190.20      9.81     76.00   2709.99     49.10   -999.25     67.04      0.00     16.97     97.00      4.28      2.48
 2190.4000   2190.40      9.61     76.00   2664.95     38.68   -999.25     71.71      0.00     13.76     96.00      4.32      2.45
 2190.6000   2190.60      9.42     76.00   2553.05     52.03   -999.25     76.39      0.00     15.90     96.00      4.36      2.42
 2190.8000   2190.80      9.21     76.00   2474.02     42.81   -999.25     81.06      0.00     17.43     96.16      4.39      2.40
 2191.0000   2191.00      9.01     76.00   2446.00     49.34   -999.25     80.53      0.00     15.58     97.25      4.43      2.40
 2191.2000   2191.20      8.82     76.00   2468.00     42.24   -999.25     76.32      0.00     14.77     97.72      4.47      2.40
 2191.4000   2191.40      8.61     76.00   2484.06     51.73   -999.25     72.10      0.00     16.35     96.79      4.51      2.40
 2191.6000   2191.60      8.42     76.00   2601.94     51.16   -999.25     67.88      0.00     17.79     96.00      4.55      2.40
 2191.8000   2191.80      8.21     76.00   2688.98     43.89   -999.25     63.66      0.00     18.35     96.00      4.59      2.40
 2192.0000   2192.00      8.02     76.00   2751.00     42.14   -999.25     59.45      0.00     18.45     96.00      4.62      2.40
 2192.2000   2192.20      7.82     76.00   2754.00     49.86   -999.25     55.23      0.00     17.42     96.00      4.66      2.40
 2192.4000   2192.40      7.62     76.00   2751.00     51.58   -999.25     51.01      0.00     16.85     96.00      4.66      2.37
 2192.6000   2192.60      7.42     76.00   2741.00     35.69   -999.25     49.87      0.00     17.49     96.00      4.59      2.31
 2192.8000   2192.80      7.21     76.00   2761.00     40.23   -999.25     49.71      0.00     17.56     96.83      4.53      2.24
 2193.0000   2193.00      7.02     76.00   2765.00     36.78   -999.25     49.54      0.00     17.12     97.90      4.46      2.18
 2193.2000   2193.20      6.81     76.00   2721.00     33.82   -999.25     49.38      0.00     13.80     96.53      4.40      2.11
 2193.4000   2193.40      6.62     76.00   2720.01     36.91   -999.25     49.21      0.00     12.50     96.00      4.33      2.05
 2193.6000   2193.60      6.42     76.00   2741.99     35.64   -999.25     49.05      0.00     12.59     96.00      4.27      2.02
 2193.8000   2193.80      6.22     76.00   2737.00     33.36   -999.25     48.53      0.00     13.31     96.00      4.22      2.08
 2194.0000   2194.00      6.01     76.00   2728.00     40.27   -999.25     47.89      0.00     14.27     96.82      4.17      2.14
 2194.2000   2194.20      5.81     76.00   2709.00     38.90   -999.25     47.25      0.00     15.37     97.97      4.12      2.21
 2194.4000   2194.40      5.61     76.00   2711.00     37.89   -999.25     46.60      0.00     17.68     96.62      4.07      2.27
 2194.6000   2194.60      5.41     76.00   2706.00     35.20   -999.25     45.96      0.00     15.96     96.00      4.02      2.34
 2194.8000   2194.80      5.21     76.00   2694.00     38.30   -999.25     45.32      0.00     10.76     96.00      3.97      2.40
 2195.0000   2195.00      5.01     76.00   2704.00     38.12   -999.25     45.34      0.00     10.91     97.23      3.94      2.44
 2195.2000   2195.20      4.82     76.00   2671.00     33.04   -999.25     46.02      0.00     11.56     97.46      3.92      2.47
 2195.4000   2195.40      4.62     76.00   2678.01     40.09   -999.25     46.70      0.00     12.39     96.17      3.89      2.50
 2195.6000   2195.60      4.42     76.00   2691.99     30.95   -999.25     47.38      0.00      9.71     96.00      3.87      2.54
 2195.8000   2195.80      4.22     76.00   2656.01     36.96   -999.25     48.06      0.00      9.49     96.00      3.84      2.57
 2196.0000   2196.00      4.01     76.00   2655.00     35.24   -999.25     48.74      0.00     11.54     96.00      3.82      2.60
 2196.2000   2196.20      3.81     76.00   2611.00     36.83   -999.25     48.90      0.00     14.23     96.00      3.79      2.56
 2196.4000   2196.40      3.62     76.00   2607.00     35.64   -999.25     48.73      0.00     15.62     96.00      3.77      2.53
 2196.6000   2196.60      3.41     76.00   2612.00     34.78   -999.25     48.57      0.00     15.54     96.00      3.75      2.50
 2196.8000   2196.80      3.21     76.00   2600.00     37.79   -999.25     48.40      0.00     14.14     96.00      3.72      2.46
 2197.0000   2197.00      3.02     76.00   2580.00     34.85   -999.25     48.23      0.00     13.92     96.00      3.70      2.43
 2197.2000   2197.20      2.81     76.00   2579.00     34.78   -999.25     48.07      0.00     14.55     96.00      3.67      2.40
 2197.4000   2197.40      2.61     76.00   2576.00     41.15   -999.25     48.53      0.00     11.93     96.00      3.65      2.36
 2197.6000   2197.60      2.41     76.00   2586.00     37.75   -999.25     49.43      0.00     11.60     96.00      3.63      2.33
 2197.8000   2197.80      2.22     76.00   2609.99     35.20   -999.25     50.33      0.00     14.37     96.00      3.61      2.30
 2198.0000   2198.00      2.01     76.00   2571.00     33.69   -999.25     51.22      0.95     54.82     99.79      3.58      2.26
 2198.2000   2198.20      1.82     76.00   2596.98     38.90   -999.25     52.12      0.00     12.28     96.58      3.56      2.23
