~Version Information
VERS.                       2.00: SCHLUMBERGER LAS - Version 2.00
WRAP.                         NO: One line per depth step
~Well Information
STRT.M                 1134.0000: Start Depth
STOP.M                 2124.0000: End Depth
STEP.M                    0.2000:  
NULL.                    -999.25:  
COMP.                    Bapetco: COMPANY
WELL.                BED 3 C18-N: WELL
FLD .                      BED 3: FLD
SRVC.               Schlumberger: SERVICE COMPANY
LOC .                           : LOCATION
DATE.                  05-Jul-20: LOG DATE
UWI .                  20EGP0553: API NUMBER
~Curve Information
DEPT.M                          : MWD Tool Measurement Depth
BDEP.M                          : Bit Depth
KPOSI.M                          : Kelly Position (Raw)
HKL .KLBF                       : Hook Load
SPP .PSI                        : Standpipe Pressure
ROP .M/HR                       : Rate of Penetration (MWD Depth Ave.)
PSPD.M/MIN                      : Instantaneous Pipe Speed
VIBC.CPS                        : Vibration Count
SSL_H.                           : Stick Slip Level from HDS1
SSS_H.                           : Stick Slip Percentage from HDS1
RPM_H.                           : Average RPM from HDS1
VIBXYH.                           : Vibration XY
VIBZH.                           : Vibration Z
#     DEPT      BDEP     KPOSI       HKL       SPP       ROP      PSPD      VIBC     SSL_H     SSS_H     RPM_H    VIBXYH     VIBZH
#        M         M         M      KLBF       PSI      M/HR     M/MIN       CPS                                                  
#
# Relog Number     0         0         0         0         0         0         0         0         0         0         0         0
#
~ASCII Data
# ...
 1915.2000   1915.20     26.31     74.00   2264.00     39.72   -999.25     80.39      0.00     27.00     88.00      4.55      2.57
 1915.4000   1915.40     26.11     74.00   2253.00     39.82   -999.25     79.18      0.00     23.73     88.58      4.53      2.51
 1915.6000   1915.60     25.92     74.00   2234.00     27.80   -999.25     77.96      0.00     17.71     89.95      4.51      2.44
 1915.8000   1915.80     25.72     73.00   2249.00     39.60   -999.25     77.10      0.00     15.73     88.64      4.49      2.37
 1916.0000   1916.00     25.51     73.00   2277.00     38.21   -999.25     77.60      0.00     14.77     88.00      4.47      2.30
 1916.2000   1916.20     25.31     73.00   2271.00     35.73   -999.25     78.11      0.00     14.77     88.00      4.45      2.24
 1916.4000   1916.40     25.12     73.00   2257.00     34.05   -999.25     78.61      0.00     15.30     89.34      4.44      2.20
 1916.6000   1916.60     24.92     73.00   2247.00     30.05   -999.25     79.11      0.00     15.68     89.32      4.43      2.20
 1916.8000   1916.80     24.71     74.00   2228.00     46.77   -999.25     79.61      0.00     15.91     88.00      4.43      2.20
 1917.0000   1917.00     24.51     73.00   2256.00     36.68   -999.25     79.40      0.00     15.91     88.00      4.42      2.20
 1917.2000   1917.20     24.32     73.00   2292.00     44.66   -999.25     76.77      0.00     16.61     88.00      4.42      2.20
 1917.4000   1917.40     24.11     73.00   2294.00     38.67   -999.25     74.14      0.00     18.60     88.00      4.41      2.20
 1917.6000   1917.60     23.91     73.00   2277.00     39.97   -999.25     71.51      0.00     21.15     88.71      4.40      2.20
 1917.8000   1917.80     23.71     73.00   2291.00     46.22   -999.25     68.88      0.00     24.02     89.84      4.37      2.23
 1918.0000   1918.00     23.51     73.00   2309.00     45.07   -999.25     66.26      0.00     20.67     90.00      4.33      2.25
 1918.2000   1918.20     23.31     73.00   2318.00     43.56   -999.25     63.63      0.00     16.99     90.00      4.29      2.28
 1918.4000   1918.40     23.11     73.00   2326.00     50.10   -999.25     61.00      0.00     20.33     90.00      4.25      2.31
 1918.6000   1918.60     22.91     74.00   2321.00     47.74   -999.25     59.32      0.00     23.41     89.90      4.22      2.33
 1918.8000   1918.80     22.72     73.00   2308.00     51.38   -999.25     57.63      0.00     24.24     88.91      4.18      2.36
 1919.0000   1919.00     22.51     73.00   2320.00     40.20   -999.25     55.95      0.00     25.05     88.00      4.14      2.39
 1919.2000   1919.20     22.31     74.00   2313.00     47.93   -999.25     54.26      0.00     25.65     88.00      4.09      2.35
 1919.4000   1919.40     22.11     73.00   2324.00     44.44   -999.25     52.57      0.00     26.08     88.21      4.02      2.25
 1919.6000   1919.60     21.91     73.00   2310.00     51.82   -999.25     50.89      0.00     25.75     89.34      3.94      2.15
 1919.8000   1919.80     21.72     73.00   2316.00     41.26   -999.25     49.20      0.00     24.74     89.59      3.87      2.05
 1920.0000   1920.00     21.52     73.00   2310.00     47.20   -999.25     47.72      0.00     22.77     88.60      3.79      1.95
 1920.2000   1920.20     21.31     73.00   2333.00     46.91   -999.25     46.74      0.00     22.56     88.38      3.72      1.85
 1920.4000   1920.40     21.12     73.00   2345.00     48.11   -999.25     45.77      0.00     24.99     89.34      3.65      1.75
 1920.6000   1920.60     20.91     73.00   2340.00     55.34   -999.25     44.79      0.00     26.07     89.70      3.57      1.64
 1920.8000   1920.80     20.72     73.00   2342.00     46.44   -999.25     43.81      0.00     24.13     88.71      3.58      1.60
 1921.0000   1921.00     20.51     73.00   2341.00     47.49   -999.25     42.83      0.00     22.81     88.25      3.65      1.60
 1921.2000   1921.20     20.32     73.00   2349.00     54.66   -999.25     41.86      0.00     23.08     89.18      3.72      1.60
 1921.4000   1921.40     20.12     73.00   2350.00     51.67   -999.25     40.88      0.00     23.79     90.00      3.79      1.60
 1921.6000   1921.60     19.92     73.00   2339.00     42.82   -999.25     39.94      0.00     27.73     90.00      3.87      1.60
 1921.8000   1921.80     19.71     73.00   2344.00     48.03   -999.25     39.30      0.00     30.10     89.84      3.94      1.60
 1922.0000   1922.00     19.52     73.00   2331.00     48.25   -999.25     38.66      0.00     23.11     88.76      4.01      1.60
 1922.2000   1922.20     19.32     73.00   2339.00     47.34   -999.25     38.02      0.00     19.70     88.28      4.08      1.60
 1922.4000   1922.40     19.11     73.00   2348.00     51.35   -999.25     37.38      0.00     24.83     89.24      4.09      1.60
 1922.6000   1922.60     18.91     73.00   2349.00     45.08   -999.25     36.74      0.00     29.77     90.00      4.02      1.60
 1922.8000   1922.80     18.71     73.00   2348.00     51.35   -999.25     36.10      0.00     33.97     90.00      3.94      1.60
 1923.0000   1923.00     18.51     73.00   2344.00     43.12   -999.25     35.46      0.00     35.18     89.64      3.87      1.60
 1923.2000   1923.20     18.32     73.00   2346.00     44.00   -999.25     34.97      0.00     31.00     88.63      3.80      1.60
 1923.4000   1923.40     18.11     73.00   2353.00     52.20   -999.25     34.84      0.00     27.79     88.00      3.72      1.60
 1923.6000   1923.60     17.91     73.00   2355.00     46.58   -999.25     34.72      0.00     26.17     88.00      3.65      1.60
 1923.8000   1923.80     17.71     73.00   2357.00     51.86   -999.25     34.60      0.00     25.46     88.00      3.58      1.60
 1924.0000   1924.00     17.51     73.00   2384.00     52.33   -999.25     34.47      0.00     27.13     88.00      3.52      1.62
 1924.2000   1924.20     17.31     73.00   2378.00     46.76   -999.25     34.35      0.00     27.96     88.23      3.49      1.67
 1924.4000   1924.40     17.11     73.00   2383.00     50.38   -999.25     34.23      0.00     26.02     89.20      3.45      1.72
 1924.6000   1924.60     16.91     73.00   2392.00     48.02   -999.25     34.11      0.00     24.69     89.82      3.42      1.77
 1924.8000   1924.80     16.71     73.00   2369.01     48.28   -999.25     34.02      0.00     26.10     88.83      3.38      1.82
 1925.0000   1925.00     16.52     73.00   2382.00     50.01   -999.25     34.15      0.00     27.11     88.19      3.35      1.87
 1925.2000   1925.20     16.31     73.00   2385.99     44.14   -999.25     34.29      0.00     26.17     89.29      3.31      1.92
 1925.4000   1925.40     16.11     73.00   2354.00     42.14   -999.25     34.42      0.00     26.19     90.00      3.27      1.97
 1925.6000   1925.60     15.91     73.00   2373.00     51.16   -999.25     34.55      0.00     27.95     90.00      3.29      1.97
 1925.8000   1925.80     15.71     73.00   2363.00     40.01   -999.25     34.69      0.00     27.62     89.49      3.37      1.92
 1926.0000   1926.00     15.51     73.00   2349.00     43.29   -999.25     34.82      0.00     24.91     88.42      3.45      1.86
 1926.2000   1926.20     15.31     73.00   2366.00     45.02   -999.25     34.95      0.00     23.32     88.66      3.53      1.80
 1926.4000   1926.40     15.11     73.00   2363.00     46.01   -999.25     35.89      0.00     22.43     89.75      3.61      1.75
 1926.6000   1926.60     14.91     74.00   2334.00     36.32   -999.25     37.24      0.00     19.31     89.08      3.69      1.69
 1926.8000   1926.80     14.71     73.00   2323.00     44.63   -999.25     38.59      0.00     16.44     88.12      3.77      1.63
 1927.0000   1927.00     14.52     73.00   2346.00     34.59   -999.25     39.95      0.00     21.70     89.36      3.82      1.61
 1927.2000   1927.20     14.31     73.00   2336.00     49.60   -999.25     41.30      0.00     25.27     89.41      3.83      1.64
 1927.4000   1927.40     14.11     73.00   2353.00     34.12   -999.25     42.65      0.00     27.01     88.18      3.83      1.67
