~Version Information
VERS.                       2.00: SCHLUMBERGER LAS - Version 2.00
WRAP.                         NO: One line per depth step
~Well Information
STRT.M                 2124.0000: Start Depth
STOP.M                 3002.8000: End Depth
STEP.M                    0.2000:  
NULL.                    -999.25:  
COMP.                    Bapetco: COMPANY
WELL.                BED 3 C18-N: WELL
FLD .                      BED 3: FLD
SRVC.               Schlumberger: SERVICE COMPANY
LOC .                           : LOCATION
DATE.                  07-Jul-20: LOG DATE
UWI .                  20EGP0553: API NUMBER
~Curve Information
DEPT.M                          : MWD Tool Measurement Depth
BDEP.M                          : Bit Depth
KPOSI.M                          : Kelly Position (Raw)
HKL .KLBF                       : Hook Load
SPP .PSI                        : Standpipe Pressure
ROP .M/HR                       : Rate of Penetration (MWD Depth Ave.)
PSPD.M/MIN                      : Instantaneous Pipe Speed
VIBC.CPS                        : Vibration Count
SSL_H.                           : Stick Slip Level from HDS1
SSS_H.                           : Stick Slip Percentage from HDS1
RPM_H.                           : Average RPM from HDS1
VIBXYH.                           : Vibration XY
VIBZH.                           : Vibration Z
#     DEPT      BDEP     KPOSI       HKL       SPP       ROP      PSPD      VIBC     SSL_H     SSS_H     RPM_H    VIBXYH     VIBZH
#        M         M         M      KLBF       PSI      M/HR     M/MIN       CPS                                                  
#
# Relog Number     0         0         0         0         0         0         0         0         0         0         0         0
#
~ASCII Data
# ...
 2235.6000   2235.60     20.84     78.00   2665.02     36.52   -999.25    163.78      0.00     16.45     98.84      7.22      2.91
 2235.8000   2235.80     20.64     77.00   2649.00     36.45   -999.25    156.92      0.00     17.52     99.80      7.22      3.05
 2236.0000   2236.00     20.44     78.00   2635.00     32.68   -999.25    150.06      0.00     14.20     98.39      7.22      3.19
 2236.2000   2236.20     20.24     77.00   2653.01     39.13   -999.25    143.20      0.00     13.11     99.17      7.22      3.33
 2236.4000   2236.40     20.03     77.00   2682.01     28.69   -999.25    136.34      0.00     12.07    100.00      7.22      3.47
 2236.6000   2236.60     19.84     77.00   2704.99     38.81   -999.25    129.48      0.00     10.17    100.00      7.20      3.60
 2236.8000   2236.80     19.64     77.00   2722.00     34.06   -999.25    129.02      0.00      8.80     98.70      6.92      3.64
 2237.0000   2237.00     19.44     77.00   2732.00     38.16   -999.25    130.33      0.00      8.46     98.71      6.64      3.67
 2237.2000   2237.20     19.24     76.00   2753.00     28.53   -999.25    131.63      0.00      9.04    100.00      6.35      3.70
 2237.4000   2237.40     19.04     76.00   2738.01     41.93   -999.25    132.93      0.00      9.67    100.00      6.07      3.74
 2237.6000   2237.60     18.84     76.00   2748.99     40.43   -999.25    134.23      0.00     10.29    100.00      5.79      3.77
 2237.8000   2237.80     18.64     77.00   2753.00     37.15   -999.25    135.54      0.00     10.87    100.00      5.52      3.80
 2238.0000   2238.00     18.44     77.00   2739.00     42.96   -999.25    134.41      0.00     12.73    100.93      5.56      3.83
 2238.2000   2238.20     18.24     76.00   2749.00     37.98   -999.25    131.95      0.00     14.55    101.88      5.60      3.86
 2238.4000   2238.40     18.04     76.00   2741.01     41.93   -999.25    129.48      0.00     13.01    100.75      5.65      3.89
 2238.6000   2238.60     17.84     76.00   2754.99     46.09   -999.25    127.02      0.00     11.78    100.00      5.69      3.92
 2238.8000   2238.80     17.64     76.00   2766.00     33.82   -999.25    124.56      0.00     11.15    100.00      5.73      3.95
 2239.0000   2239.00     17.44     76.00   2731.00     44.66   -999.25    122.09      0.00     11.81    100.00      5.78      3.97
 2239.2000   2239.20     17.24     76.00   2738.02     47.52   -999.25    119.63      0.00     12.86    100.00      5.81      3.99
 2239.4000   2239.40     17.04     76.00   2805.99     39.37   -999.25    121.73      0.00     14.25     98.92      5.77      3.90
 2239.6000   2239.60     16.84     76.00   2775.01     38.57   -999.25    125.39      0.00     14.21     98.30      5.73      3.81
 2239.8000   2239.80     16.64     76.00   2760.00     42.96   -999.25    129.05      0.00     10.06     99.44      5.69      3.71
 2240.0000   2240.00     16.44     76.00   2747.00     34.94   -999.25    132.72      0.00      9.45    100.00      5.65      3.62
 2240.2000   2240.20     16.24     76.00   2743.00     32.79   -999.25    136.38      0.00     12.15    100.00      5.61      3.53
 2240.4000   2240.40     16.04     76.00   2755.01     46.40   -999.25    140.04      0.00     13.42    100.00      5.58      3.44
 2240.6000   2240.60     15.83     76.00   2765.99     34.50   -999.25    140.38      0.00     13.33    100.00      5.57      3.42
 2240.8000   2240.80     15.63     76.00   2781.00     39.36   -999.25    136.88      0.00     12.09    100.00      5.59      3.45
 2241.0000   2241.00     15.44     76.00   2782.00     36.61   -999.25    133.38      0.00     11.41    100.00      5.60      3.48
 2241.2000   2241.20     15.23     76.00   2765.01     43.32   -999.25    129.89      0.00     11.77    100.00      5.62      3.51
 2241.4000   2241.40     15.04     76.00   2789.99     39.79   -999.25    126.39      0.00     13.99    100.00      5.64      3.55
 2241.6000   2241.60     14.84     77.00   2779.01     34.95   -999.25    122.90      0.00     16.42    100.00      5.65      3.58
 2241.8000   2241.80     14.64     77.00   2757.01     44.66   -999.25    119.40      0.00     18.97    100.00      5.64      3.58
 2242.0000   2242.00     14.44     77.00   2775.00     46.00   -999.25    121.26      0.00     15.37    100.00      5.56      3.49
 2242.2000   2242.20     14.24     76.00   2793.00     46.91   -999.25    123.82      0.00     11.93     99.92      5.48      3.40
 2242.4000   2242.40     14.03     77.00   2808.99     37.56   -999.25    126.37      0.00     10.89     98.77      5.39      3.31
 2242.6000   2242.60     13.84     76.00   2793.01     47.75   -999.25    128.93      0.00     10.57     98.42      5.31      3.22
 2242.8000   2242.80     13.64     76.00   2789.00     38.35   -999.25    131.49      0.00     11.69     99.65      5.22      3.13
 2243.0000   2243.00     13.44     77.00   2786.00     31.40   -999.25    134.04      0.00     13.34    100.99      5.14      3.04
 2243.2000   2243.20     13.24     77.00   2759.00     39.13   -999.25    135.97      0.00     14.00    101.70      5.10      3.07
 2243.4000   2243.40     13.04     77.00   2763.00     40.39   -999.25    135.83      0.00     11.33    100.57      5.10      3.22
 2243.6000   2243.60     12.84     77.00   2765.00     50.91   -999.25    135.69      0.00     10.54    100.00      5.10      3.36
 2243.8000   2243.80     12.64     76.00   2816.99     48.65   -999.25    135.54      0.00     11.61    100.00      5.10      3.50
 2244.0000   2244.00     12.44     77.00   2802.00     34.16   -999.25    135.40      0.00     11.63    100.00      5.10      3.65
 2244.2000   2244.20     12.24     77.00   2744.00     47.11   -999.25    135.26      0.00     11.05    100.00      5.10      3.79
 2244.4000   2244.40     12.04     77.00   2749.00     37.47   -999.25    135.12      0.00     12.65    100.00      5.10      3.94
 2244.6000   2244.60     11.84     77.00   2753.00     41.83   -999.25    134.89      0.00     13.85    100.00      5.12      4.00
 2244.8000   2244.80     11.64     76.00   2754.00     45.87   -999.25    134.11      0.00     13.27    100.00      5.17      4.00
 2245.0000   2245.00     11.44     77.00   2781.00     37.22   -999.25    133.33      0.00     12.36    100.00      5.21      4.00
 2245.2000   2245.20     11.24     77.00   2778.00     40.38   -999.25    132.55      0.00     11.19    100.00      5.25      4.00
 2245.4000   2245.40     11.04     76.00   2794.01     43.89   -999.25    131.76      0.00     14.96    100.00      5.30      4.00
 2245.6000   2245.60     10.84     76.00   2811.99     49.72   -999.25    130.98      0.00     19.67    100.00      5.34      4.00
 2245.8000   2245.80     10.64     77.00   2759.01     24.94   -999.25    130.20      0.00     14.73    100.00      5.36      3.99
 2246.0000   2246.00     10.44     77.00   2764.00     40.84   -999.25    129.77      0.00     13.85    101.10      5.25      3.89
 2246.2000   2246.20     10.24     77.00   2747.00     38.44   -999.25    129.46      0.00     14.11    102.00      5.15      3.80
 2246.4000   2246.40     10.04     77.00   2754.01     33.29   -999.25    129.16      0.00     15.42    102.00      5.05      3.71
 2246.6000   2246.60      9.83     77.00   2765.99     43.99   -999.25    128.85      0.00     13.40    101.02      4.94      3.62
 2246.8000   2246.80      9.64     77.00   2778.00     36.21   -999.25    128.54      0.00     11.38    100.00      4.84      3.53
 2247.0000   2247.00      9.44     77.00   2779.00     48.05   -999.25    128.23      0.00     13.61    100.00      4.73      3.44
 2247.2000   2247.20      9.24     77.00   2795.00     35.99   -999.25    128.18      0.00     15.24    100.00      4.73      3.38
 2247.4000   2247.40      9.04     77.00   2802.00     41.36   -999.25    128.91      0.00     15.86    100.00      4.81      3.35
 2247.6000   2247.60      8.84     77.00   2800.00     42.45   -999.25    129.64      0.00     14.26    100.00      4.90      3.32
 2247.8000   2247.80      8.64     77.00   2801.00     39.79   -999.25    130.37      0.00     12.02    100.00      4.98      3.30
