~Version Information
VERS.                       2.00: SCHLUMBERGER LAS - Version 2.00
WRAP.                         NO: One line per depth step
~Well Information
STRT.M                 1134.0000: Start Depth
STOP.M                 2124.0000: End Depth
STEP.M                    0.2000:  
NULL.                    -999.25:  
COMP.                    Bapetco: COMPANY
WELL.                BED 3 C18-N: WELL
FLD .                      BED 3: FLD
SRVC.               Schlumberger: SERVICE COMPANY
LOC .                           : LOCATION
DATE.                  05-Jul-20: LOG DATE
UWI .                  20EGP0553: API NUMBER
~Curve Information
DEPT.M                          : MWD Tool Measurement Depth
BDEP.M                          : Bit Depth
KPOSI.M                          : Kelly Position (Raw)
HKL .KLBF                       : Hook Load
SPP .PSI                        : Standpipe Pressure
ROP .M/HR                       : Rate of Penetration (MWD Depth Ave.)
PSPD.M/MIN                      : Instantaneous Pipe Speed
VIBC.CPS                        : Vibration Count
SSL_H.                           : Stick Slip Level from HDS1
SSS_H.                           : Stick Slip Percentage from HDS1
RPM_H.                           : Average RPM from HDS1
VIBXYH.                           : Vibration XY
VIBZH.                           : Vibration Z
#     DEPT      BDEP     KPOSI       HKL       SPP       ROP      PSPD      VIBC     SSL_H     SSS_H     RPM_H    VIBXYH     VIBZH
#        M         M         M      KLBF       PSI      M/HR     M/MIN       CPS                                                  
#
# Relog Number     0         0         0         0         0         0         0         0         0         0         0         0
#
~ASCII Data
# ...
 1468.8000   1468.80     12.67     69.00   2581.01     73.92   -999.25     20.62      1.00     69.08     98.00      2.43      1.48
 1469.0000   1469.00     12.47     69.00   2572.00     67.04   -999.25     20.14      1.00     73.54     98.00      2.46      1.56
 1469.2000   1469.20     12.26     69.00   2582.00     79.54   -999.25     19.66      1.00     73.99     98.00      2.48      1.64
 1469.4000   1469.40     12.07     69.00   2585.00     81.10   -999.25     19.18      1.00     71.27     98.00      2.51      1.72
 1469.6000   1469.60     11.86     69.00   2600.00     64.88   -999.25     18.69      1.00     68.56     98.00      2.53      1.80
 1469.8000   1469.80     11.66     69.00   2579.01     71.41   -999.25     18.21      1.00     68.85     98.00      2.56      1.89
 1470.0000   1470.00     11.47     69.00   2578.00     85.36   -999.25     17.72      1.00     71.55     98.00      2.59      1.97
 1470.2000   1470.20     11.27     69.00   2549.99     81.69   -999.25     17.23      1.00     74.25     98.00      2.61      2.05
 1470.4000   1470.40     11.07     69.00   2521.00     80.66   -999.25     16.74      1.00     76.47     98.00      2.64      2.13
 1470.6000   1470.60     10.87     69.00   2559.00     69.43   -999.25     16.25      1.00     76.12     98.00      2.66      2.21
 1470.8000   1470.80     10.66     69.00   2547.00     66.52   -999.25     15.76      1.00     75.76     98.00      2.69      2.29
 1471.0000   1471.00     10.47     69.00   2546.00     70.22   -999.25     15.28      1.10     76.62     98.00      2.71      2.37
 1471.2000   1471.20     10.27     69.00   2566.01     73.52   -999.25     14.79      1.41     80.15     98.00      2.73      2.39
 1471.4000   1471.40     10.07     69.00   2588.00     78.71   -999.25     14.30      1.73     83.68     98.00      2.74      2.37
 1471.6000   1471.60      9.87     69.00   2568.00     73.52   -999.25     13.81      1.95     85.20     98.00      2.75      2.35
 1471.8000   1471.80      9.67     69.00   2590.99     73.74   -999.25     13.32      1.58     73.84     98.00      2.76      2.33
 1472.0000   1472.00      9.47     69.00   2581.00     74.53   -999.25     13.19      1.21     62.48     98.00      2.77      2.32
 1472.2000   1472.20      9.26     69.00   2519.02     55.26   -999.25     13.74      1.00     58.79     98.00      2.78      2.30
 1472.4000   1472.40      9.06     69.00   2588.99     63.57   -999.25     14.30      1.00     64.87     98.00      2.79      2.28
 1472.6000   1472.60      8.87     69.00   2562.00     67.92   -999.25     14.85      1.00     70.95     98.00      2.80      2.26
 1472.8000   1472.80      8.66     69.00   2543.00     61.00   -999.25     15.40      1.00     71.95     98.89      2.81      2.25
 1473.0000   1473.00      8.47     69.00   2591.00     64.00   -999.25     15.96      1.00     69.36    100.42      2.82      2.23
 1473.2000   1473.20      8.27     69.00   2584.00     66.68   -999.25     16.51      1.00     66.76    101.95      2.84      2.21
 1473.4000   1473.40      8.06     69.00   2570.00     67.40   -999.25     17.06      1.32     73.07    100.06      2.82      2.18
 1473.6000   1473.60      7.87     69.00   2553.00     71.02   -999.25     17.62      1.66     79.70     98.05      2.75      2.12
 1473.8000   1473.80      7.66     68.00   2542.00     77.83   -999.25     18.17      1.99     86.33     96.04      2.69      2.07
 1474.0000   1474.00      7.47     68.00   2468.00     60.90   -999.25     18.73      1.61     78.42     97.57      2.62      2.01
 1474.2000   1474.20      7.27     68.00   2414.99     57.82   -999.25     18.72      1.21     70.22     99.17      2.56      1.96
 1474.4000   1474.40      7.06     69.00   2367.01     63.83   -999.25     18.18      1.00     63.94     99.65      2.49      1.90
 1474.6000   1474.60      6.87     69.00   2318.00     67.46   -999.25     17.63      1.00     59.68     98.94      2.42      1.85
 1474.8000   1474.80      6.67     69.00   2349.99     67.48   -999.25     17.08      1.00     55.42     98.23      2.36      1.79
 1475.0000   1475.00      6.47     69.00   2322.00     62.59   -999.25     16.54      1.26     61.01     97.49      2.29      1.74
 1475.2000   1475.20      6.27     70.00   2399.00     67.59   -999.25     15.99      1.63     71.13     96.74      2.23      1.68
 1475.4000   1475.40      6.07     69.00   2411.00     67.72   -999.25     15.45      2.00     81.25     96.00      2.16      1.63
 1475.6000   1475.60      5.87     71.00   2475.01     68.00   -999.25     14.90      2.36     89.06     97.44      2.12      1.63
 1475.8000   1475.80      5.67     70.00   2539.98     67.76   -999.25     14.35      2.72     96.87     98.87      2.11      1.68
 1476.0000   1476.00      5.46     70.00   2512.00     67.88   -999.25     13.81      2.85     99.63     99.85      2.09      1.73
 1476.2000   1476.20      5.27     70.00   2544.00     67.46   -999.25     13.26      2.13     83.95     99.13      2.08      1.79
 1476.4000   1476.40      5.07     70.00   2543.00     67.88   -999.25     13.05      1.42     68.27     98.42      2.07      1.84
 1476.6000   1476.60      4.87     69.00   2574.00     66.08   -999.25     13.14      1.00     61.23     98.00      2.05      1.89
 1476.8000   1476.80      4.67     70.00   2571.00     67.88   -999.25     13.23      1.00     66.12     98.00      2.04      1.95
 1477.0000   1477.00      4.46     68.00   2603.00     60.76   -999.25     13.32      1.00     71.01     98.00      2.03      2.00
 1477.2000   1477.20      4.27     70.00   2584.01     67.88   -999.25     13.41      1.00     72.05     97.50      2.02      2.06
 1477.4000   1477.40      4.07     69.00   2630.99     67.72   -999.25     13.50      1.00     71.47     96.79      2.00      2.11
 1477.6000   1477.60      3.87     69.00   2620.00     67.90   -999.25     13.59      1.00     70.90     96.09      1.99      2.16
 1477.8000   1477.80      3.67     70.00   2603.00     67.72   -999.25     13.68      1.31     76.25     95.38      2.00      2.21
 1478.0000   1478.00      3.47     70.00   2557.00     67.63   -999.25     13.77      1.66     82.45     94.67      2.08      2.23
 1478.2000   1478.20      3.27     69.00   2532.02     66.92   -999.25     13.86      2.00     88.16     94.08      2.15      2.25
 1478.4000   1478.40      3.07     68.00   2625.99     64.32   -999.25     13.95      2.00     85.72     95.55      2.23      2.27
 1478.6000   1478.60      2.87     69.00   2663.99     66.64   -999.25     14.20      2.00     83.27     97.02      2.30      2.29
 1478.8000   1478.80      2.67     69.00   2623.01     66.92   -999.25     14.67      1.88     80.85     98.23      2.38      2.31
 1479.0000   1479.00      2.47     69.00   2632.00     67.84   -999.25     15.14      1.53     78.50     98.94      2.45      2.33
 1479.2000   1479.20      2.26     69.00   2623.01     67.63   -999.25     15.61      1.17     76.14     99.66      2.53      2.35
 1479.4000   1479.40      2.07     69.00   2663.99     66.36   -999.25     16.08      1.00     73.22     99.03      2.60      2.37
 1479.6000   1479.60      1.86     68.00   2672.00     56.82   -999.25     16.55      1.00     69.78     97.13      2.68      2.39
 1479.8000   1479.80      1.89     68.33   2637.33     65.90   -999.25     17.02      1.00     64.25     96.96      2.70      2.41
 1480.0000   1480.00      1.97     68.67   2602.66     74.98   -999.25     17.48      1.00     55.60     99.36      2.65      2.43
 1480.2000   1480.20      1.77     69.00   2567.86     84.03   -999.25     17.95      1.00     46.94    101.76      2.60      2.45
 1480.4000   1480.40     30.04     73.00   2007.07      9.93   -999.25     11.21      0.00     35.47     96.32      2.55      2.47
 1480.6000   1480.60     29.84     72.00   2131.03     53.96   -999.25     10.44      0.00     36.64     96.73      2.50      2.50
 1480.8000   1480.80     29.64     71.00   2358.94     51.45   -999.25     10.96      0.00     38.09     97.59      2.45      2.52
 1481.0000   1481.00     29.44     70.00   2430.00     47.46   -999.25     11.48      0.49     49.02     97.51      2.40      2.54
