~Version Information
VERS.                       2.00: SCHLUMBERGER LAS - Version 2.00
WRAP.                         NO: One line per depth step
~Well Information
STRT.M                 2124.0000: Start Depth
STOP.M                 3002.8000: End Depth
STEP.M                    0.2000:  
NULL.                    -999.25:  
COMP.                    Bapetco: COMPANY
WELL.                BED 3 C18-N: WELL
FLD .                      BED 3: FLD
SRVC.               Schlumberger: SERVICE COMPANY
LOC .                           : LOCATION
DATE.                  07-Jul-20: LOG DATE
UWI .                  20EGP0553: API NUMBER
~Curve Information
DEPT.M                          : MWD Tool Measurement Depth
BDEP.M                          : Bit Depth
KPOSI.M                          : Kelly Position (Raw)
HKL .KLBF                       : Hook Load
SPP .PSI                        : Standpipe Pressure
ROP .M/HR                       : Rate of Penetration (MWD Depth Ave.)
PSPD.M/MIN                      : Instantaneous Pipe Speed
VIBC.CPS                        : Vibration Count
SSL_H.                           : Stick Slip Level from HDS1
SSS_H.                           : Stick Slip Percentage from HDS1
RPM_H.                           : Average RPM from HDS1
VIBXYH.                           : Vibration XY
VIBZH.                           : Vibration Z
#     DEPT      BDEP     KPOSI       HKL       SPP       ROP      PSPD      VIBC     SSL_H     SSS_H     RPM_H    VIBXYH     VIBZH
#        M         M         M      KLBF       PSI      M/HR     M/MIN       CPS                                                  
#
# Relog Number     0         0         0         0         0         0         0         0         0         0         0         0
#
~ASCII Data
# ...
 2533.2000   2533.20     11.65     81.00   2735.01     54.36   -999.25      8.56      1.05     43.68     78.00      1.94      0.60
 2533.4000   2533.40     11.45     81.00   2766.99     50.73   -999.25      7.70      1.00     46.55     78.00      1.89      0.60
 2533.6000   2533.60     11.24     81.00   2752.01     58.41   -999.25      6.83      1.00     52.72     78.00      1.84      0.60
 2533.8000   2533.80     11.05     81.00   2745.00     58.89   -999.25      5.97      1.00     61.30     78.00      1.79      0.60
 2534.0000   2534.00     10.85     81.00   2741.00     57.86   -999.25      5.10      1.00     71.41     78.00      1.74      0.60
 2534.2000   2534.20     10.65     81.00   2764.00     56.66   -999.25      4.24      1.00     78.65     78.00      1.71      0.61
 2534.4000   2534.40     10.45     81.00   2747.01     58.67   -999.25      3.37      1.00     74.47     78.00      1.70      0.64
 2534.6000   2534.60     10.25     81.00   2761.99     59.18   -999.25      2.94      1.00     70.29     78.00      1.69      0.66
 2534.8000   2534.80     10.05     81.00   2748.00     59.70   -999.25      2.83      1.00     65.74     77.38      1.68      0.68
 2535.0000   2535.00      9.85     81.00   2784.00     59.03   -999.25      2.73      1.00     61.05     76.56      1.67      0.70
 2535.2000   2535.20      9.65     80.00   2804.00     55.44   -999.25      2.62      1.00     59.42     76.56      1.66      0.72
 2535.4000   2535.40      9.45     81.00   2788.99     57.20   -999.25      2.51      1.00     64.12     78.29      1.64      0.74
 2535.6000   2535.60      9.25     80.00   2767.01     53.24   -999.25      2.40      1.00     68.74     79.99      1.63      0.76
 2535.8000   2535.80      9.05     80.00   2801.99     50.03   -999.25      2.30      1.00     67.78     79.07      1.62      0.78
 2536.0000   2536.00      8.85     80.00   2802.00     54.49   -999.25      2.19      1.00     66.82     78.15      1.62      0.80
 2536.2000   2536.20      8.65     80.00   2775.00     56.79   -999.25      2.08      1.00     62.23     78.69      1.65      0.80
 2536.4000   2536.40      8.45     81.00   2758.00     59.55   -999.25      2.03      1.00     56.95     79.51      1.67      0.80
 2536.6000   2536.60      8.25     81.00   2762.00     59.33   -999.25      2.15      1.00     53.36     79.68      1.70      0.80
 2536.8000   2536.80      8.05     81.00   2748.00     59.91   -999.25      2.27      1.00     52.36     78.88      1.72      0.80
 2537.0000   2537.00      7.85     81.00   2771.00     59.84   -999.25      2.39      1.00     51.37     78.07      1.75      0.80
 2537.2000   2537.20      7.65     80.00   2778.00     58.62   -999.25      2.51      1.00     52.88     78.86      1.77      0.80
 2537.4000   2537.40      7.44     80.00   2789.97     44.94   -999.25      2.63      1.00     54.65     79.81      1.80      0.80
 2537.6000   2537.60      7.25     81.00   2732.03     46.03   -999.25      2.75      1.00     63.38     80.00      1.83      0.80
 2537.8000   2537.80      7.05     81.00   2706.01     45.65   -999.25      2.87      1.00     73.85     80.00      1.83      0.79
 2538.0000   2538.00      6.85     81.00   2678.00     36.12   -999.25      2.99      1.54     83.70     78.91      1.80      0.73
 2538.2000   2538.20      6.65     81.00   2720.01     45.70   -999.25      2.88      1.87     85.82     78.00      1.76      0.68
 2538.4000   2538.40      6.45     81.00   2744.01     46.00   -999.25      2.75      1.35     65.01     78.00      1.72      0.62
 2538.6000   2538.60      6.24     81.00   2771.99     45.92   -999.25      2.62      0.82     49.00     78.00      1.68      0.57
 2538.8000   2538.80      6.04     81.00   2757.00     45.70   -999.25      2.49      0.30     42.29     78.00      1.64      0.51
 2539.0000   2539.00      5.85     81.00   2754.00     45.88   -999.25      2.36      0.23     40.48     78.00      1.60      0.46
 2539.2000   2539.20      5.65     81.00   2793.00     45.92   -999.25      2.23      0.75     45.18     78.00      1.57      0.41
 2539.4000   2539.40      5.45     81.00   2791.00     45.92   -999.25      2.10      0.73     42.56     78.00      1.58      0.45
 2539.6000   2539.60      5.25     81.00   2800.00     45.94   -999.25      2.22      0.21     33.19     78.00      1.60      0.50
 2539.8000   2539.80      5.05     81.00   2774.01     45.87   -999.25      3.13      0.32     43.87     78.63      1.61      0.55
 2540.0000   2540.00      4.85     81.00   2762.00     45.98   -999.25      4.05      0.84     67.63     79.68      1.63      0.60
 2540.2000   2540.20      4.65     81.00   2762.00     46.00   -999.25      4.96      0.64     60.42     79.28      1.65      0.66
 2540.4000   2540.40      4.45     81.00   2767.99     45.81   -999.25      5.88      0.12     39.28     78.23      1.67      0.71
 2540.6000   2540.60      4.25     81.00   2739.01     45.92   -999.25      6.79      0.41     37.24     78.00      1.68      0.76
 2540.8000   2540.80      4.05     81.00   2727.00     45.82   -999.25      7.71      0.93     40.59     78.00      1.71      0.79
 2541.0000   2541.00      3.85     81.00   2725.00     45.98   -999.25      8.62      1.91     83.97     77.09      1.75      0.77
 2541.2000   2541.20      3.64     81.00   2736.00     45.98   -999.25      8.69      2.95    133.31     76.05      1.79      0.74
 2541.4000   2541.40      3.44     81.00   2743.01     45.48   -999.25      8.17      3.00    127.51     76.00      1.83      0.71
 2541.6000   2541.60      3.24     81.00   2753.99     44.77   -999.25      7.64      2.88    116.20     76.08      1.87      0.69
 2541.8000   2541.80      3.04     81.00   2741.00     45.94   -999.25      7.12      1.32     69.08     77.12      1.91      0.66
 2542.0000   2542.00      2.85     81.00   2739.00     45.87   -999.25      6.59      0.00     29.95     78.17      1.95      0.64
 2542.2000   2542.20      2.65     82.00   2720.00     46.03   -999.25      6.07      0.00     32.83     79.21      1.99      0.61
 2542.4000   2542.40      2.45     82.00   2716.00     45.82   -999.25      5.54      0.13     37.58     79.74   -999.25   -999.25
 2542.6000   2542.60      2.25     82.00   2720.00     46.03   -999.25      5.02      0.65     48.12     78.70   -999.25   -999.25
 2542.8000   2542.80      2.05     82.00   2731.00     45.92   -999.25   -999.25      0.82     49.70     78.00   -999.25   -999.25
 2543.0000   2543.00      1.85     82.00   2738.00     45.76   -999.25   -999.25      0.30     33.51     78.00   -999.25   -999.25
 2543.2000   2543.20      1.65     81.00   2740.97     45.31   -999.25   -999.25      0.88     40.63     83.28   -999.25   -999.25
 2543.4000   2543.40     29.59     83.00   2626.04     11.66   -999.25   -999.25      0.00     25.64     77.55   -999.25   -999.25
 2543.6000   2543.60     29.39     82.00   2708.96     47.97   -999.25   -999.25      0.00     33.35     74.19   -999.25   -999.25
 2543.8000   2543.80     29.18     82.00   2767.99     52.53   -999.25   -999.25      0.00     33.00     74.47   -999.25   -999.25
 2544.0000   2544.00     29.00     82.00   2771.00     49.57   -999.25   -999.25      0.00     32.17     74.96   -999.25   -999.25
 2544.2000   2544.20     28.99     82.00   2773.50    408.83   -999.25   -999.25      0.00     31.34     75.46   -999.25   -999.25
 2544.4000   2544.40     28.99     82.00   2776.00    768.09   -999.25   -999.25      0.00     30.51     75.96   -999.25   -999.25
 2544.6000   2544.60     28.98     82.00   2778.50   1127.36   -999.25   -999.25      0.00     29.68     76.45   -999.25   -999.25
 2544.8000   2544.80     28.98     82.00   2781.00   1486.62   -999.25   -999.25      0.00     28.85     76.95   -999.25   -999.25
 2545.0000   2545.00     28.97     82.00   2783.50   1845.88   -999.25   -999.25      0.00     28.02     77.44   -999.25   -999.25
 2545.2000   2545.20     28.96     82.00   2786.00   2205.14   -999.25   -999.25      0.00     27.19     77.94   -999.25   -999.25
 2545.4000   2545.40     28.96     82.00   2788.50   2564.40   -999.25   -999.25      0.00     26.37     78.44   -999.25   -999.25
