~Version Information
VERS.                       2.00: SCHLUMBERGER LAS - Version 2.00
WRAP.                         NO: One line per depth step
~Well Information
STRT.M                 2124.0000: Start Depth
STOP.M                 3002.8000: End Depth
STEP.M                    0.2000:  
NULL.                    -999.25:  
COMP.                    Bapetco: COMPANY
WELL.                BED 3 C18-N: WELL
FLD .                      BED 3: FLD
SRVC.               Schlumberger: SERVICE COMPANY
LOC .                           : LOCATION
DATE.                  07-Jul-20: LOG DATE
UWI .                  20EGP0553: API NUMBER
~Curve Information
DEPT.M                          : MWD Tool Measurement Depth
BDEP.M                          : Bit Depth
KPOSI.M                          : Kelly Position (Raw)
HKL .KLBF                       : Hook Load
SPP .PSI                        : Standpipe Pressure
ROP .M/HR                       : Rate of Penetration (MWD Depth Ave.)
PSPD.M/MIN                      : Instantaneous Pipe Speed
VIBC.CPS                        : Vibration Count
SSL_H.                           : Stick Slip Level from HDS1
SSS_H.                           : Stick Slip Percentage from HDS1
RPM_H.                           : Average RPM from HDS1
VIBXYH.                           : Vibration XY
VIBZH.                           : Vibration Z
#     DEPT      BDEP     KPOSI       HKL       SPP       ROP      PSPD      VIBC     SSL_H     SSS_H     RPM_H    VIBXYH     VIBZH
#        M         M         M      KLBF       PSI      M/HR     M/MIN       CPS                                                  
#
# Relog Number     0         0         0         0         0         0         0         0         0         0         0         0
#
~ASCII Data
# ...
 2818.4000   2818.40     14.00     85.00   2811.98     44.93   -999.25      7.68      0.43     42.57    101.13      1.98      1.27
 2818.6000   2818.60     13.80     85.00   2775.02     44.67   -999.25      7.54      0.00     28.69    101.80      1.98      1.29
 2818.8000   2818.80     13.60     85.00   2767.00     44.77   -999.25      7.41      0.00     30.07    100.73      1.98      1.32
 2819.0000   2819.00     13.40     85.00   2786.00     44.77   -999.25      7.27      0.36     40.30     99.29      1.98      1.35
 2819.2000   2819.20     13.20     84.00   2848.01     42.24   -999.25      7.13      1.47     69.38     97.07      1.98      1.38
 2819.4000   2819.40     13.00     84.00   2883.99     41.35   -999.25      7.03      1.56     70.59     96.87      1.98      1.41
 2819.6000   2819.60     12.80     84.00   2865.01     23.54   -999.25      7.45      1.47     66.53     97.07      1.96      1.50
 2819.8000   2819.80     12.60     84.00   2959.98     38.82   -999.25      7.87      2.90    104.78     94.20      1.94      1.58
 2820.0000   2820.00     12.40     84.00   2936.00     41.80   -999.25      8.30      1.87     80.06     97.39      1.92      1.67
 2820.2000   2820.20     12.20     84.00   2880.00     29.84   -999.25      8.72      0.61     42.76     99.22      1.90      1.75
 2820.4000   2820.40     12.00     83.00   2875.00     18.65   -999.25      8.92      0.00     26.68     98.00      1.87      1.78
 2820.6000   2820.60     11.80     83.00   2881.00     21.81   -999.25      8.71      0.66     59.34     95.38      1.84      1.74
 2820.8000   2820.80     11.60     83.00   2956.98     35.42   -999.25      8.49      1.00     73.43     95.57      1.80      1.70
 2821.0000   2821.00     11.40     84.00   2979.00     42.03   -999.25      8.27      1.00     73.47     97.95      1.76      1.65
 2821.2000   2821.20     11.20     83.00   2896.99     25.58   -999.25      8.05      0.06     25.47    101.77      1.73      1.61
 2821.4000   2821.40     11.00     83.00   2856.08     17.92   -999.25      8.00      0.15     24.75     98.00      1.74      1.60
 2821.6000   2821.60     10.80     83.00   3016.92     35.69   -999.25      8.00      0.91     72.09     98.00      1.77      1.60
 2821.8000   2821.80     10.60     85.00   2888.03     44.66   -999.25      8.00      0.52     58.26     98.95      1.80      1.60
 2822.0000   2822.00     10.40     85.00   2864.00     44.77   -999.25      8.00      0.00     36.95    100.00      1.83      1.60
 2822.2000   2822.20     10.20     85.00   2836.99     44.88   -999.25      8.00      0.00     34.80    100.00      1.85      1.60
 2822.4000   2822.40     10.00     85.00   2811.01     44.55   -999.25      8.00      0.09     33.87     99.64      1.88      1.60
 2822.6000   2822.60      9.80     84.00   2824.99     44.88   -999.25      8.00      0.65     39.27     97.42      1.90      1.66
 2822.8000   2822.80      9.61     83.00   2820.00     29.41   -999.25      8.00      0.50     27.08     96.99      1.92      1.74
 2823.0000   2823.00      9.40     83.00   2830.00     16.94   -999.25      8.00      2.44     83.36     93.12      1.94      1.82
 2823.2000   2823.20      9.20     84.00   2954.99     39.70   -999.25      8.00      2.08     77.80     96.62      1.96      1.89
 2823.4000   2823.40      9.00     84.00   2922.98     44.67   -999.25      8.00      1.00     51.87    101.99      1.97      1.97
 2823.6000   2823.60      8.80     85.00   2891.02     44.93   -999.25      8.07      0.47     35.23     99.88      1.96      1.92
 2823.8000   2823.80      8.60     86.00   2911.99     46.29   -999.25      8.20      0.00     20.89     98.11      1.92      1.79
 2824.0000   2824.00      8.40     86.00   2948.00     47.75   -999.25      8.33      0.00     25.22     99.12      1.89      1.65
 2824.2000   2824.20      8.20     86.00   2969.00     47.23   -999.25      8.46      0.13     32.68     99.74      1.86      1.52
 2824.4000   2824.40      8.00     85.00   2985.04     47.85   -999.25      8.60      1.14     61.03     97.73      1.82      1.39
 2824.6000   2824.60      7.81     85.00   3063.96     47.75   -999.25      8.73      1.84     81.61     96.16      1.79      1.26
 2824.8000   2824.80      7.60     85.00   3037.01     46.82   -999.25      8.86      0.73     54.41     97.27      1.75      1.13
 2825.0000   2825.00      7.40     85.00   3061.00     36.73   -999.25      8.99      0.00     36.56     98.46      1.72      1.00
 2825.2000   2825.20      7.20     85.00   3057.98     36.78   -999.25      9.00      0.00     36.09     99.76      1.72      1.05
 2825.4000   2825.40      7.00     84.00   2958.59     36.33   -999.25      9.00      1.90     84.36    100.00      1.72      1.10
 2825.6000   2825.60      6.80     86.00   2111.41     13.18   -999.25      9.00      0.37     31.73     95.77      1.72      1.14
 2825.8000   2825.80      6.60     84.00   3043.77     36.77   -999.25      9.00      0.88     42.63     93.48      1.72      1.19
 2826.0000   2826.00      6.40     85.00   2571.00      7.58   -999.25     10.06      0.00     18.84     97.14      1.79      1.31
 2826.2000   2826.20      6.20     84.00   3059.99     10.31   -999.25     10.73      1.00     43.29     98.00      1.85      1.37
 2826.4000   2826.40      6.00     85.00   3029.98     13.45   -999.25     10.00      1.00     63.84    103.81      1.87      1.30
 2826.6000   2826.60      5.80     85.00   2988.02     36.81   -999.25      9.27      1.00     58.95     96.06      1.88      1.22
 2826.8000   2826.80      5.60     85.00   3058.98     36.52   -999.25      8.35      1.00     46.49     97.92      1.85      1.10
 2827.0000   2827.00      5.40     85.00   3041.00     19.82   -999.25      7.32      1.00     45.77     94.62      1.79      0.97
 2827.2000   2827.20      5.21     86.00   3025.99     13.15   -999.25      6.28      0.00     22.16     97.63      1.73      0.83
 2827.4000   2827.40      5.00     86.00   2995.00     13.61   -999.25      6.98      0.00     30.94     98.84      1.76      0.87
 2827.6000   2827.60      4.80     86.00   3000.00     13.68   -999.25      8.34      0.00     15.47     99.60      1.82      0.96
 2827.8000   2827.80      4.60     85.00   2978.01     10.16   -999.25      8.59      0.00     17.26     98.00      1.87      1.00
 2828.0000   2828.00      4.40     85.00   3015.00     18.37   -999.25      7.80      0.00     24.05     94.41      1.93      1.00
 2828.2000   2828.20      4.20     85.00   3068.99     17.60   -999.25      7.00      0.77     39.27    101.08      1.98      1.00
 2828.4000   2828.40      4.00     85.00   3025.01     14.08   -999.25      7.40      0.00     28.10     98.00      1.94      1.00
 2828.6000   2828.60      3.80     85.00   3036.99     15.48   -999.25      7.80      0.00     26.04     98.00      1.90      1.00
 2828.8000   2828.80      3.60     85.00   3029.00     16.66   -999.25      7.66      0.00     28.36     98.00      1.89      1.00
 2829.0000   2829.00      3.40     85.00   3062.00     19.17   -999.25      6.96      0.00     28.02     99.53      1.89      1.00
 2829.2000   2829.20      3.21     85.00   3010.99     16.18   -999.25      6.25      0.00     20.50     98.00      1.89      1.00
 2829.4000   2829.40      3.00     84.00   2985.00     13.66   -999.25      5.82      0.00     15.06     98.00      1.86      1.08
 2829.6000   2829.60      2.80     84.00   2992.00     19.10   -999.25      5.54      0.00     29.62     98.00      1.81      1.19
 2829.8000   2829.80      2.60     84.00   3045.99     26.34   -999.25      5.27      1.14     63.39     96.86      1.76      1.30
 2830.0000   2830.00      2.40     85.00   3024.00     36.78   -999.25      5.02      1.40     69.00     96.00      1.73      1.39
 2830.2000   2830.20      2.20     85.00   3037.01     35.60   -999.25      5.57      0.06     34.86     96.00      1.77      1.34
 2830.4000   2830.40      2.00     85.00   3057.97     35.20   -999.25      6.13      0.00     33.77     98.63      1.82      1.29
 2830.6000   2830.60      1.80     85.00   2999.03     29.22   -999.25      6.68      0.00     29.36    100.00      1.86      1.23
