~Version Information
VERS.                       2.00: SCHLUMBERGER LAS - Version 2.00
WRAP.                         NO: One line per depth step
~Well Information
STRT.M                 2124.0000: Start Depth
STOP.M                 3002.8000: End Depth
STEP.M                    0.2000:  
NULL.                    -999.25:  
COMP.                    Bapetco: COMPANY
WELL.                BED 3 C18-N: WELL
FLD .                      BED 3: FLD
SRVC.               Schlumberger: SERVICE COMPANY
LOC .                           : LOCATION
DATE.                  07-Jul-20: LOG DATE
UWI .                  20EGP0553: API NUMBER
~Curve Information
DEPT.M                          : MWD Tool Measurement Depth
BDEP.M                          : Bit Depth
KPOSI.M                          : Kelly Position (Raw)
HKL .KLBF                       : Hook Load
SPP .PSI                        : Standpipe Pressure
ROP .M/HR                       : Rate of Penetration (MWD Depth Ave.)
PSPD.M/MIN                      : Instantaneous Pipe Speed
VIBC.CPS                        : Vibration Count
SSL_H.                           : Stick Slip Level from HDS1
SSS_H.                           : Stick Slip Percentage from HDS1
RPM_H.                           : Average RPM from HDS1
VIBXYH.                           : Vibration XY
VIBZH.                           : Vibration Z
#     DEPT      BDEP     KPOSI       HKL       SPP       ROP      PSPD      VIBC     SSL_H     SSS_H     RPM_H    VIBXYH     VIBZH
#        M         M         M      KLBF       PSI      M/HR     M/MIN       CPS                                                  
#
# Relog Number     0         0         0         0         0         0         0         0         0         0         0         0
#
~ASCII Data
# ...
 2359.6000   2359.60     12.46     77.00   3006.99     35.90   -999.25     71.86      0.00     19.74     80.00      4.10      2.80
 2359.8000   2359.80     12.26     77.00   3010.00     36.78   -999.25     71.73      0.00     20.90     80.00      4.07      2.80
 2360.0000   2360.00     12.06     77.00   3009.00     36.30   -999.25     70.22      0.00     28.31     80.00      4.05      2.80
 2360.2000   2360.20     11.86     78.00   3000.00     34.32   -999.25     68.71      0.00     21.70     80.00      4.03      2.80
 2360.4000   2360.40     11.66     78.00   3013.00     40.33   -999.25     67.21      0.00     17.38     80.54      4.00      2.80
 2360.6000   2360.60     11.47     77.00   3018.00     37.79   -999.25     65.70      0.00     17.12     81.78      3.98      2.80
 2360.8000   2360.80     11.26     77.00   3013.00     34.32   -999.25     64.19      0.00     23.86     80.70      3.96      2.80
 2361.0000   2361.00     11.06     78.00   2998.00     32.44   -999.25     64.62      0.00     26.10     80.00      3.93      2.76
 2361.2000   2361.20     10.86     78.00   2996.99     31.44   -999.25     72.36      0.00     23.61     80.00      3.91      2.73
 2361.4000   2361.40     10.66     78.00   2975.01     38.67   -999.25     80.10      0.00     21.12     80.00      3.88      2.69
 2361.6000   2361.60     10.46     78.00   2997.99     29.41   -999.25     87.84      0.00     22.26     80.81      3.86      2.66
 2361.8000   2361.80     10.26     78.00   3000.00     41.16   -999.25     95.58      0.00     25.27     82.70      3.83      2.62
 2362.0000   2362.00     10.07     78.00   2972.00     37.24   -999.25    103.31      0.00     23.46     86.47      3.94      2.66
 2362.2000   2362.20      9.86     78.00   2967.00     35.42   -999.25    108.19      0.00     17.42     93.43      4.22      2.80
 2362.4000   2362.40      9.66     78.00   2952.00     32.48   -999.25    105.13      0.00     11.15    100.38      4.50      2.94
 2362.6000   2362.60      9.46     78.00   2943.00     32.76   -999.25    102.06      0.00     11.67    101.76      4.78      3.09
 2362.8000   2362.80      9.26     78.00   2932.00     38.53   -999.25     99.00      0.00     16.01    100.83      5.06      3.23
 2363.0000   2363.00      9.06     78.00   2931.00     30.51   -999.25     95.94      0.00     17.22     99.38      5.34      3.37
 2363.2000   2363.20      8.86     78.00   2957.00     33.28   -999.25     92.87      0.00     13.22     98.08      5.38      3.40
 2363.4000   2363.40      8.66     78.00   2957.00     36.21   -999.25     92.57      0.00     12.40     99.37      5.36      3.40
 2363.6000   2363.60      8.46     78.00   2962.00     38.67   -999.25     93.37      0.00     11.09    100.00      5.34      3.40
 2363.8000   2363.80      8.26     78.00   2959.00     41.02   -999.25     94.17      0.00      9.29    100.00      5.31      3.40
 2364.0000   2364.00      8.06     78.00   2967.00     38.67   -999.25     94.97      0.00      7.92    100.00      5.29      3.40
 2364.2000   2364.20      7.86     78.00   2969.00     36.21   -999.25     95.77      0.00      7.54    100.00      5.26      3.40
 2364.4000   2364.40      7.66     78.00   2960.00     36.91   -999.25     96.58      0.00      9.45    100.00      5.25      3.42
 2364.6000   2364.60      7.46     78.00   2958.00     31.11   -999.25     93.92      0.00     10.59    100.00      5.26      3.46
 2364.8000   2364.80      7.26     78.00   2950.00     29.59   -999.25     87.37      0.00     13.02     97.56      5.27      3.50
 2365.0000   2365.00      7.06     78.00   2972.00     29.48   -999.25     80.82      0.00     15.85     91.73      5.27      3.54
 2365.2000   2365.20      6.86     78.00   2989.00     28.72   -999.25     74.27      0.00     15.75     84.13      5.28      3.58
 2365.4000   2365.40      6.66     78.00   2973.01     29.99   -999.25     67.72      0.00     19.20     85.73      5.16      3.54
 2365.6000   2365.60      6.46     78.00   2989.99     30.36   -999.25     65.24      0.00     16.22     84.71      4.93      3.42
 2365.8000   2365.80      6.26     78.00   2987.00     30.65   -999.25     65.64      0.00     17.63     84.00      4.69      3.30
 2366.0000   2366.00      6.06     78.00   2987.00     27.69   -999.25     66.04      0.00     21.05     84.00      4.45      3.18
 2366.2000   2366.20      5.86     78.00   3000.00     28.73   -999.25     66.45      0.00     20.24     84.00      4.21      3.05
 2366.4000   2366.40      5.66     78.00   2998.00     32.36   -999.25     66.85      0.00     20.24     84.00      4.26      3.09
 2366.6000   2366.60      5.46     78.00   3006.00     30.61   -999.25     72.45      0.00     18.66     84.00      4.53      3.26
 2366.8000   2366.80      5.26     78.00   3003.00     30.43   -999.25     81.19      0.00     20.97     86.84      4.81      3.44
 2367.0000   2367.00      5.06     78.00   2991.00     25.55   -999.25     89.92      0.00     19.46     93.71      5.09      3.61
 2367.2000   2367.20      4.86     78.00   2961.00     26.02   -999.25     98.65      0.00     10.67    100.00      5.37      3.78
 2367.4000   2367.40      4.66     78.00   2961.01     25.93   -999.25    107.00      0.00     11.45     99.61      5.35      3.76
 2367.6000   2367.60      4.46     78.00   2980.99     29.48   -999.25    107.00      0.00     17.09     98.12      5.28      3.72
 2367.8000   2367.80      4.26     78.00   2985.00     26.40   -999.25    107.00      0.00     13.18     99.92      5.21      3.67
 2368.0000   2368.00      4.06     79.00   2972.00     27.70   -999.25    107.00      0.00     12.18    100.00      5.15      3.63
 2368.2000   2368.20      3.86     79.00   2964.00     26.69   -999.25    107.00      0.00     13.22    101.41      5.13      3.60
 2368.4000   2368.40      3.66     79.00   2958.00     29.39   -999.25    106.11      0.00     14.26    102.00      5.22      3.60
 2368.6000   2368.60      3.46     79.00   2955.00     27.58   -999.25    104.03      0.00     20.88    101.24      5.31      3.60
 2368.8000   2368.80      3.26     79.00   2955.00     29.41   -999.25    101.94      0.00     27.49     99.55      5.40      3.60
 2369.0000   2369.00      3.06     78.00   2953.00     29.29   -999.25     99.86      0.00     15.18     98.11      5.49      3.60
 2369.2000   2369.20      2.86     78.00   2960.00     28.12   -999.25     97.77      0.00     13.24     99.80      5.49      3.62
 2369.4000   2369.40      2.66     78.00   2977.99     28.69   -999.25     95.73      0.00     13.00    100.00      5.39      3.66
 2369.6000   2369.60      2.46     78.00   2962.01     27.38   -999.25     93.72      0.00     12.38    100.00      5.30      3.71
 2369.8000   2369.80      2.26     79.00   2959.00     27.65   -999.25     91.71      0.00     15.36    100.00      5.21      3.75
 2370.0000   2370.00      2.06     78.00   2949.00     27.75   -999.25     89.70      0.00     20.57    100.00      5.11      3.79
 2370.2000   2370.20      1.86     79.00   2948.00     23.58   -999.25     87.54      0.00     23.44     97.18      5.08      3.76
 2370.4000   2370.40      1.95     78.67   2951.00     23.77   -999.25     84.58      0.00     24.60     89.65      5.05      3.72
 2370.6000   2370.60      1.96     78.33   2954.00     23.95   -999.25     81.61      0.00     25.77     82.13      5.02      3.68
 2370.8000   2370.80      1.76     78.00   2957.00     24.14   -999.25     78.65      0.00     26.94     74.60      4.99      3.64
 2371.0000   2371.00     29.79     83.00   2633.00      0.46   -999.25     68.04      0.00     34.82     76.60      3.29      1.43
 2371.2000   2371.20     29.59     83.00   2666.97      2.66   -999.25     34.79      0.00     28.03     82.31      5.26      3.53
 2371.4000   2371.40     29.38     82.00   2531.04      1.89   -999.25     23.91      0.00     21.25     88.01      3.91      2.40
 2371.6000   2371.60     29.19     82.00   2616.96      3.13   -999.25     24.61      0.00     14.47     93.72      4.13      2.40
 2371.8000   2371.80     28.99     81.00   2584.01      0.83   -999.25    108.93      0.00      7.68     99.43      5.13      3.18
