~Version Information
VERS.                       2.00: SCHLUMBERGER LAS - Version 2.00
WRAP.                         NO: One line per depth step
~Well Information
STRT.M                 1134.0000: Start Depth
STOP.M                 2124.0000: End Depth
STEP.M                    0.2000:  
NULL.                    -999.25:  
COMP.                    Bapetco: COMPANY
WELL.                BED 3 C18-N: WELL
FLD .                      BED 3: FLD
SRVC.               Schlumberger: SERVICE COMPANY
LOC .                           : LOCATION
DATE.                  05-Jul-20: LOG DATE
UWI .                  20EGP0553: API NUMBER
~Curve Information
DEPT.M                          : MWD Tool Measurement Depth
BDEP.M                          : Bit Depth
KPOSI.M                          : Kelly Position (Raw)
HKL .KLBF                       : Hook Load
SPP .PSI                        : Standpipe Pressure
ROP .M/HR                       : Rate of Penetration (MWD Depth Ave.)
PSPD.M/MIN                      : Instantaneous Pipe Speed
VIBC.CPS                        : Vibration Count
SSL_H.                           : Stick Slip Level from HDS1
SSS_H.                           : Stick Slip Percentage from HDS1
RPM_H.                           : Average RPM from HDS1
VIBXYH.                           : Vibration XY
VIBZH.                           : Vibration Z
#     DEPT      BDEP     KPOSI       HKL       SPP       ROP      PSPD      VIBC     SSL_H     SSS_H     RPM_H    VIBXYH     VIBZH
#        M         M         M      KLBF       PSI      M/HR     M/MIN       CPS                                                  
#
# Relog Number     0         0         0         0         0         0         0         0         0         0         0         0
#
~ASCII Data
# ...
 1344.8000   1344.80     18.90     78.00   2323.01     62.26   -999.25     11.64      0.00     20.16     98.00      1.89      0.60
 1345.0000   1345.00     18.70     78.00   2356.00     60.25   -999.25     11.76      0.00     21.45     98.00      1.90      0.60
 1345.2000   1345.20     18.51     78.00   2353.01     48.93   -999.25     11.89      0.00     23.03     98.00      1.92      0.60
 1345.4000   1345.40     18.31     78.00   2382.00     45.15   -999.25     12.09      0.00     25.59     98.00      1.94      0.60
 1345.6000   1345.60     18.10     78.00   2352.01     55.74   -999.25     12.96      0.00     27.71     98.23      1.96      0.60
 1345.8000   1345.80     17.90     78.00   2403.99     54.05   -999.25     13.83      0.00     28.41     99.19      1.98      0.60
 1346.0000   1346.00     17.70     77.00   2409.00     40.34   -999.25     14.70      0.00     28.31     99.75      2.00      0.60
 1346.2000   1346.20     17.50     78.00   2414.99     30.64   -999.25     15.57      0.00     23.83     98.13      2.00      0.60
 1346.4000   1346.40     17.30     78.00   2376.00     34.51   -999.25     16.44      0.00     28.24     99.12      2.00      0.60
 1346.6000   1346.60     17.10     78.00   2365.00     42.76   -999.25     17.31      0.00     30.38    100.00      2.00      0.60
 1346.8000   1346.80     16.90     78.00   2372.00     42.99   -999.25     17.94      0.00     24.48    100.00      2.00      0.60
 1347.0000   1347.00     16.70     77.00   2343.00     44.60   -999.25     17.63      0.00     21.41     99.43      2.00      0.60
 1347.2000   1347.20     16.51     77.00   2365.00     32.72   -999.25     17.32      0.00     22.42     98.04      2.00      0.60
 1347.4000   1347.40     16.30     77.00   2372.00     32.46   -999.25     17.01      0.00     25.55     99.36      2.03      0.60
 1347.6000   1347.60     16.10     78.00   2348.00     42.91   -999.25     16.71      0.00     28.81     99.46      2.08      0.60
 1347.8000   1347.80     15.90     78.00   2373.99     53.88   -999.25     16.40      0.00     32.13     98.46      2.13      0.60
 1348.0000   1348.00     15.70     77.00   2398.00     37.16   -999.25     16.09      0.00     32.09     98.00      2.17      0.60
 1348.2000   1348.20     15.50     79.00   2343.00     18.01   -999.25     16.70      0.00     32.36     99.89      2.22      0.60
 1348.4000   1348.40     15.31     78.00   2357.00     43.38   -999.25     17.68      0.00     32.53    100.95      2.27      0.60
 1348.6000   1348.60     15.10     78.00   2400.99     40.27   -999.25     18.66      0.00     28.50     98.56      2.31      0.60
 1348.8000   1348.80     14.90     78.00   2358.01     35.51   -999.25     19.64      0.00     21.87     99.19      2.35      0.60
 1349.0000   1349.00     14.70     78.00   2365.00     29.65   -999.25     20.62      0.00     17.81     99.41      2.39      0.60
 1349.2000   1349.20     14.50     78.00   2376.99     41.18   -999.25     20.50      0.00     17.41     98.19      2.43      0.60
 1349.4000   1349.40     14.31     78.00   2353.00     55.84   -999.25     19.67      0.00     20.00     98.00      2.47      0.60
 1349.6000   1349.60     14.10     78.00   2359.00     54.21   -999.25     18.85      0.00     23.14     98.00      2.51      0.60
 1349.8000   1349.80     13.90     78.00   2353.00     53.71   -999.25     18.02      0.00     24.64     98.58      2.54      0.60
 1350.0000   1350.00     13.70     78.00   2353.00     47.34   -999.25     17.20      0.00     24.90     99.60      2.49      0.60
 1350.2000   1350.20     13.51     77.00   2392.00     30.95   -999.25     16.37      0.00     25.71     99.08      2.45      0.60
 1350.4000   1350.40     13.30     77.00   2399.00     34.93   -999.25     15.54      0.00     26.99     98.37      2.40      0.60
 1350.6000   1350.60     13.11     78.00   2375.00     40.21   -999.25     15.05      0.00     28.55     99.64      2.36      0.60
 1350.8000   1350.80     12.90     78.00   2375.00     34.93   -999.25     15.20      0.00     23.78     99.10      2.31      0.60
 1351.0000   1351.00     12.71     78.00   2359.00     38.26   -999.25     15.34      0.00     17.59     98.00      2.27      0.60
 1351.2000   1351.20     12.50     78.00   2368.00     35.79   -999.25     15.49      0.00     19.61     98.00      2.23      0.62
 1351.4000   1351.40     12.30     78.00   2349.00     54.62   -999.25     15.64      0.00     22.68     98.00      2.20      0.65
 1351.6000   1351.60     12.11     78.00   2351.00     63.12   -999.25     15.79      0.00     26.44     98.00      2.16      0.67
 1351.8000   1351.80     11.91     78.00   2317.01     46.96   -999.25     15.93      0.00     29.07     98.23      2.13      0.69
 1352.0000   1352.00     11.71     77.00   2356.00     31.29   -999.25     15.94      0.00     25.80     99.65      2.09      0.72
 1352.2000   1352.20     11.50     78.00   2320.00     68.69   -999.25     15.82      0.00     26.28     99.44      2.06      0.74
 1352.4000   1352.40     11.30     78.00   2337.00     68.08   -999.25     15.71      0.00     27.97     98.70      2.03      0.77
 1352.6000   1352.60     11.10     78.00   2306.00     59.18   -999.25     15.60      0.00     29.89     98.00      1.99      0.79
 1352.8000   1352.80     10.90     77.00   2317.00     30.62   -999.25     15.48      0.00     36.47     98.00      2.00      0.79
 1353.0000   1353.00     10.71     78.00   2299.00     50.48   -999.25     15.37      0.26     41.20     98.53      2.03      0.76
 1353.2000   1353.20     10.51     78.00   2284.99     57.06   -999.25     15.25      0.67     44.93     99.33      2.07      0.74
 1353.4000   1353.40     10.31     78.00   2257.00     65.44   -999.25     15.14      0.93     47.01     99.85      2.10      0.72
 1353.6000   1353.60     10.11     78.00   2256.00     60.79   -999.25     15.03      0.50     41.34     99.00      2.13      0.70
 1353.8000   1353.80      9.90     78.00   2294.99     50.48   -999.25     15.00      0.07     35.68     98.15      2.16      0.68
 1354.0000   1354.00      9.70     78.00   2241.00     69.83   -999.25     15.00      0.00     34.21     98.57      2.19      0.66
 1354.2000   1354.20      9.50     79.00   2259.99     70.40   -999.25     15.00      0.00     33.63     99.25      2.23      0.64
 1354.4000   1354.40      9.30     78.00   2230.00     69.87   -999.25     15.00      0.00     33.05     99.94      2.26      0.61
 1354.6000   1354.60      9.10     78.00   2238.00     69.43   -999.25     15.00      0.00     33.87     99.35      2.28      0.60
 1354.8000   1354.80      8.91     78.00   2273.99     63.52   -999.25     15.00      0.00     34.84     98.65      2.28      0.60
 1355.0000   1355.00      8.70     78.00   2273.00     70.62   -999.25     15.00      0.03     35.99     98.00      2.28      0.60
 1355.2000   1355.20      8.51     78.00   2245.00     70.19   -999.25     15.00      0.37     39.12     98.00      2.27      0.60
 1355.4000   1355.40      8.30     79.00   2263.00     70.62   -999.25     15.00      0.71     42.25     98.00      2.27      0.60
 1355.6000   1355.60      8.10     78.00   2253.00     70.62   -999.25     15.00      0.95     44.47     98.00      2.27      0.60
 1355.8000   1355.80      7.91     78.00   2267.00     70.62   -999.25     15.00      0.61     41.69     98.00      2.27      0.60
 1356.0000   1356.00      7.70     79.00   2227.00     70.23   -999.25     14.92      0.27     38.91     98.00      2.27      0.60
 1356.2000   1356.20      7.51     78.00   2154.00     70.62   -999.25     14.70      0.00     36.85     98.19      2.27      0.60
 1356.4000   1356.40      7.30     77.00   2146.00     52.57   -999.25     14.48      0.00     37.43     99.10      2.27      0.60
 1356.6000   1356.60      7.10     77.00   2075.99     49.69   -999.25     14.27      0.00     38.00    100.00      2.26      0.60
 1356.8000   1356.80      6.90     78.00   1992.02     53.85   -999.25     14.05      0.45     41.54     99.11      2.26      0.64
 1357.0000   1357.00      6.70     78.00   1970.00     54.05   -999.25     13.83      0.89     45.09     98.21      2.26      0.70
