~Version Information
VERS.                       2.00: SCHLUMBERGER LAS - Version 2.00
WRAP.                         NO: One line per depth step
~Well Information
STRT.M                 2124.0000: Start Depth
STOP.M                 3002.8000: End Depth
STEP.M                    0.2000:  
NULL.                    -999.25:  
COMP.                    Bapetco: COMPANY
WELL.                BED 3 C18-N: WELL
FLD .                      BED 3: FLD
SRVC.               Schlumberger: SERVICE COMPANY
LOC .                           : LOCATION
DATE.                  07-Jul-20: LOG DATE
UWI .                  20EGP0553: API NUMBER
~Curve Information
DEPT.M                          : MWD Tool Measurement Depth
BDEP.M                          : Bit Depth
KPOSI.M                          : Kelly Position (Raw)
HKL .KLBF                       : Hook Load
SPP .PSI                        : Standpipe Pressure
ROP .M/HR                       : Rate of Penetration (MWD Depth Ave.)
PSPD.M/MIN                      : Instantaneous Pipe Speed
VIBC.CPS                        : Vibration Count
SSL_H.                           : Stick Slip Level from HDS1
SSS_H.                           : Stick Slip Percentage from HDS1
RPM_H.                           : Average RPM from HDS1
VIBXYH.                           : Vibration XY
VIBZH.                           : Vibration Z
#     DEPT      BDEP     KPOSI       HKL       SPP       ROP      PSPD      VIBC     SSL_H     SSS_H     RPM_H    VIBXYH     VIBZH
#        M         M         M      KLBF       PSI      M/HR     M/MIN       CPS                                                  
#
# Relog Number     0         0         0         0         0         0         0         0         0         0         0         0
#
~ASCII Data
# ...
 2471.2000   2471.20     17.31     82.00   2426.01     33.73   -999.25     53.75      0.00     11.93     89.71      4.50      2.88
 2471.4000   2471.40     17.11     82.00   2448.00     30.18   -999.25     50.77      0.00     10.37     88.14      4.39      2.85
 2471.6000   2471.60     16.91     82.00   2443.00     29.92   -999.25     55.84      0.00     11.88     88.00      4.28      2.81
 2471.8000   2471.80     16.71     81.00   2470.99     29.99   -999.25     63.73      0.00     14.91     88.00      4.28      2.83
 2472.0000   2472.00     16.51     80.00   2498.00     29.85   -999.25     71.62      0.00     16.02     87.33      4.31      2.87
 2472.2000   2472.20     16.31     80.00   2502.01     29.77   -999.25     79.52      0.00     13.38     86.31      4.34      2.92
 2472.4000   2472.40     16.11     79.00   2529.00     25.85   -999.25     87.41      0.00     10.64     88.00      4.37      2.96
 2472.6000   2472.60     15.91     79.00   2528.00     25.86   -999.25     83.01      0.00     16.98     88.00      4.41      3.00
 2472.8000   2472.80     15.71     79.00   2533.00     26.15   -999.25     77.61      0.00     11.91     88.00      4.43      3.05
 2473.0000   2473.00     15.51     79.00   2396.00     26.82   -999.25     72.21      0.00     10.40     88.00      4.46      3.09
 2473.2000   2473.20     15.31     79.00   2502.02     26.33   -999.25     66.81      0.00      9.43     88.00      4.49      3.13
 2473.4000   2473.40     15.12     80.00   2588.95     29.99   -999.25     63.81      0.00     15.20     86.97      4.52      3.18
 2473.6000   2473.60     14.91     81.00   2495.05     29.92   -999.25     63.42      0.00     19.46     87.90      4.52      3.15
 2473.8000   2473.80     14.71     80.00   2528.99     29.96   -999.25     63.02      0.00     16.16     91.28      4.50      3.04
 2474.0000   2474.00     14.51     81.00   2560.00     29.99   -999.25     62.63      0.00     15.21     86.48      4.48      2.93
 2474.2000   2474.20     14.32     81.00   2508.00     29.92   -999.25     62.23      0.00     21.05     88.89      4.45      2.82
 2474.4000   2474.40     14.11     80.00   2517.03     38.35   -999.25     62.12      0.00     20.32     89.30      4.43      2.72
 2474.6000   2474.60     13.91     79.00   2583.97     44.66   -999.25     62.40      0.00     15.72     88.22      4.41      2.61
 2474.8000   2474.80     13.71     78.00   2613.99     43.07   -999.25     62.68      0.00     15.62     86.22      4.46      2.70
 2475.0000   2475.00     13.51     78.00   2622.00     43.07   -999.25     62.97      0.00     16.65     84.01      4.52      2.82
 2475.2000   2475.20     13.31     78.00   2649.00     36.04   -999.25     63.25      0.00     14.95     85.27      4.59      2.93
 2475.4000   2475.40     13.11     78.00   2657.99     42.60   -999.25     63.54      0.00     14.93     86.46      4.65      3.05
 2475.6000   2475.60     12.91     78.00   2645.01     42.70   -999.25     63.82      0.00     17.29     87.58      4.71      3.16
 2475.8000   2475.80     12.71     78.00   2643.00     44.20   -999.25     63.04      0.00     15.88     88.00      4.77      3.27
 2476.0000   2476.00     12.51     78.00   2660.00     44.44   -999.25     60.47      0.00     12.20     88.00      4.83      3.39
 2476.2000   2476.20     12.31     78.00   2689.00     43.89   -999.25     57.90      0.00     10.41     88.00      4.76      3.40
 2476.4000   2476.40     12.11     78.00   2676.99     44.27   -999.25     55.34      0.00      9.17     88.00      4.66      3.40
 2476.6000   2476.60     11.91     78.00   2665.01     44.36   -999.25     52.77      0.00     10.24     88.00      4.57      3.40
 2476.8000   2476.80     11.71     79.00   2666.00     44.27   -999.25     50.20      0.00     11.74     88.00      4.47      3.40
 2477.0000   2477.00     11.51     79.00   2658.00     44.77   -999.25     47.63      0.00     16.01     88.00      4.38      3.40
 2477.2000   2477.20     11.31     79.00   2632.00     44.60   -999.25     45.07      0.00     18.98     88.00      4.29      3.40
 2477.4000   2477.40     11.11     78.00   2642.03     58.89   -999.25     42.92      0.00     17.48     88.00      4.19      3.40
 2477.6000   2477.60     10.91     78.00   2696.97     53.30   -999.25     40.78      0.00     15.97     88.00      4.10      3.40
 2477.8000   2477.80     10.71     78.00   2739.99     49.04   -999.25     38.64      0.00     14.50     87.09      4.04      3.35
 2478.0000   2478.00     10.51     79.00   2784.00     52.53   -999.25     36.50      0.00     13.03     86.15      3.97      3.31
 2478.2000   2478.20     10.31     79.00   2757.00     54.43   -999.25     34.36      0.00     12.68     86.75      3.91      3.26
 2478.4000   2478.40     10.12     79.00   2757.01     52.94   -999.25     32.22      0.00     12.55     87.65      3.84      3.21
 2478.6000   2478.60      9.91     79.00   2772.99     54.30   -999.25     30.08      0.00     12.82     88.00      3.78      3.17
 2478.8000   2478.80      9.71     79.00   2787.00     52.06   -999.25     27.95      0.00     13.33     88.00      3.71      3.12
 2479.0000   2479.00      9.51     79.00   2798.00     53.86   -999.25     25.89      0.00     13.44     88.00      3.65      3.08
 2479.2000   2479.20      9.32     79.00   2750.00     54.76   -999.25     24.64      0.00     12.93     88.00      3.58      3.03
 2479.4000   2479.40      9.11     79.00   2756.01     52.80   -999.25     23.39      0.00     12.67     87.87      3.54      3.00
 2479.6000   2479.60      8.91     79.00   2783.99     53.42   -999.25     22.14      0.00     13.78     87.02      3.56      3.00
 2479.8000   2479.80      8.71     79.00   2757.01     59.18   -999.25     20.89      0.00     14.89     86.17      3.57      3.00
 2480.0000   2480.00      8.51     80.00   2717.00     59.91   -999.25     19.64      0.00     13.07     87.91      3.59      3.00
 2480.2000   2480.20      8.31     81.00   2660.00     59.84   -999.25     18.39      0.00     10.49     90.32      3.60      3.00
 2480.4000   2480.40      8.11     81.00   2654.00     59.69   -999.25     17.14      0.00      9.03     91.51      3.62      3.00
 2480.6000   2480.60      7.91     81.00   2662.00     59.84   -999.25     15.89      0.00     10.09     89.90      3.63      3.00
 2480.8000   2480.80      7.71     80.00   2680.00     59.84   -999.25     14.64      0.00     11.16     88.30      3.65      3.00
 2481.0000   2481.00      7.51     80.00   2705.00     51.60   -999.25     13.62      0.00     12.90     87.18      3.66      3.00
 2481.2000   2481.20      7.31     80.00   2721.00     45.98   -999.25     12.83      0.00     14.79     86.18      3.68      3.00
 2481.4000   2481.40      7.12     80.00   2707.98     45.94   -999.25     12.05      0.00     16.44     86.86      3.75      2.90
 2481.6000   2481.60      6.91     81.00   2672.02     45.81   -999.25     11.27      0.00     18.04     87.91      3.82      2.80
 2481.8000   2481.80      6.71     81.00   2640.01     46.03   -999.25     10.48      0.00     16.24     89.91      3.90      2.69
 2482.0000   2482.00      6.51     82.00   2626.00     45.81   -999.25      9.70      0.00     14.13     92.00      3.97      2.59
 2482.2000   2482.20      6.31     82.00   2580.00     46.05   -999.25      8.92      0.00     11.39     90.96      4.05      2.48
 2482.4000   2482.40      6.11     82.00   2572.01     45.92   -999.25      8.13      0.00      8.90     89.91      4.13      2.38
 2482.6000   2482.60      5.91     82.00   2586.99     45.26   -999.25      7.89      0.00      9.00     88.86      4.20      2.27
 2482.8000   2482.80      5.71     82.00   2592.00     46.00   -999.25      7.76      0.00      9.09     88.00      4.23      2.19
 2483.0000   2483.00      5.51     82.00   2568.00     45.92   -999.25      7.63      0.00      9.09     88.00      4.15      2.17
 2483.2000   2483.20      5.31     82.00   2572.00     45.92   -999.25      7.50      0.00      9.09     88.00      4.08      2.14
 2483.4000   2483.40      5.11     82.00   2585.02     45.94   -999.25      7.37      0.00      9.09     88.00      4.00      2.11
