~Version Information
VERS.                       2.00: SCHLUMBERGER LAS - Version 2.00
WRAP.                         NO: One line per depth step
~Well Information
STRT.M                 1134.0000: Start Depth
STOP.M                 2124.0000: End Depth
STEP.M                    0.2000:  
NULL.                    -999.25:  
COMP.                    Bapetco: COMPANY
WELL.                BED 3 C18-N: WELL
FLD .                      BED 3: FLD
SRVC.               Schlumberger: SERVICE COMPANY
LOC .                           : LOCATION
DATE.                  05-Jul-20: LOG DATE
UWI .                  20EGP0553: API NUMBER
~Curve Information
DEPT.M                          : MWD Tool Measurement Depth
BDEP.M                          : Bit Depth
KPOSI.M                          : Kelly Position (Raw)
HKL .KLBF                       : Hook Load
SPP .PSI                        : Standpipe Pressure
ROP .M/HR                       : Rate of Penetration (MWD Depth Ave.)
PSPD.M/MIN                      : Instantaneous Pipe Speed
VIBC.CPS                        : Vibration Count
SSL_H.                           : Stick Slip Level from HDS1
SSS_H.                           : Stick Slip Percentage from HDS1
RPM_H.                           : Average RPM from HDS1
VIBXYH.                           : Vibration XY
VIBZH.                           : Vibration Z
#     DEPT      BDEP     KPOSI       HKL       SPP       ROP      PSPD      VIBC     SSL_H     SSS_H     RPM_H    VIBXYH     VIBZH
#        M         M         M      KLBF       PSI      M/HR     M/MIN       CPS                                                  
#
# Relog Number     0         0         0         0         0         0         0         0         0         0         0         0
#
~ASCII Data
 1134.0000   1134.00   -999.25   -999.25   -999.25   -999.25   -999.25   -999.25   -999.25   -999.25   -999.25   -999.25   -999.25
 1134.2000   1134.20   -999.25   -999.25   -999.25   -999.25   -999.25   -999.25   -999.25   -999.25   -999.25   -999.25   -999.25
 1134.4000   1134.40   -999.25   -999.25   -999.25   -999.25   -999.25   -999.25   -999.25   -999.25   -999.25   -999.25   -999.25
 1134.6000   1134.60   -999.25   -999.25   -999.25   -999.25   -999.25   -999.25   -999.25   -999.25   -999.25   -999.25   -999.25
 1134.8000   1134.80   -999.25   -999.25   -999.25   -999.25   -999.25   -999.25   -999.25   -999.25   -999.25   -999.25   -999.25
 1135.0000   1135.00   -999.25   -999.25   -999.25   -999.25   -999.25   -999.25   -999.25   -999.25   -999.25   -999.25   -999.25
 1135.2000   1135.20   -999.25   -999.25   -999.25   -999.25   -999.25   -999.25   -999.25   -999.25   -999.25   -999.25   -999.25
 1135.4000   1135.40   -999.25   -999.25   -999.25   -999.25   -999.25   -999.25   -999.25   -999.25   -999.25   -999.25   -999.25
 1135.6000   1135.60   -999.25   -999.25   -999.25   -999.25   -999.25   -999.25   -999.25   -999.25   -999.25   -999.25   -999.25
 1135.8000   1135.80   -999.25   -999.25   -999.25   -999.25   -999.25   -999.25   -999.25   -999.25   -999.25   -999.25   -999.25
 1136.0000   1136.00   -999.25   -999.25   -999.25   -999.25   -999.25   -999.25   -999.25   -999.25   -999.25   -999.25   -999.25
 1136.2000   1136.20   -999.25   -999.25   -999.25   -999.25   -999.25   -999.25   -999.25   -999.25   -999.25   -999.25   -999.25
 1136.4000   1136.40   -999.25   -999.25   -999.25   -999.25   -999.25   -999.25   -999.25   -999.25   -999.25   -999.25   -999.25
 1136.6000   1136.60   -999.25   -999.25   -999.25   -999.25   -999.25   -999.25   -999.25   -999.25   -999.25   -999.25   -999.25
 1136.8000   1136.80   -999.25   -999.25   -999.25   -999.25   -999.25   -999.25   -999.25   -999.25   -999.25   -999.25   -999.25
 1137.0000   1137.00   -999.25   -999.25   -999.25   -999.25   -999.25   -999.25   -999.25   -999.25   -999.25   -999.25   -999.25
 1137.2000   1137.20   -999.25   -999.25   -999.25   -999.25   -999.25   -999.25   -999.25   -999.25   -999.25   -999.25   -999.25
 1137.4000   1137.40   -999.25   -999.25   -999.25   -999.25   -999.25   -999.25   -999.25   -999.25   -999.25   -999.25   -999.25
 1137.6000   1137.60   -999.25   -999.25   -999.25   -999.25   -999.25   -999.25   -999.25   -999.25   -999.25   -999.25   -999.25
 1137.8000   1137.80   -999.25   -999.25   -999.25   -999.25   -999.25   -999.25   -999.25   -999.25   -999.25   -999.25   -999.25
 1138.0000   1138.00   -999.25   -999.25   -999.25   -999.25   -999.25   -999.25   -999.25   -999.25   -999.25   -999.25   -999.25
 1138.2000   1138.20   -999.25   -999.25   -999.25   -999.25   -999.25   -999.25   -999.25   -999.25   -999.25   -999.25   -999.25
 1138.4000   1138.40   -999.25   -999.25   -999.25   -999.25   -999.25   -999.25   -999.25   -999.25   -999.25   -999.25   -999.25
 1138.6000   1138.60   -999.25   -999.25   -999.25   -999.25   -999.25   -999.25   -999.25   -999.25   -999.25   -999.25   -999.25
 1138.8000   1138.80   -999.25   -999.25   -999.25   -999.25   -999.25   -999.25   -999.25   -999.25   -999.25   -999.25   -999.25
 1139.0000   1139.00     24.90   -999.25   -999.25   -999.25   -999.25   -999.25   -999.25   -999.25   -999.25   -999.25   -999.25
 1139.2000   1139.20     24.71     78.00   1775.00     45.97   -999.25   -999.25      1.00     57.23     58.49   -999.25   -999.25
 1139.4000   1139.40     24.52     78.00   1776.00     52.39   -999.25   -999.25      1.00     61.95     65.58   -999.25   -999.25
 1139.6000   1139.60     24.31     78.00   1774.00     56.08   -999.25   -999.25      1.00     66.67     72.66   -999.25   -999.25
 1139.8000   1139.80     24.11     78.00   1780.00     56.28   -999.25   -999.25      1.35     76.85     73.31   -999.25   -999.25
 1140.0000   1140.00     23.91     78.00   1789.00     56.42   -999.25      5.16      1.77     88.31     72.46   -999.25   -999.25
 1140.2000   1140.20     23.71     78.00   1776.00     56.54   -999.25      5.55      1.80     83.65     69.62   -999.25   -999.25
 1140.4000   1140.40     23.51     78.00   1780.00     56.08   -999.25      5.94      1.38     60.44     64.50      2.51      0.60
 1140.6000   1140.60     23.31     78.00   1779.00     56.42   -999.25      6.33      0.95     39.71     60.66      2.51      0.60
 1140.8000   1140.80     23.11     78.00   1782.00     56.25   -999.25      6.72      0.56     37.27     66.14      2.51      0.60
 1141.0000   1141.00     22.91     78.00   1767.00     66.48   -999.25      7.11      0.17     34.84     71.62      2.51      0.60
 1141.2000   1141.20     22.72     78.00   1781.00     66.08   -999.25      7.51      0.00     34.63     72.34      2.51      0.60
 1141.4000   1141.40     22.51     78.00   1780.00     66.12   -999.25      7.90      0.00     36.13     69.41      2.51      0.60
 1141.6000   1141.60     22.31     78.00   1783.00     64.28   -999.25      8.29      0.00     37.63     66.48      2.51      0.60
 1141.8000   1141.80     22.11     78.00   1786.00     66.28   -999.25      8.68      0.91     57.63     66.61      2.51      0.60
 1142.0000   1142.00     21.91     78.00   1775.00     66.09   -999.25      8.96      2.00     81.29     67.33      2.51      0.60
 1142.2000   1142.20     21.71     78.00   1793.00     65.68   -999.25      8.71      2.95    102.10     68.05      2.51      0.60
 1142.4000   1142.40     21.51     78.00   1777.00     77.96   -999.25      8.46      2.35     92.21     68.65      2.51      0.60
 1142.6000   1142.60     21.31     78.00   1787.00     81.25   -999.25      8.21      1.75     82.32     69.25      2.52      0.60
 1142.8000   1142.80     21.11     78.00   1779.00     81.79   -999.25      7.96      1.15     72.42     69.85      2.55      0.60
 1143.0000   1143.00     20.91     78.00   1834.00     82.96   -999.25      7.71      1.00     63.70     70.00      2.59      0.60
 1143.2000   1143.20     20.72     78.00   1970.00     81.25   -999.25      7.46      1.00     55.36     70.00      2.63      0.60
 1143.4000   1143.40     20.51     78.00   1968.00     82.28   -999.25      7.21      1.00     47.02     70.00      2.66      0.60
 1143.6000   1143.60     20.31     78.00   2004.00     82.56   -999.25      6.96      1.00     43.91     68.95      2.70      0.60
 1143.8000   1143.80     20.11     78.00   1981.01     84.96   -999.25      6.71      1.00     51.43     65.76      2.73      0.60
 1144.0000   1144.00     19.91     78.00   1974.00     87.84   -999.25      6.46      1.00     58.95     62.57      2.77      0.60
 1144.2000   1144.20     19.71     76.00   2012.01     54.56   -999.25      6.21      1.12     66.82     61.21      2.80      0.60
 1144.4000   1144.40     19.51     76.00   2069.99     35.24   -999.25      6.09      1.74     76.17     67.44      2.84      0.60
 1144.6000   1144.60     19.31     76.00   2067.00     41.11   -999.25      6.67      1.25     63.40     72.24      2.88      0.60
 1144.8000   1144.80     19.11     76.00   2058.00     36.12   -999.25      7.26      0.02     35.96     75.92      2.86      0.63
 1145.0000   1145.00     18.91     76.00   2036.00     29.10   -999.25      7.84      1.87     77.93     68.52      2.82      0.68
 1145.2000   1145.20     18.71     76.00   2075.01     27.25   -999.25      8.42      1.31     64.53     69.38      2.79      0.72
 1145.4000   1145.40     18.51     76.00   2114.00     26.60   -999.25      9.01      1.00     50.58     71.16      2.75      0.76
 1145.6000   1145.60     18.31     76.00   2076.00     25.00   -999.25      9.74      0.41     39.90     70.83      2.72      0.80
 1145.8000   1145.80     18.11     76.00   2047.01     24.78   -999.25     10.47      0.00     34.87     70.00      2.69      0.80
 1146.0000   1146.00     17.91     76.00   2041.00     21.89   -999.25     11.20      0.00     25.93     68.78      2.67      0.80
 1146.2000   1146.20     17.71     76.00   2049.00     26.92   -999.25     11.93      0.00     24.40     68.00      2.64      0.80
