~Version Information
VERS.                       2.00: SCHLUMBERGER LAS - Version 2.00
WRAP.                         NO: One line per depth step
~Well Information
STRT.M                 1134.0000: Start Depth
STOP.M                 2124.0000: End Depth
STEP.M                    0.2000:  
NULL.                    -999.25:  
COMP.                    Bapetco: COMPANY
WELL.                BED 3 C18-N: WELL
FLD .                      BED 3: FLD
SRVC.               Schlumberger: SERVICE COMPANY
LOC .                           : LOCATION
DATE.                  05-Jul-20: LOG DATE
UWI .                  20EGP0553: API NUMBER
~Curve Information
DEPT.M                          : MWD Tool Measurement Depth
BDEP.M                          : Bit Depth
KPOSI.M                          : Kelly Position (Raw)
HKL .KLBF                       : Hook Load
SPP .PSI                        : Standpipe Pressure
ROP .M/HR                       : Rate of Penetration (MWD Depth Ave.)
PSPD.M/MIN                      : Instantaneous Pipe Speed
VIBC.CPS                        : Vibration Count
SSL_H.                           : Stick Slip Level from HDS1
SSS_H.                           : Stick Slip Percentage from HDS1
RPM_H.                           : Average RPM from HDS1
VIBXYH.                           : Vibration XY
VIBZH.                           : Vibration Z
#     DEPT      BDEP     KPOSI       HKL       SPP       ROP      PSPD      VIBC     SSL_H     SSS_H     RPM_H    VIBXYH     VIBZH
#        M         M         M      KLBF       PSI      M/HR     M/MIN       CPS                                                  
#
# Relog Number     0         0         0         0         0         0         0         0         0         0         0         0
#
~ASCII Data
# ...
 1406.8000   1406.80     16.32     79.00   2338.01     88.22   -999.25     22.17      1.93     88.29     96.13      2.58      1.80
 1407.0000   1407.00     16.09     73.00   2172.00      2.83   -999.25     21.25      0.00     32.61    100.00      2.58      2.13
 1407.2000   1407.20     15.89     71.00   2252.01     86.57   -999.25     20.33      0.00     28.23    100.00      2.62      2.04
 1407.4000   1407.40     15.69     71.00   2308.99     84.52   -999.25     19.42      0.02     24.67     99.98      2.67      1.95
 1407.6000   1407.60     15.49     71.00   2362.99     88.49   -999.25     18.50      0.58     43.64     99.42      2.71      1.86
 1407.8000   1407.80     15.29     71.00   2291.02     88.49   -999.25     17.59      1.14     62.62     98.86      2.76      1.78
 1408.0000   1408.00     15.09     71.00   2275.00     88.28   -999.25     16.67      1.70     81.59     98.30      2.80      1.69
 1408.2000   1408.20     14.89     70.00   2357.00     78.08   -999.25     15.76      2.00     91.55     97.74      2.84      1.60
 1408.4000   1408.40     14.69     70.00   2354.00     84.28   -999.25     14.85      2.00     90.92     97.19      2.82      1.64
 1408.6000   1408.60     14.49     71.00   2350.00     88.55   -999.25     13.99      2.00     90.29     96.63      2.80      1.69
 1408.8000   1408.80     14.29     70.00   2357.00     87.78   -999.25     13.84      2.00     89.66     96.07      2.78      1.73
 1409.0000   1409.00     14.10     70.00   2353.00     80.18   -999.25     13.70      1.69     78.22     97.86      2.76      1.77
 1409.2000   1409.20     13.89     69.00   2391.00     50.86   -999.25     13.55      1.33     65.15    100.00      2.73      1.82
 1409.4000   1409.40     13.69     70.00   2399.00     83.25   -999.25     13.41      1.00     53.01    101.96      2.71      1.86
 1409.6000   1409.60     13.49     71.00   2392.00     88.06   -999.25     13.26      1.00     54.12    101.42      2.69      1.91
 1409.8000   1409.80     13.29     71.00   2369.01     88.22   -999.25     13.12      1.00     55.22    100.87      2.67      1.95
 1410.0000   1410.00     13.09     71.00   2346.00     87.79   -999.25     12.97      1.00     56.33    100.33      2.65      1.99
 1410.2000   1410.20     12.89     71.00   2348.00     88.55   -999.25     12.82      0.89     54.09    100.22      2.63      2.04
 1410.4000   1410.40     12.69     70.00   2367.00     81.90   -999.25     12.68      0.61     46.72    100.77      2.60      2.08
 1410.6000   1410.60     12.49     71.00   2356.00     88.43   -999.25     12.53      0.34     39.35    101.33      2.58      2.13
 1410.8000   1410.80     12.29     71.00   2329.01     88.55   -999.25     12.39      0.06     31.98    101.88      2.56      2.17
 1411.0000   1411.00     12.09     71.00   2385.00     87.78   -999.25     12.24      0.21     38.72    101.15      2.54      2.19
 1411.2000   1411.20     11.90     71.00   2374.99     88.00   -999.25     12.10      0.49     49.33    100.06      2.53      2.14
 1411.4000   1411.40     11.69     71.00   2354.00     88.55   -999.25     12.21      0.76     59.94     98.97      2.52      2.10
 1411.6000   1411.60     11.49     71.00   2383.01     88.00   -999.25     12.85      0.97     67.90     98.07      2.51      2.06
 1411.8000   1411.80     11.29     70.00   2424.99     87.35   -999.25     13.49      0.65     54.32     98.69      2.50      2.02
 1412.0000   1412.00     11.09     71.00   2366.00     59.99   -999.25     14.13      0.34     40.74     99.32      2.49      1.97
 1412.2000   1412.20     10.89     70.00   2335.01     88.28   -999.25     14.77      0.03     27.16     99.95      2.48      1.93
 1412.4000   1412.40     10.69     70.00   2376.99     88.49   -999.25     15.40      0.26     30.62    100.00      2.47      1.89
 1412.6000   1412.60     10.49     69.00   2426.00     79.59   -999.25     16.04      0.54     35.67    100.00      2.46      1.85
 1412.8000   1412.80     10.29     71.00   2407.00     88.49   -999.25     16.68      0.82     40.72    100.00      2.46      1.80
 1413.0000   1413.00     10.09     70.00   2394.00     87.78   -999.25     17.32      1.10     48.26     99.81      2.45      1.76
 1413.2000   1413.20      9.89     70.00   2390.00     88.28   -999.25     17.95      1.37     60.43     99.27      2.44      1.72
 1413.4000   1413.40      9.70     71.00   2394.00     88.43   -999.25     18.59      1.64     72.59     98.72      2.43      1.68
 1413.6000   1413.60      9.49     71.00   2382.00     88.28   -999.25     19.23      1.91     84.76     98.18      2.42      1.63
 1413.8000   1413.80      9.29     70.00   2392.00     88.28   -999.25     19.87      1.63     79.33     98.37      2.41      1.61
 1414.0000   1414.00      9.09     70.00   2423.00     87.56   -999.25     20.51      1.09     65.22     98.91      2.44      1.65
 1414.2000   1414.20      8.89     71.00   2374.99     88.49   -999.25     20.98      0.55     51.11     99.45      2.48      1.69
 1414.4000   1414.40      8.70     70.00   2321.01     88.00   -999.25     20.91      0.00     37.00    100.00      2.51      1.74
 1414.6000   1414.60      8.49     69.00   2360.00     63.24   -999.25     20.84      0.31     47.38     98.77      2.54      1.78
 1414.8000   1414.80      8.29     71.00   2332.01     88.54   -999.25     20.77      0.61     57.75     97.55      2.57      1.82
 1415.0000   1415.00      8.09     71.00   2280.00     87.78   -999.25     20.70      0.92     68.13     96.32      2.60      1.86
 1415.2000   1415.20      7.89     72.00   2274.00     98.27   -999.25     20.62      1.19     74.44     96.75      2.63      1.91
 1415.4000   1415.40      7.69     71.00   2286.00    102.83   -999.25     20.55      1.44     79.32     97.77      2.66      1.95
 1415.6000   1415.60      7.49     70.00   2321.00    101.89   -999.25     20.48      1.70     84.20     98.79      2.69      1.99
 1415.8000   1415.80      7.29     70.00   2322.00     78.92   -999.25     20.41      1.95     89.07     99.81      2.72      2.03
 1416.0000   1416.00      7.10     71.00   2289.00     78.61   -999.25     20.34      1.75     86.07    100.00      2.75      2.08
 1416.2000   1416.20      6.90     71.00   2293.00     79.15   -999.25     20.26      1.45     81.21    100.00      2.78      2.12
 1416.4000   1416.40      6.70     71.00   2300.00     79.25   -999.25     20.19      1.15     76.35    100.00      2.81      2.16
 1416.6000   1416.60      6.49     70.00   2317.00     78.96   -999.25     20.12      1.00     74.27     99.64      2.84      2.20
 1416.8000   1416.80      6.29     71.00   2333.00     78.81   -999.25     20.05      1.00     74.79     98.95      2.82      2.17
 1417.0000   1417.00      6.09     70.00   2303.00     78.61   -999.25     20.20      1.00     75.32     98.26      2.79      2.13
 1417.2000   1417.20      5.89     69.00   2365.00     55.58   -999.25     20.83      1.00     75.99     98.39      2.77      2.10
 1417.4000   1417.40      5.69     71.00   2357.00     79.28   -999.25     21.46      1.00     76.75     99.00      2.75      2.07
 1417.6000   1417.60      5.50     71.00   2333.00     78.96   -999.25     22.09      1.00     77.52     99.61      2.72      2.04
 1417.8000   1417.80      5.29     70.00   2349.00     78.61   -999.25     22.72      0.89     73.52     99.78      2.70      2.01
 1418.0000   1418.00      5.09     70.00   2405.00     77.29   -999.25     23.35      0.58     61.23     99.17      2.68      1.98
 1418.2000   1418.20      4.89     70.00   2376.00     79.10   -999.25     23.98      0.28     48.94     98.56      2.65      1.95
 1418.4000   1418.40      4.69     70.00   2358.00     79.10   -999.25     24.61      0.03     37.96     98.05      2.63      1.91
 1418.6000   1418.60      4.49     70.00   2335.99     78.81   -999.25     25.24      0.33     40.16     98.66      2.61      1.88
 1418.8000   1418.80      4.29     71.00   2280.01     78.84   -999.25     25.86      0.64     42.36     99.27      2.58      1.85
 1419.0000   1419.00      4.09     70.00   2260.00     79.10   -999.25     26.49      0.94     44.56     99.88      2.56      1.82
