~Version Information
VERS.                       2.00: SCHLUMBERGER LAS - Version 2.00
WRAP.                         NO: One line per depth step
~Well Information
STRT.M                 1134.0000: Start Depth
STOP.M                 2124.0000: End Depth
STEP.M                    0.2000:  
NULL.                    -999.25:  
COMP.                    Bapetco: COMPANY
WELL.                BED 3 C18-N: WELL
FLD .                      BED 3: FLD
SRVC.               Schlumberger: SERVICE COMPANY
LOC .                           : LOCATION
DATE.                  05-Jul-20: LOG DATE
UWI .                  20EGP0553: API NUMBER
~Curve Information
DEPT.M                          : MWD Tool Measurement Depth
BDEP.M                          : Bit Depth
KPOSI.M                          : Kelly Position (Raw)
HKL .KLBF                       : Hook Load
SPP .PSI                        : Standpipe Pressure
ROP .M/HR                       : Rate of Penetration (MWD Depth Ave.)
PSPD.M/MIN                      : Instantaneous Pipe Speed
VIBC.CPS                        : Vibration Count
SSL_H.                           : Stick Slip Level from HDS1
SSS_H.                           : Stick Slip Percentage from HDS1
RPM_H.                           : Average RPM from HDS1
VIBXYH.                           : Vibration XY
VIBZH.                           : Vibration Z
#     DEPT      BDEP     KPOSI       HKL       SPP       ROP      PSPD      VIBC     SSL_H     SSS_H     RPM_H    VIBXYH     VIBZH
#        M         M         M      KLBF       PSI      M/HR     M/MIN       CPS                                                  
#
# Relog Number     0         0         0         0         0         0         0         0         0         0         0         0
#
~ASCII Data
# ...
 2113.6000   2113.60     27.87     77.00   1512.00     22.80   -999.25    185.83      0.00     18.81     98.00      6.52      3.83
 2113.8000   2113.80     27.66     77.00   1500.00     23.22   -999.25    174.86      0.00     17.63     98.00      6.53      3.88
 2114.0000   2114.00     27.47     77.00   1497.00     21.53   -999.25    157.29      0.00     16.01     94.14      6.54      3.93
 2114.2000   2114.20     27.27     76.00   1517.99     22.25   -999.25    139.71      0.00     13.33     90.00      6.56      3.99
 2114.4000   2114.40     27.07     77.00   1484.99     24.61   -999.25    122.13      0.00     13.35     89.90      6.28      3.87
 2114.6000   2114.60     26.87     77.00   1462.01     24.73   -999.25    117.51      0.00     13.64     88.02      5.90      3.69
 2114.8000   2114.80     26.67     76.00   1519.99     34.52   -999.25    116.88      0.00     14.50     88.00      5.52      3.52
 2115.0000   2115.00     26.47     76.00   1529.00     24.80   -999.25    116.24      0.00     16.59     89.21      5.14      3.34
 2115.2000   2115.20     26.27     76.00   1526.00     28.09   -999.25    115.61      0.00     18.33     90.00      4.85      3.24
 2115.4000   2115.40     26.06     76.00   1517.01     30.69   -999.25    114.90      0.00     18.49     90.00      4.88      3.42
 2115.6000   2115.60     25.87     76.00   1530.99     26.49   -999.25    112.73      0.00     18.64     90.00      4.92      3.59
 2115.8000   2115.80     25.67     76.00   1525.00     29.88   -999.25    110.56      0.00     22.20     90.00      4.95      3.77
 2116.0000   2116.00     25.47     76.00   1547.00     28.02   -999.25    108.39      0.00     24.54     88.33      4.99      3.95
 2116.2000   2116.20     25.27     76.00   1517.00     23.91   -999.25    106.22      0.00     20.23     89.56      5.02      3.84
 2116.4000   2116.40     25.07     76.00   1525.00     28.45   -999.25    107.15      0.00     20.71     88.65      5.04      3.61
 2116.6000   2116.60     24.87     76.00   1521.00     28.05   -999.25    112.04      0.00     19.53     90.64      5.06      3.39
 2116.8000   2116.80     24.67     76.00   1503.00     26.14   -999.25    116.93      0.00     16.17     89.51      5.08      3.16
 2117.0000   2117.00     24.47     76.00   1517.00     23.14   -999.25    121.82      0.00     14.60     89.04      5.14      3.00
 2117.2000   2117.20     24.27     76.00   1558.00     25.05   -999.25    127.22      0.00     17.62     90.00      5.27      3.00
 2117.4000   2117.40     24.07     75.00   1571.00     25.00   -999.25    135.58      0.00     21.70     90.00      5.40      3.00
 2117.6000   2117.60     23.87     76.00   1568.00     24.81   -999.25    143.95      0.00     19.56     90.00      5.53      3.00
 2117.8000   2117.80     23.67     76.00   1540.01     17.80   -999.25    152.31      0.00     21.99     88.39      5.62      3.00
 2118.0000   2118.00     23.47     76.00   1538.00     25.43   -999.25    158.06      0.00     20.65     89.52      5.70      3.00
 2118.2000   2118.20     23.27     76.00   1534.00     18.96   -999.25    160.48      0.00     20.00     90.00      5.78      3.00
 2118.4000   2118.40     23.07     76.00   1529.00     20.74   -999.25    162.90      0.00     19.78     89.76      5.86      3.00
 2118.6000   2118.60     22.87     76.00   1525.00     27.38   -999.25    165.32      0.00     18.26     88.09      5.91      3.08
 2118.8000   2118.80     22.67     76.00   1529.00     20.68   -999.25    169.90      0.00     20.81     90.00      5.94      3.18
 2119.0000   2119.00     22.47     76.00   1527.00     24.80   -999.25    175.31      0.00     18.61     90.00      5.97      3.29
 2119.2000   2119.20     22.27     76.00   1536.00     21.48   -999.25    180.72      0.00     21.69     90.00      6.00      3.39
 2119.4000   2119.40     22.07     76.00   1530.00     21.65   -999.25    185.89      0.00     18.44     90.00      6.26      3.40
 2119.6000   2119.60     21.87     76.00   1523.00     20.96   -999.25    181.65      0.00     24.87     90.00      6.55      3.40
 2119.8000   2119.80     21.67     75.00   1517.00     21.35   -999.25    177.40      0.00     18.53     90.00      6.83      3.40
 2120.0000   2120.00     21.47     75.00   1525.00     19.31   -999.25    173.15      0.00     17.49     88.53      6.79      3.33
 2120.2000   2120.20     21.27     75.00   1552.00     21.22   -999.25    167.85      0.00     28.06     91.92      6.58      3.22
 2120.4000   2120.40     21.06     76.00   1538.01     17.61   -999.25    161.47      0.00     23.75     90.07      6.36      3.12
 2120.6000   2120.60     20.87     75.00   1558.99     28.02   -999.25    155.10      0.00     33.19     87.34      6.15      3.01
 2120.8000   2120.80     20.66     74.00   1567.00     19.71   -999.25    149.89      0.00     27.90     90.00      6.12      3.05
 2121.0000   2121.00     20.47     75.00   1554.00     19.81   -999.25    149.33      0.00     20.41     90.00      6.12      3.11
 2121.2000   2121.20     20.27     75.00   1554.00     20.54   -999.25    148.77      0.00     23.15     87.15      6.12      3.17
 2121.4000   2121.40     20.07     75.00   1544.99     20.04   -999.25    148.21      0.95     41.41     89.82      6.16      3.27
 2121.6000   2121.60     19.86     75.00   1531.01     19.43   -999.25    156.52      0.00     21.94     90.00      6.21      3.38
 2121.8000   2121.80     19.67     75.00   1534.00     19.80   -999.25    170.15      0.00     20.95     89.50      6.27      3.50
 2122.0000   2122.00     19.47     75.00   1523.00     14.01   -999.25    183.79      0.00     28.89     90.00      6.32      3.58
 2122.2000   2122.20     19.27     76.00   1464.01     25.19   -999.25   -999.25      0.00     20.01     88.00      6.25      3.46
 2122.4000   2122.40     19.07     75.00   1504.04     21.82   -999.25   -999.25      0.25     28.76     87.01      6.19      3.33
 2122.6000   2122.60     18.87     75.45   1584.49     20.49   -999.25   -999.25      1.00     64.29     84.00      6.12      3.20
 2122.8000   2122.80     18.90     75.91   1664.93     19.17   -999.25   -999.25   -999.25   -999.25   -999.25   -999.25   -999.25
 2123.0000   2123.00     18.93     76.36   1745.38     17.84   -999.25   -999.25   -999.25   -999.25   -999.25   -999.25   -999.25
 2123.2000   2123.20     18.95     76.82   1825.83     16.51   -999.25   -999.25   -999.25   -999.25   -999.25   -999.25   -999.25
 2123.4000   2123.40     18.98     77.27   1906.28     15.19   -999.25   -999.25   -999.25   -999.25   -999.25   -999.25   -999.25
 2123.6000   2123.60     19.01     77.73   1986.72     13.86   -999.25   -999.25   -999.25   -999.25   -999.25   -999.25   -999.25
 2123.8000   2123.80     19.04     78.18   2067.17     12.54   -999.25   -999.25   -999.25   -999.25   -999.25   -999.25   -999.25
 2124.0000   2124.00     19.07     78.64   2147.62     11.21   -999.25   -999.25   -999.25   -999.25   -999.25   -999.25   -999.25
