~Version Information
VERS.                       2.00: SCHLUMBERGER LAS - Version 2.00
WRAP.                         NO: One line per depth step
~Well Information
STRT.M                 1134.0000: Start Depth
STOP.M                 2124.0000: End Depth
STEP.M                    0.2000:  
NULL.                    -999.25:  
COMP.                    Bapetco: COMPANY
WELL.                BED 3 C18-N: WELL
FLD .                      BED 3: FLD
SRVC.               Schlumberger: SERVICE COMPANY
LOC .                           : LOCATION
DATE.                  05-Jul-20: LOG DATE
UWI .                  20EGP0553: API NUMBER
~Curve Information
DEPT.M                          : MWD Tool Measurement Depth
BDEP.M                          : Bit Depth
KPOSI.M                          : Kelly Position (Raw)
HKL .KLBF                       : Hook Load
SPP .PSI                        : Standpipe Pressure
ROP .M/HR                       : Rate of Penetration (MWD Depth Ave.)
PSPD.M/MIN                      : Instantaneous Pipe Speed
VIBC.CPS                        : Vibration Count
SSL_H.                           : Stick Slip Level from HDS1
SSS_H.                           : Stick Slip Percentage from HDS1
RPM_H.                           : Average RPM from HDS1
VIBXYH.                           : Vibration XY
VIBZH.                           : Vibration Z
#     DEPT      BDEP     KPOSI       HKL       SPP       ROP      PSPD      VIBC     SSL_H     SSS_H     RPM_H    VIBXYH     VIBZH
#        M         M         M      KLBF       PSI      M/HR     M/MIN       CPS                                                  
#
# Relog Number     0         0         0         0         0         0         0         0         0         0         0         0
#
~ASCII Data
# ...
 1530.8000   1530.80      8.03     69.00   2578.99     59.84   -999.25     20.44      0.00     35.28     98.91      2.51      1.27
 1531.0000   1531.00      7.83     69.00   2542.00     41.90   -999.25     19.10      0.07     36.47     97.93      2.48      1.30
 1531.2000   1531.20      7.63     69.00   2571.99     39.07   -999.25     17.76      1.41     68.91     96.59      2.46      1.33
 1531.4000   1531.40      7.43     69.00   2524.01     29.61   -999.25     16.43      2.00     88.43     98.23      2.44      1.36
 1531.6000   1531.60      7.23     69.00   2546.99     40.82   -999.25     16.11      2.00     96.46    101.83      2.41      1.39
 1531.8000   1531.80      7.03     69.00   2458.02     35.00   -999.25     16.27      2.00     86.45     99.06      2.43      1.42
 1532.0000   1532.00      6.83     69.00   2319.00     38.35   -999.25     16.42      2.33     91.23     98.65      2.45      1.45
 1532.2000   1532.20      6.63     68.00   2338.99     51.64   -999.25     16.58      2.85    105.06     99.70      2.47      1.49
 1532.4000   1532.40      6.43     68.00   2316.00     34.34   -999.25     16.74      2.49     99.81     98.99      2.50      1.52
 1532.6000   1532.60      6.23     68.00   2443.02     32.58   -999.25     16.90      1.81     82.54     98.39      2.52      1.55
 1532.8000   1532.80      6.03     68.00   2622.96     39.97   -999.25     17.18      1.16     54.90     99.68      2.55      1.58
 1533.0000   1533.00      5.83     68.00   2698.00     42.34   -999.25     17.68      1.47     66.28    100.00      2.54      1.60
 1533.2000   1533.20      5.63     68.00   2621.01     33.12   -999.25     18.18      2.00     86.67     99.19      2.49      1.60
 1533.4000   1533.40      5.43     68.00   2655.00     37.56   -999.25     18.68      2.00     84.44     93.81      2.44      1.60
 1533.6000   1533.60      5.23     68.00   2638.00     35.53   -999.25     19.18      2.00     90.14     96.82      2.39      1.60
 1533.8000   1533.80      5.03     68.00   2621.00     32.78   -999.25     19.68      1.82     90.08    100.92      2.34      1.60
 1534.0000   1534.00      4.83     68.00   2653.00     35.75   -999.25     19.81      1.19     65.56     97.12      2.29      1.60
 1534.2000   1534.20      4.63     68.00   2660.99     41.88   -999.25     19.28      1.00     56.33     96.00      2.26      1.61
 1534.4000   1534.40      4.43     68.00   2627.00     32.02   -999.25     18.76      1.17     60.62     96.99      2.26      1.65
 1534.6000   1534.60      4.23     68.00   2657.00     34.13   -999.25     18.23      1.87     88.07    101.22      2.26      1.68
 1534.8000   1534.80      4.03     68.00   2622.01     34.11   -999.25     17.70      2.00     91.77     99.65      2.26      1.72
 1535.0000   1535.00      3.83     68.00   2617.00     31.03   -999.25     17.18      1.71     77.72     98.57      2.26      1.75
 1535.2000   1535.20      3.63     68.00   2690.00     39.72   -999.25     17.55      1.05     47.28     99.90      2.26      1.78
 1535.4000   1535.40      3.43     69.00   2673.00     55.56   -999.25     18.38      1.80     70.47     98.39      2.26      1.80
 1535.6000   1535.60      3.23     69.00   2676.00     58.67   -999.25     19.22      2.67     98.00     96.65      2.26      1.80
 1535.8000   1535.80      3.03     68.00   2640.01     36.92   -999.25     20.05      2.59     99.75     98.44      2.26      1.80
 1536.0000   1536.00      2.83     68.00   2678.00     40.58   -999.25     20.88      2.06     88.49    101.45      2.26      1.80
 1536.2000   1536.20      2.63     68.00   2641.00     36.75   -999.25     21.71      2.67    102.36     95.29      2.26      1.80
 1536.4000   1536.40      2.43     68.00   2657.00     41.16   -999.25     22.55      2.41     95.88     94.38      2.26      1.80
 1536.6000   1536.60      2.23     68.00   2666.99     36.45   -999.25     22.84      1.13     65.99     99.49      2.26      1.80
 1536.8000   1536.80      2.03     70.00   2592.02     20.47   -999.25     22.48      2.16     92.49     96.33      2.31      1.80
 1537.0000   1537.00      1.83     69.00   2565.00     34.28   -999.25     22.12      2.84    100.25     97.69      2.38      1.80
 1537.2000   1537.20     30.05     72.00   2304.02      4.05   -999.25     20.16      0.00     10.15     99.91      2.55      1.61
 1537.4000   1537.40     29.86     71.00   2383.99     23.61   -999.25     19.27      0.00     20.91     98.23      2.59      1.67
 1537.6000   1537.60     29.65     69.00   2511.01     43.04   -999.25     19.74      0.00     26.44     98.00      2.61      1.74
 1537.8000   1537.80     29.46     69.00   2583.98     32.33   -999.25     20.21      0.23     35.87     98.92      2.64      1.80
 1538.0000   1538.00     29.25     69.00   2578.00     33.82   -999.25     20.67      0.97     56.15    101.90      2.67      1.87
 1538.2000   1538.20     29.06     68.00   2594.01     46.55   -999.25     21.14      0.47     44.77    100.94      2.70      1.94
 1538.4000   1538.40     28.85     68.00   2650.99     39.77   -999.25     21.61      0.24     40.20     99.18      2.72      2.00
 1538.6000   1538.60     28.65     68.00   2633.00     38.83   -999.25     22.00      1.99     84.38     93.37      2.69      2.00
 1538.8000   1538.80     28.46     68.00   2633.00     44.00   -999.25     22.00      2.73    104.68     91.65      2.67      2.00
 1539.0000   1539.00     28.25     68.00   2575.00     36.10   -999.25     22.00      2.07     92.01     95.57      2.64      2.00
 1539.2000   1539.20     28.05     68.00   2470.97     38.42   -999.25     22.00      1.41     64.91     98.36      2.62      2.00
 1539.4000   1539.40     27.85     68.00   2348.01     32.06   -999.25     22.00      1.00     54.43    100.00      2.59      2.00
 1539.6000   1539.60     27.66     68.00   2458.02     41.21   -999.25     22.00      1.00     73.99    100.00      2.57      2.00
 1539.8000   1539.80     27.45     68.00   2621.96     42.34   -999.25     22.00      1.45     87.41     98.20      2.58      2.00
 1540.0000   1540.00     27.26     68.00   2692.00     42.81   -999.25     22.99      2.02     99.46     95.89      2.60      2.00
 1540.2000   1540.20     27.06     68.00   2615.00     32.28   -999.25     24.30      2.77    119.54     91.36      2.63      2.00
 1540.4000   1540.40     26.85     68.00   2624.00     40.06   -999.25     25.60      2.25    108.04     93.76      2.65      2.00
 1540.6000   1540.60     26.65     68.00   2641.01     43.76   -999.25     26.90      1.17     83.00     99.14      2.67      2.00
 1540.8000   1540.80     26.46     68.00   2714.98     50.25   -999.25     28.21      1.86     94.31     95.68      2.69      2.00
 1541.0000   1541.00     26.25     68.00   2634.00     44.96   -999.25     29.51      2.89    112.53     90.54      2.72      2.00
 1541.2000   1541.20     26.05     68.00   2647.00     39.82   -999.25     30.82      2.49    106.61     95.07      2.74      2.00
 1541.4000   1541.40     25.86     68.00   2641.00     38.56   -999.25     30.62      2.08    100.02     99.83      2.75      2.00
 1541.6000   1541.60     25.65     68.00   2633.01     37.38   -999.25     30.17      2.73    107.88     98.55      2.77      2.00
 1541.8000   1541.80     25.45     68.00   2678.99     54.49   -999.25     29.72      2.69    105.23     98.00      2.79      2.00
 1542.0000   1542.00     25.26     68.00   2648.00     40.31   -999.25     29.28      2.15     94.81     98.00      2.81      2.00
 1542.2000   1542.20     25.05     68.00   2648.99     42.06   -999.25     28.83      2.00     92.25     97.06      2.83      2.00
 1542.4000   1542.40     24.85     68.00   2595.01     30.43   -999.25     28.39      1.90     89.89     96.63      2.84      1.99
 1542.6000   1542.60     24.66     68.00   2708.99     53.61   -999.25     28.05      1.37     75.78     99.76      2.82      1.97
 1542.8000   1542.80     24.45     68.00   2666.01     49.12   -999.25     28.45      1.14     70.21    101.13      2.80      1.94
 1543.0000   1543.00     24.25     68.00   2680.00     52.83   -999.25     28.85      1.65     86.09     98.08      2.78      1.91
