~Version Information
VERS.                       2.00: SCHLUMBERGER LAS - Version 2.00
WRAP.                         NO: One line per depth step
~Well Information
STRT.M                 2124.0000: Start Depth
STOP.M                 3002.8000: End Depth
STEP.M                    0.2000:  
NULL.                    -999.25:  
COMP.                    Bapetco: COMPANY
WELL.                BED 3 C18-N: WELL
FLD .                      BED 3: FLD
SRVC.               Schlumberger: SERVICE COMPANY
LOC .                           : LOCATION
DATE.                  07-Jul-20: LOG DATE
UWI .                  20EGP0553: API NUMBER
~Curve Information
DEPT.M                          : MWD Tool Measurement Depth
BDEP.M                          : Bit Depth
KPOSI.M                          : Kelly Position (Raw)
HKL .KLBF                       : Hook Load
SPP .PSI                        : Standpipe Pressure
ROP .M/HR                       : Rate of Penetration (MWD Depth Ave.)
PSPD.M/MIN                      : Instantaneous Pipe Speed
VIBC.CPS                        : Vibration Count
SSL_H.                           : Stick Slip Level from HDS1
SSS_H.                           : Stick Slip Percentage from HDS1
RPM_H.                           : Average RPM from HDS1
VIBXYH.                           : Vibration XY
VIBZH.                           : Vibration Z
#     DEPT      BDEP     KPOSI       HKL       SPP       ROP      PSPD      VIBC     SSL_H     SSS_H     RPM_H    VIBXYH     VIBZH
#        M         M         M      KLBF       PSI      M/HR     M/MIN       CPS                                                  
#
# Relog Number     0         0         0         0         0         0         0         0         0         0         0         0
#
~ASCII Data
# ...
 2409.2000   2409.20     19.86     78.00   3056.00     53.74   -999.25     92.26      0.00     14.27     98.02      5.93      3.54
 2409.4000   2409.40     19.66     78.00   3046.99     61.08   -999.25     90.28      0.00     13.40     98.78      5.94      3.56
 2409.6000   2409.60     19.46     78.00   3026.01     63.28   -999.25     91.02      0.00     12.52     99.54      5.95      3.58
 2409.8000   2409.80     19.26     78.00   3023.00     66.64   -999.25     91.75      0.00     12.62     99.62      5.96      3.60
 2410.0000   2410.00     19.06     78.00   3028.00     53.41   -999.25     92.48      0.00     14.16     98.69      5.81      3.54
 2410.2000   2410.20     18.86     77.00   3042.00     40.72   -999.25     93.22      0.00     15.12     98.30      5.66      3.49
 2410.4000   2410.40     18.66     77.00   3048.00     39.70   -999.25     93.95      0.00     14.36     99.45      5.50      3.44
 2410.6000   2410.60     18.46     77.00   3038.00     48.11   -999.25     94.69      0.00     13.15    100.00      5.35      3.38
 2410.8000   2410.80     18.26     77.00   3034.00     44.00   -999.25     95.42      0.00     11.54    100.00      5.20      3.33
 2411.0000   2411.00     18.06     77.00   3038.00     44.00   -999.25     96.54      0.00     10.62    100.00      5.05      3.27
 2411.2000   2411.20     17.86     77.00   3043.00     40.97   -999.25     99.10      0.00     10.04    100.00      4.89      3.22
 2411.4000   2411.40     17.66     78.00   3028.99     41.36   -999.25    101.67      0.00     10.00    100.00      4.87      3.18
 2411.6000   2411.60     17.46     78.00   3000.01     34.03   -999.25    104.24      0.00      9.55    100.00      4.91      3.14
 2411.8000   2411.80     17.26     78.00   2995.00     36.54   -999.25    106.80      0.00      8.26    100.00      4.95      3.11
 2412.0000   2412.00     17.05     78.00   3001.00     34.32   -999.25    109.37      0.00      9.86     98.85      4.99      3.08
 2412.2000   2412.20     16.86     78.00   3010.00     36.69   -999.25    111.93      0.00     11.73     98.58      5.04      3.04
 2412.4000   2412.40     16.66     78.00   3009.00     32.65   -999.25    108.67      0.00     12.97     99.97      5.08      3.01
 2412.6000   2412.60     16.46     78.00   3001.00     42.95   -999.25    105.26      0.00     13.76     98.82      5.17      2.98
 2412.8000   2412.80     16.26     78.00   3026.99     33.90   -999.25    101.85      0.00     14.81     98.88      5.28      2.95
 2413.0000   2413.00     16.06     78.00   3030.00     34.86   -999.25     98.44      0.00     16.47    101.67      5.39      2.91
 2413.2000   2413.20     15.86     78.00   3011.00     42.86   -999.25     95.03      0.00     14.91     99.94      5.51      2.88
 2413.4000   2413.40     15.66     78.00   3014.01     36.73   -999.25     91.61      0.00     13.35     98.23      5.62      2.85
 2413.6000   2413.60     15.46     78.00   3029.99     39.16   -999.25     95.81      0.00     13.83     99.52      5.73      2.82
 2413.8000   2413.80     15.26     78.00   3036.00     37.40   -999.25    101.68      0.00     14.00    100.00      5.81      2.83
 2414.0000   2414.00     15.06     78.00   3015.00     39.11   -999.25    107.55      0.00     13.98     99.94      5.83      2.89
 2414.2000   2414.20     14.86     78.00   3038.00     37.84   -999.25    113.42      0.00     13.52     98.69      5.86      2.96
 2414.4000   2414.40     14.66     78.00   3037.99     33.90   -999.25    119.28      0.00     12.57     98.62      5.88      3.02
 2414.6000   2414.60     14.46     78.00   3023.01     37.93   -999.25    125.15      0.00     11.01     99.99      5.91      3.09
 2414.8000   2414.80     14.26     78.00   3037.00     39.78   -999.25    127.50      0.00      9.78     98.66      5.93      3.16
 2415.0000   2415.00     14.06     78.00   3026.00     32.00   -999.25    126.53      0.00     10.53     98.71      5.91      3.20
 2415.2000   2415.20     13.86     78.00   2888.00     35.02   -999.25    125.56      0.00     12.85     99.92      5.81      3.20
 2415.4000   2415.40     13.66     78.00   2884.05     36.83   -999.25    124.60      0.00     10.40     98.64      5.70      3.20
 2415.6000   2415.60     13.46     78.00   2985.95     41.52   -999.25    123.63      0.00      9.13     98.57      5.59      3.20
 2415.8000   2415.80     13.26     78.00   3008.99     43.32   -999.25    122.66      0.00      9.02     99.72      5.49      3.20
 2416.0000   2416.00     13.06     78.00   2975.00     38.21   -999.25    120.43      0.00      9.52     99.13      5.38      3.20
 2416.2000   2416.20     12.86     78.00   2973.01     42.96   -999.25    115.50      0.00     10.27     98.02      5.28      3.20
 2416.4000   2416.40     12.65     78.00   3013.01     45.35   -999.25    110.58      0.00     14.79     99.18      5.18      3.20
 2416.6000   2416.60     12.45     78.00   3023.99     40.67   -999.25    105.65      0.00     16.95     99.73      5.09      3.20
 2416.8000   2416.80     12.26     78.00   3031.00     51.04   -999.25    100.73      0.00     13.31     98.80      4.99      3.20
 2417.0000   2417.00     12.06     78.00   3055.00     49.86   -999.25     95.80      0.00     10.19     98.13      4.90      3.20
 2417.2000   2417.20     11.85     78.00   3034.00     56.66   -999.25     90.88      0.00     10.10     99.01      4.81      3.20
 2417.4000   2417.40     11.66     78.00   3049.99     53.67   -999.25     85.96      0.00     10.01     99.90      4.72      3.20
 2417.6000   2417.60     11.46     78.00   3021.01     42.77   -999.25     85.62      0.00     13.26     98.97      4.62      3.20
 2417.8000   2417.80     11.26     78.00   3028.00     37.05   -999.25     92.17      0.00     15.97     98.21      4.55      3.20
 2418.0000   2418.00     11.06     78.00   3039.00     42.24   -999.25     98.72      0.00     13.87     99.48      4.78      3.13
 2418.2000   2418.20     10.86     78.00   3038.00     35.42   -999.25    105.27      0.00     13.00    100.00      5.01      3.07
 2418.4000   2418.40     10.66     78.00   3029.00     36.04   -999.25    111.82      0.00     12.76    100.00      5.24      3.00
 2418.6000   2418.60     10.45     78.00   3022.00     36.21   -999.25    118.37      0.00     10.79    100.00      5.47      2.94
 2418.8000   2418.80     10.26     78.00   3023.00     35.82   -999.25    123.32      0.00     11.71     99.20      5.71      2.87
 2419.0000   2419.00     10.05     78.00   3026.00     36.61   -999.25    118.43      0.00     14.17     98.00      5.94      2.81
 2419.2000   2419.20      9.86     78.00   3031.00     38.12   -999.25    113.55      0.00     12.95     98.00      5.88      2.82
 2419.4000   2419.40      9.66     78.00   3040.00     44.99   -999.25    108.66      0.00     12.39     98.39      5.78      2.84
 2419.6000   2419.60      9.46     78.00   3042.00     52.04   -999.25    103.78      0.00     12.74     99.32      5.67      2.87
 2419.8000   2419.80      9.26     79.00   3023.00     53.07   -999.25     98.89      0.00     13.12    100.00      5.57      2.89
 2420.0000   2420.00      9.05     79.00   2951.00     51.09   -999.25     94.01      0.00     13.56    100.00      5.47      2.91
 2420.2000   2420.20      8.86     79.00   2780.96     59.47   -999.25     89.12      0.00     14.02     99.98      5.37      2.94
 2420.4000   2420.40      8.66     79.00   2615.99     59.91   -999.25     83.98      0.00     14.97     99.17      5.27      2.96
 2420.6000   2420.60      8.46     79.00   2594.01     58.01   -999.25     78.39      0.00     15.91     98.36      5.17      2.98
 2420.8000   2420.80      8.26     79.00   2581.00     59.18   -999.25     72.80      0.00     18.26     98.00      5.07      2.98
 2421.0000   2421.00      8.06     79.00   2591.00     56.18   -999.25     67.21      0.00     21.71     98.00      4.98      2.91
 2421.2000   2421.20      7.85     79.00   2609.00     56.32   -999.25     61.62      0.00     23.82     98.18      4.90      2.84
 2421.4000   2421.40      7.66     79.00   2616.00     58.22   -999.25     56.04      0.00     20.42     99.09      4.81      2.76
