~Version Information
VERS.                       2.00: SCHLUMBERGER LAS - Version 2.00
WRAP.                         NO: One line per depth step
~Well Information
STRT.M                 2124.0000: Start Depth
STOP.M                 3002.8000: End Depth
STEP.M                    0.2000:  
NULL.                    -999.25:  
COMP.                    Bapetco: COMPANY
WELL.                BED 3 C18-N: WELL
FLD .                      BED 3: FLD
SRVC.               Schlumberger: SERVICE COMPANY
LOC .                           : LOCATION
DATE.                  07-Jul-20: LOG DATE
UWI .                  20EGP0553: API NUMBER
~Curve Information
DEPT.M                          : MWD Tool Measurement Depth
BDEP.M                          : Bit Depth
KPOSI.M                          : Kelly Position (Raw)
HKL .KLBF                       : Hook Load
SPP .PSI                        : Standpipe Pressure
ROP .M/HR                       : Rate of Penetration (MWD Depth Ave.)
PSPD.M/MIN                      : Instantaneous Pipe Speed
VIBC.CPS                        : Vibration Count
SSL_H.                           : Stick Slip Level from HDS1
SSS_H.                           : Stick Slip Percentage from HDS1
RPM_H.                           : Average RPM from HDS1
VIBXYH.                           : Vibration XY
VIBZH.                           : Vibration Z
#     DEPT      BDEP     KPOSI       HKL       SPP       ROP      PSPD      VIBC     SSL_H     SSS_H     RPM_H    VIBXYH     VIBZH
#        M         M         M      KLBF       PSI      M/HR     M/MIN       CPS                                                  
#
# Relog Number     0         0         0         0         0         0         0         0         0         0         0         0
#
~ASCII Data
# ...
 2297.6000   2297.60     15.42     77.00   2854.00     40.17   -999.25    101.36      0.00     15.81    101.22      5.73      3.75
 2297.8000   2297.80     15.22     76.00   2886.99     43.43   -999.25    100.91      0.00     15.99    100.03      5.64      3.81
 2298.0000   2298.00     15.02     76.00   2913.00     39.69   -999.25    100.45      0.00     11.47    100.00      5.56      3.87
 2298.2000   2298.20     14.82     76.00   2898.00     44.00   -999.25    100.00      0.00      9.41    100.00      5.48      3.93
 2298.4000   2298.40     14.63     76.00   2907.00     40.04   -999.25    100.00      0.00     14.95    100.00      5.39      3.99
 2298.6000   2298.60     14.42     76.00   2914.00     43.23   -999.25    100.00      0.00     16.64    100.00      5.36      3.97
 2298.8000   2298.80     14.22     76.00   2934.00     44.93   -999.25    100.00      0.00     13.63    100.00      5.34      3.94
 2299.0000   2299.00     14.02     76.00   2917.00     36.69   -999.25    100.00      0.00     17.83    100.00      5.32      3.91
 2299.2000   2299.20     13.82     77.00   2905.00     37.09   -999.25    100.00      0.00     22.23    100.00      5.30      3.88
 2299.4000   2299.40     13.62     77.00   2885.98     42.41   -999.25    100.00      0.00     17.24    100.00      5.27      3.85
 2299.6000   2299.60     13.42     77.00   2850.02     34.28   -999.25    100.78      0.00     13.94    100.65      5.25      3.82
 2299.8000   2299.80     13.22     76.00   2883.99     46.05   -999.25    102.57      0.00     12.02    101.84      5.24      3.81
 2300.0000   2300.00     13.02     76.00   2884.00     31.30   -999.25    104.36      0.00     13.41     99.40      5.29      3.84
 2300.2000   2300.20     12.82     76.00   2864.00     37.42   -999.25    106.15      0.00     13.01     99.46      5.35      3.87
 2300.4000   2300.40     12.62     76.00   2864.99     32.92   -999.25    107.95      0.00     10.75    101.91      5.40      3.91
 2300.6000   2300.60     12.42     77.00   2854.01     36.21   -999.25    109.74      0.00     10.23    100.59      5.45      3.94
 2300.8000   2300.80     12.22     76.00   2896.99     44.00   -999.25    109.21      0.00     13.62    100.00      5.50      3.98
 2301.0000   2301.00     12.02     77.00   2907.00     36.08   -999.25    103.13      0.00     20.21    100.00      5.51      3.99
 2301.2000   2301.20     11.83     77.00   2899.00     45.15   -999.25     97.06      0.00     20.01    100.00      5.45      3.96
 2301.4000   2301.40     11.62     77.00   2905.02     40.27   -999.25     90.99      0.00     19.13    100.00      5.38      3.93
 2301.6000   2301.60     11.42     77.00   2944.98     45.65   -999.25     84.91      0.00     20.28    100.00      5.32      3.90
 2301.8000   2301.80     11.23     77.00   2946.00     40.33   -999.25     78.84      0.00     19.29    100.00      5.25      3.87
 2302.0000   2302.00     11.02     77.00   2919.00     42.96   -999.25     72.77      0.00     14.73    100.00      5.19      3.84
 2302.2000   2302.20     10.82     76.00   2900.99     33.73   -999.25     68.82      0.00     12.10    100.00      5.12      3.81
 2302.4000   2302.40     10.62     77.00   2861.01     35.32   -999.25     68.36      0.00     10.97    100.28      5.05      3.82
 2302.6000   2302.60     10.42     77.00   2875.99     40.84   -999.25     67.89      0.00     10.84    101.44      4.97      3.85
 2302.8000   2302.80     10.22     77.00   2905.99     33.56   -999.25     67.43      0.00     14.59    101.32      4.88      3.88
 2303.0000   2303.00     10.03     77.00   2922.00     43.18   -999.25     66.96      0.00     21.93    100.01      4.80      3.91
 2303.2000   2303.20      9.82     77.00   2932.00     46.86   -999.25     66.50      0.00     20.66    101.12      4.72      3.93
 2303.4000   2303.40      9.62     77.00   2936.00     40.77   -999.25     66.03      0.00     18.81    101.76      4.64      3.96
 2303.6000   2303.60      9.43     77.00   2944.00     48.47   -999.25     70.14      0.00     15.26    100.68      4.56      3.99
 2303.8000   2303.80      9.22     76.00   2952.00     35.73   -999.25     74.60      0.00     14.56    100.47      4.59      3.94
 2304.0000   2304.00      9.02     76.00   2958.00     41.80   -999.25     79.06      0.00     18.84    101.77      4.68      3.85
 2304.2000   2304.20      8.82     77.00   2942.00     35.73   -999.25     83.52      0.00     18.81    101.01      4.76      3.76
 2304.4000   2304.40      8.62     77.00   2944.01     41.98   -999.25     87.98      0.00     17.35    100.00      4.84      3.67
 2304.6000   2304.60      8.42     77.00   2965.99     44.06   -999.25     92.43      0.00     13.28    100.00      4.93      3.58
 2304.8000   2304.80      8.22     77.00   2938.01     38.12   -999.25     95.74      0.00     11.46    100.52      5.01      3.49
 2305.0000   2305.00      8.02     77.00   2953.00     44.49   -999.25     94.41      0.00     12.50    101.71      5.09      3.40
 2305.2000   2305.20      7.82     76.00   2948.01     40.48   -999.25     93.09      0.00     12.42    101.11      5.07      3.43
 2305.4000   2305.40      7.62     77.00   2973.99     37.89   -999.25     91.76      0.00     11.96    100.00      5.05      3.47
 2305.6000   2305.60      7.42     77.00   2949.01     31.53   -999.25     90.44      0.00     11.18    100.00      5.03      3.50
 2305.8000   2305.80      7.23     77.00   2940.00     30.10   -999.25     89.11      0.00     15.31    100.00      5.01      3.54
 2306.0000   2306.00      7.02     77.00   2833.00     35.99   -999.25     88.12      0.00     17.63    100.52      4.98      3.57
 2306.2000   2306.20      6.82     77.00   2597.99     29.48   -999.25     88.91      0.00     13.73    101.98      4.98      3.60
 2306.4000   2306.40      6.62     77.00   2557.01     30.36   -999.25     89.69      0.00     13.95    100.36      5.03      3.60
 2306.6000   2306.60      6.42     77.00   2580.99     33.61   -999.25     90.47      0.00     26.95     98.75      5.08      3.60
 2306.8000   2306.80      6.23     77.00   2631.99     30.83   -999.25     91.25      0.00     27.57     99.67      5.13      3.60
 2307.0000   2307.00      6.03     77.00   2874.00     29.77   -999.25     92.18      0.00     17.54    101.66      5.18      3.60
 2307.2000   2307.20      5.83     77.00   2958.00     36.30   -999.25     97.21      0.00     17.11    100.35      5.24      3.60
 2307.4000   2307.40      5.62     77.00   2944.97     28.23   -999.25    102.25      0.00     16.36    100.00      5.28      3.50
 2307.6000   2307.60      5.42     77.00   2875.03     23.16   -999.25    107.28      0.00     15.59    102.68      5.32      3.40
 2307.8000   2307.80      5.22     77.00   2855.00     20.63   -999.25    112.31      0.00     11.87    100.79      5.36      3.30
 2308.0000   2308.00      5.02     77.00   2884.00     24.28   -999.25    111.45      0.00      9.25    100.00      5.40      3.20
 2308.2000   2308.20      4.82     77.00   2890.00     27.82   -999.25    107.61      0.00     17.61     98.61      5.37      3.24
 2308.4000   2308.40      4.63     77.00   2888.00     26.07   -999.25    103.77      0.00     17.71    100.22      5.34      3.28
 2308.6000   2308.60      4.42     78.00   2893.00     32.37   -999.25     99.93      0.00     15.19    101.25      5.31      3.32
 2308.8000   2308.80      4.22     77.00   2904.00     32.36   -999.25     96.09      0.00     16.45    100.25      5.28      3.37
 2309.0000   2309.00      4.02     77.00   2868.00     29.04   -999.25     96.65      0.00     19.45    101.91      5.23      3.42
 2309.2000   2309.20      3.82     77.00   2865.99     26.30   -999.25     97.31      0.00     16.55    100.30      5.10      3.51
 2309.4000   2309.40      3.62     77.00   2837.00     24.61   -999.25     97.97      0.00     13.63    100.00      4.98      3.59
 2309.6000   2309.60      3.42     77.00   2832.00     30.43   -999.25     98.63      0.00     10.13    101.37      4.85      3.68
 2309.8000   2309.80      3.23     77.00   2802.01     25.22   -999.25     98.73      0.00     11.47    100.98      4.73      3.77
