~Version Information
VERS.                       2.00: SCHLUMBERGER LAS - Version 2.00
WRAP.                         NO: One line per depth step
~Well Information
STRT.M                 1134.0000: Start Depth
STOP.M                 2124.0000: End Depth
STEP.M                    0.2000:  
NULL.                    -999.25:  
COMP.                    Bapetco: COMPANY
WELL.                BED 3 C18-N: WELL
FLD .                      BED 3: FLD
SRVC.               Schlumberger: SERVICE COMPANY
LOC .                           : LOCATION
DATE.                  05-Jul-20: LOG DATE
UWI .                  20EGP0553: API NUMBER
~Curve Information
DEPT.M                          : MWD Tool Measurement Depth
BDEP.M                          : Bit Depth
KPOSI.M                          : Kelly Position (Raw)
HKL .KLBF                       : Hook Load
SPP .PSI                        : Standpipe Pressure
ROP .M/HR                       : Rate of Penetration (MWD Depth Ave.)
PSPD.M/MIN                      : Instantaneous Pipe Speed
VIBC.CPS                        : Vibration Count
SSL_H.                           : Stick Slip Level from HDS1
SSS_H.                           : Stick Slip Percentage from HDS1
RPM_H.                           : Average RPM from HDS1
VIBXYH.                           : Vibration XY
VIBZH.                           : Vibration Z
#     DEPT      BDEP     KPOSI       HKL       SPP       ROP      PSPD      VIBC     SSL_H     SSS_H     RPM_H    VIBXYH     VIBZH
#        M         M         M      KLBF       PSI      M/HR     M/MIN       CPS                                                  
#
# Relog Number     0         0         0         0         0         0         0         0         0         0         0         0
#
~ASCII Data
# ...
 1592.8000   1592.80      3.56     71.00   2515.00     17.37   -999.25    210.97      0.00     21.28     78.00      6.84      4.59
 1593.0000   1593.00      3.36     71.00   2509.00     14.36   -999.25    206.41      0.00     12.90     78.00      6.83      4.51
 1593.2000   1593.20      3.16     71.00   2513.00     16.16   -999.25    203.24      0.00     14.10     78.00      6.82      4.43
 1593.4000   1593.40      2.96     71.00   2509.00     14.59   -999.25    200.06      0.00     10.87     78.00      6.95      4.30
 1593.6000   1593.60      2.76     72.00   2516.00     15.48   -999.25    198.50      0.00     11.80     78.00      7.18      4.14
 1593.8000   1593.80      2.55     72.00   2511.00     15.84   -999.25    197.74      0.00     12.29     78.00      7.35      4.02
 1594.0000   1594.00      2.35     72.00   2515.00     15.86   -999.25    197.05      0.00     14.10     78.00      7.05      4.17
 1594.2000   1594.20      2.16     71.00   2515.00     15.65   -999.25    199.69      0.00     13.90     78.00      6.75      4.33
 1594.4000   1594.40      1.96     71.00   2499.00     15.61   -999.25    202.33      0.00     11.91     78.82      7.00      4.26
 1594.6000   1594.60      7.43     74.00   2284.01      0.55   -999.25    244.50      0.00     16.41     79.94      7.75      3.98
 1594.8000   1594.80     29.84     73.00   2365.98     11.34   -999.25    291.70      0.00     18.81     79.08      8.22      3.80
 1595.0000   1595.00     29.64     71.00   2466.00     27.16   -999.25    285.65      0.00     21.21     78.21      8.15      3.80
 1595.2000   1595.20     29.51     71.00   2450.10     49.21   -999.25    279.60      0.00     21.12     78.15      8.07      3.80
 1595.4000   1595.40     29.53     71.00   2434.20     71.26   -999.25    273.55      0.00     20.23     78.34      8.00      3.80
 1595.6000   1595.60     29.55     71.00   2418.30     93.31   -999.25    267.50      0.00     19.34     78.53      7.93      3.80
 1595.8000   1595.80     29.57     71.00   2402.40    115.36   -999.25    261.44      0.00     18.45     78.72      7.85      3.80
 1596.0000   1596.00     29.59     71.00   2386.50    137.40   -999.25    255.39      0.00     17.57     78.91      7.78      3.80
 1596.2000   1596.20     29.60     71.00   2370.60    159.45   -999.25    249.34      0.00     16.68     79.10      7.70      3.80
 1596.4000   1596.40     29.62     71.00   2354.70    181.50   -999.25    243.29      0.00     15.79     79.29      7.63      3.80
 1596.6000   1596.60     29.64     71.00   2338.80    203.55   -999.25    237.24      0.00     14.90     79.48      7.56      3.80
 1596.8000   1596.80     29.66     71.00   2322.90    225.60   -999.25    231.19      0.00     14.02     79.67      7.48      3.80
 1597.0000   1597.00     29.64     71.00   2307.00    247.65   -999.25    225.14      0.00     13.13     79.86      7.41      3.80
 1597.2000   1597.20     29.44     72.00   2118.07     14.63   -999.25    219.08      0.00     13.37     79.40      7.33      3.80
 1597.4000   1597.40     29.25     73.00   2417.96      3.85   -999.25    242.74      0.00     19.15     76.43      7.28      4.37
 1597.6000   1597.60     29.04     72.00   2471.01     17.50   -999.25    220.91      0.00     23.52     78.00      7.24      5.15
 1597.8000   1597.80     28.84     72.00   2520.99     25.44   -999.25    199.08      0.00     25.86     78.00      7.16      4.64
 1598.0000   1598.00     28.64     72.00   2546.00     24.41   -999.25    177.25      0.00     21.60     78.00      7.08      4.12
 1598.2000   1598.20     28.44     72.00   2542.01     23.55   -999.25    164.34      0.00     18.73     78.76      7.00      3.61
 1598.4000   1598.40     28.25     71.00   2570.00     29.59   -999.25    160.93      0.00     21.66     79.43      6.70      3.33
 1598.6000   1598.60     28.04     70.00   2623.00     36.47   -999.25    157.51      0.00     29.76     76.63      6.25      3.22
 1598.8000   1598.80     27.84     70.00   2630.00     29.92   -999.25    154.09      0.00     27.09     78.73      5.79      3.10
 1599.0000   1599.00     27.65     73.00   2513.00      9.52   -999.25    150.81      0.95     45.20     79.63      5.38      3.00
 1599.2000   1599.20     27.44     73.00   2433.04     59.33   -999.25    148.82      0.47     34.16     75.73      5.32      3.00
 1599.4000   1599.40     27.24     70.00   2612.98     51.98   -999.25    146.83      0.00     23.75     72.14      5.27      3.00
 1599.6000   1599.60     27.04     70.00   2667.00     46.20   -999.25    144.85      0.00     26.78     75.23      5.22      3.00
 1599.8000   1599.80     26.84     70.00   2638.01     48.11   -999.25    142.86      0.00     29.29     78.00      5.17      3.00
 1600.0000   1600.00     26.65     69.00   2641.00     44.52   -999.25    140.87      0.00     27.41     78.00      5.11      3.00
 1600.2000   1600.20     26.44     70.00   2686.99     48.25   -999.25    138.85      0.00     25.75     78.19      5.06      3.00
 1600.4000   1600.40     26.24     70.00   2655.00     47.20   -999.25    136.33      0.00     27.64     81.31      5.01      3.00
 1600.6000   1600.60     26.05     72.00   2542.01     19.00   -999.25    133.81      0.00     26.08     78.13      5.05      2.97
 1600.8000   1600.80     25.84     70.00   2604.98     64.95   -999.25    131.29      0.00     23.69     76.58      5.11      2.94
 1601.0000   1601.00     25.64     70.00   2654.00     42.19   -999.25    128.77      0.00     21.39     77.61      5.18      2.91
 1601.2000   1601.20     25.44     69.00   2670.01     42.42   -999.25    126.25      0.00     19.68     78.00      5.24      2.88
 1601.4000   1601.40     25.24     70.00   2704.00     47.52   -999.25    123.73      0.00     18.34     78.00      5.30      2.85
 1601.6000   1601.60     25.05     69.00   2717.00     50.19   -999.25    121.71      0.00     22.58     76.59      5.36      2.82
 1601.8000   1601.80     24.84     69.00   2678.01     47.49   -999.25    119.89      0.00     29.09     74.61      5.40      2.81
 1602.0000   1602.00     24.64     71.00   2603.00     19.98   -999.25    118.06      0.00     32.17     81.69      5.40      2.85
 1602.2000   1602.20     24.44     71.00   2537.03     38.32   -999.25    116.24      0.00     23.27     78.01      5.40      2.88
 1602.4000   1602.40     24.25     70.00   2651.99     40.33   -999.25    114.42      0.00     17.87     77.02      5.40      2.91
 1602.6000   1602.60     24.04     70.00   2648.00     46.61   -999.25    112.60      0.00     16.65     79.26      5.40      2.95
 1602.8000   1602.80     23.84     70.00   2646.00     38.48   -999.25    110.61      0.00     18.13     79.32      5.40      2.98
 1603.0000   1603.00     23.64     70.00   2693.00     49.57   -999.25    108.53      0.00     20.95     78.30      5.38      3.01
 1603.2000   1603.20     23.44     70.00   2642.02     40.61   -999.25    106.46      0.00     25.28     78.00      5.33      3.04
 1603.4000   1603.40     23.25     70.00   2705.99     47.34   -999.25    104.38      0.00     30.27     78.00      5.27      3.07
 1603.6000   1603.60     23.05     70.00   2643.00     41.70   -999.25    102.30      0.53     40.26     79.06      5.21      3.10
 1603.8000   1603.80     22.85     70.00   2681.99     46.20   -999.25    100.23      1.00     50.06     79.55      5.16      3.12
 1604.0000   1604.00     22.64     69.00   2632.00     35.04   -999.25     98.15      1.00     56.80     77.27      5.10      3.15
 1604.2000   1604.20     22.44     70.00   2734.98     50.92   -999.25     90.05      0.74     54.87     76.51      5.04      3.18
 1604.4000   1604.40     22.25     69.00   2639.01     36.30   -999.25     74.45      0.17     42.15     77.67      5.04      3.22
 1604.6000   1604.60     22.05     70.00   2718.00     52.23   -999.25     58.84      0.00     37.62     78.76      5.20      3.28
 1604.8000   1604.80     21.84     70.00   2684.01     39.62   -999.25     43.23      0.00     36.43     79.84      5.35      3.34
 1605.0000   1605.00     21.64     69.00   2654.00     41.26   -999.25     27.63      2.86     99.39     43.72      5.51      3.40
