~Version Information
VERS.                       2.00: SCHLUMBERGER LAS - Version 2.00
WRAP.                         NO: One line per depth step
~Well Information
STRT.M                 2124.0000: Start Depth
STOP.M                 3002.8000: End Depth
STEP.M                    0.2000:  
NULL.                    -999.25:  
COMP.                    Bapetco: COMPANY
WELL.                BED 3 C18-N: WELL
FLD .                      BED 3: FLD
SRVC.               Schlumberger: SERVICE COMPANY
LOC .                           : LOCATION
DATE.                  07-Jul-20: LOG DATE
UWI .                  20EGP0553: API NUMBER
~Curve Information
DEPT.M                          : MWD Tool Measurement Depth
BDEP.M                          : Bit Depth
KPOSI.M                          : Kelly Position (Raw)
HKL .KLBF                       : Hook Load
SPP .PSI                        : Standpipe Pressure
ROP .M/HR                       : Rate of Penetration (MWD Depth Ave.)
PSPD.M/MIN                      : Instantaneous Pipe Speed
VIBC.CPS                        : Vibration Count
SSL_H.                           : Stick Slip Level from HDS1
SSS_H.                           : Stick Slip Percentage from HDS1
RPM_H.                           : Average RPM from HDS1
VIBXYH.                           : Vibration XY
VIBZH.                           : Vibration Z
#     DEPT      BDEP     KPOSI       HKL       SPP       ROP      PSPD      VIBC     SSL_H     SSS_H     RPM_H    VIBXYH     VIBZH
#        M         M         M      KLBF       PSI      M/HR     M/MIN       CPS                                                  
#
# Relog Number     0         0         0         0         0         0         0         0         0         0         0         0
#
~ASCII Data
# ...
 2756.4000   2756.40     17.40     82.00   3032.00     25.72   -999.25     16.70      0.24     34.95    101.52      2.00      1.80
 2756.6000   2756.60     17.20     82.00   3042.00     23.48   -999.25     18.52      0.00     17.59    100.42      2.00      1.80
 2756.8000   2756.80     16.99     81.00   3042.00     22.44   -999.25     19.20      0.00     19.26    100.00      2.00      1.80
 2757.0000   2757.00     16.80     81.00   3148.00     30.18   -999.25     19.47      0.76     50.76     90.82      2.00      1.80
 2757.2000   2757.20     16.59     81.00   3054.00     19.53   -999.25     19.73      1.00     67.05    100.87      2.01      1.84
 2757.4000   2757.40     16.40     81.00   3074.00     20.84   -999.25     20.00      0.00     22.15    100.00      2.08      2.05
 2757.6000   2757.60     16.20     81.00   3071.00     23.21   -999.25     19.12      0.00     23.64    100.00      2.15      2.25
 2757.8000   2757.80     15.99     81.00   3125.99     24.49   -999.25     18.24      0.08     24.35     99.85      2.21      2.45
 2758.0000   2758.00     15.80     81.00   3152.00     32.18   -999.25     17.36      0.83     67.97     98.33      2.24      2.50
 2758.2000   2758.20     15.60     83.00   2999.01      9.38   -999.25     16.48      0.00     18.04     98.97      2.14      2.12
 2758.4000   2758.40     15.39     83.00   3030.04     29.14   -999.25     15.60      0.27     33.34     95.46      2.04      1.75
 2758.6000   2758.60     15.20     84.00   3102.96     21.22   -999.25     14.72      1.43     69.24     98.27      2.00      1.53
 2758.8000   2758.80     15.00     84.00   3044.01     28.46   -999.25     13.93      1.84     79.68    102.42      2.00      1.43
 2759.0000   2759.00     14.80     84.00   3059.00     47.40   -999.25     13.50      1.17     62.81     95.71      2.00      1.32
 2759.2000   2759.20     14.60     86.00   2614.02     11.05   -999.25     13.07      0.13     32.41     97.49      2.00      1.22
 2759.4000   2759.40     14.40     85.00   2705.01     30.40   -999.25     12.27      0.00     36.54     98.00      2.00      1.11
 2759.6000   2759.60     14.19     85.00   2724.99     35.16   -999.25     11.39      0.00     32.90     98.00      2.00      1.00
 2759.8000   2759.80     14.00     84.00   2763.99     31.49   -999.25     10.50      0.00     26.27     98.48      2.00      0.90
 2760.0000   2760.00     13.80     84.00   2799.00     45.48   -999.25      9.62      0.00     34.14    100.62      2.00      0.80
 2760.2000   2760.20     13.60     84.00   2800.00     52.17   -999.25      8.73      0.17     43.20    101.34      2.00      0.82
 2760.4000   2760.40     13.39     84.00   2799.02     52.67   -999.25      7.85      0.63     54.41     99.47      2.00      0.84
 2760.6000   2760.60     13.20     84.00   2836.98     52.17   -999.25      7.01      1.00     62.26     98.00      2.00      0.87
 2760.8000   2760.80     13.00     84.00   2869.99     55.51   -999.25      7.21      1.00     57.46     98.00      2.00      0.89
 2761.0000   2761.00     12.80     83.00   2914.00     56.18   -999.25      7.42      1.00     52.66     98.00      2.00      0.91
 2761.2000   2761.20     12.59     84.00   2847.98     59.18   -999.25      7.62      1.00     54.75     99.40      2.00      0.93
 2761.4000   2761.40     12.40     84.00   2782.03     59.91   -999.25      7.82      1.00     57.87    101.00      2.00      0.95
 2761.6000   2761.60     12.20     84.00   2836.97     59.84   -999.25      8.03      1.00     58.14    101.08      2.00      0.97
 2761.8000   2761.80     12.00     84.00   2883.99     59.55   -999.25      8.23      1.00     53.78     98.67      2.00      0.99
 2762.0000   2762.00     11.80     84.00   2886.00     59.84   -999.25      8.44      1.00     49.42     96.25      2.00      1.02
 2762.2000   2762.20     11.60     84.00   2881.99     59.84   -999.25      8.64      0.64     43.69     98.16      2.00      1.04
 2762.4000   2762.40     11.40     84.00   2846.99     59.69   -999.25      8.84      0.24     37.81    100.57      2.00      1.06
 2762.6000   2762.60     11.20     84.00   2833.01     59.69   -999.25      8.94      0.17     37.08    101.34      2.00      1.08
 2762.8000   2762.80     11.00     83.00   2885.99     59.84   -999.25      8.68      0.57     43.91     99.70      2.00      1.10
 2763.0000   2763.00     10.79     83.00   2946.00     57.06   -999.25      8.42      0.98     50.74     98.07      2.00      1.12
 2763.2000   2763.20     10.60     83.00   2962.98     44.66   -999.25      8.17      1.00     60.00     98.00      2.00      1.14
 2763.4000   2763.40     10.39     83.00   2866.95     50.03   -999.25      7.91      1.00     69.35     98.00      2.00      1.16
 2763.6000   2763.60     10.20     84.00   2772.05     59.56   -999.25      7.65      1.40     74.96    102.00      2.00      1.19
 2763.8000   2763.80     10.00     84.00   2770.00     59.84   -999.25      7.39      1.80     80.56    106.01      2.00      1.19
 2764.0000   2764.00      9.80     84.00   2866.00     22.21   -999.25      7.14      1.43     77.58     95.44      2.00      1.16
 2764.2000   2764.20      9.60     85.00   2765.00     50.04   -999.25      6.90      1.00     70.56     92.33      1.99      1.14
 2764.4000   2764.40      9.39     85.00   2746.98     50.85   -999.25      6.67      1.00     66.22    102.54      1.99      1.11
 2764.6000   2764.60      9.20     85.00   2699.02     59.40   -999.25      6.45      0.79     58.62    106.31      1.99      1.08
 2764.8000   2764.80      9.00     84.00   2719.99     54.76   -999.25      6.23      0.33     47.28    102.66      1.99      1.06
 2765.0000   2765.00      8.80     84.00   2723.00     44.55   -999.25      6.00      0.13     43.53    100.00      1.98      1.03
 2765.2000   2765.20      8.60     83.00   2735.01     53.24   -999.25      5.78      0.59     60.31    100.00      1.98      1.00
 2765.4000   2765.40      8.40     83.00   2783.00     55.57   -999.25      5.56      1.00     75.03     99.50      1.97      1.09
 2765.6000   2765.60      8.19     83.00   2789.00     59.69   -999.25      5.33      1.00     75.25     95.46      1.95      1.18
 2765.8000   2765.80      7.99     84.00   2758.01     59.84   -999.25      5.11      1.00     75.48     91.43      1.94      1.28
 2766.0000   2766.00      7.79     82.00   2774.00     35.73   -999.25      5.09      1.00     56.41     99.25      1.92      1.37
 2766.2000   2766.20      7.59     82.00   2846.04     20.96   -999.25      5.27      0.43     30.16    102.56      1.91      1.47
 2766.4000   2766.40      7.40     82.00   2998.96     30.04   -999.25      5.45      0.37     30.28     99.26      1.89      1.56
 2766.6000   2766.60      7.20     83.00   2916.04     45.20   -999.25      5.63      0.99     45.61     98.02      1.85      1.60
 2766.8000   2766.80      7.00     84.00   2849.02     45.98   -999.25      5.81      1.00     57.04    100.05      1.80      1.60
 2767.0000   2767.00      6.79     84.00   2859.00     45.76   -999.25      5.99      0.97     66.58    101.93      1.74      1.60
 2767.2000   2767.20      6.59     84.00   2874.99     46.05   -999.25      5.56      0.44     50.00    100.88      1.69      1.60
 2767.4000   2767.40      6.39     83.00   2853.01     45.36   -999.25      5.08      0.15     37.47    100.00      1.63      1.60
 2767.6000   2767.60      6.20     82.00   2870.99     21.64   -999.25      4.61      0.85     42.38    100.31      1.58      1.60
 2767.8000   2767.80      6.00     82.00   2881.00     16.10   -999.25      4.14      0.00     20.26    100.71      1.59      1.57
 2768.0000   2768.00      5.80     82.00   2943.00     21.77   -999.25      4.00      0.00     21.97    100.00      1.62      1.52
 2768.2000   2768.20      5.59     83.00   2955.99     33.68   -999.25      4.00      0.91     49.24     96.35      1.66      1.48
 2768.4000   2768.40      5.39     83.00   2897.02     40.68   -999.25      4.00      1.88     79.85     93.17      1.70      1.43
 2768.6000   2768.60      5.20     83.00   2929.98     23.09   -999.25      4.00      1.07     76.22    101.74      1.71      1.38
