~Version Information
VERS.                       2.00: SCHLUMBERGER LAS - Version 2.00
WRAP.                         NO: One line per depth step
~Well Information
STRT.M                 1134.0000: Start Depth
STOP.M                 2124.0000: End Depth
STEP.M                    0.2000:  
NULL.                    -999.25:  
COMP.                    Bapetco: COMPANY
WELL.                BED 3 C18-N: WELL
FLD .                      BED 3: FLD
SRVC.               Schlumberger: SERVICE COMPANY
LOC .                           : LOCATION
DATE.                  05-Jul-20: LOG DATE
UWI .                  20EGP0553: API NUMBER
~Curve Information
DEPT.M                          : MWD Tool Measurement Depth
BDEP.M                          : Bit Depth
KPOSI.M                          : Kelly Position (Raw)
HKL .KLBF                       : Hook Load
SPP .PSI                        : Standpipe Pressure
ROP .M/HR                       : Rate of Penetration (MWD Depth Ave.)
PSPD.M/MIN                      : Instantaneous Pipe Speed
VIBC.CPS                        : Vibration Count
SSL_H.                           : Stick Slip Level from HDS1
SSS_H.                           : Stick Slip Percentage from HDS1
RPM_H.                           : Average RPM from HDS1
VIBXYH.                           : Vibration XY
VIBZH.                           : Vibration Z
#     DEPT      BDEP     KPOSI       HKL       SPP       ROP      PSPD      VIBC     SSL_H     SSS_H     RPM_H    VIBXYH     VIBZH
#        M         M         M      KLBF       PSI      M/HR     M/MIN       CPS                                                  
#
# Relog Number     0         0         0         0         0         0         0         0         0         0         0         0
#
~ASCII Data
# ...
 1270.4000   1270.40      9.98     76.00   2159.00     73.12   -999.25     10.28      0.00     27.21     98.00      1.86      0.57
 1270.6000   1270.60      9.77     76.00   2137.01     73.56   -999.25     10.11      0.00     25.19     98.00      1.88      0.56
 1270.8000   1270.80      9.57     75.00   2222.98     71.76   -999.25     10.06      0.00     23.18     98.00      1.89      0.54
 1271.0000   1271.00      9.37     76.00   2171.00     73.74   -999.25     10.23      0.00     21.39     98.00      1.90      0.52
 1271.2000   1271.20      9.18     76.00   2140.00     73.17   -999.25     10.39      0.00     21.05     98.00      1.92      0.51
 1271.4000   1271.40      8.97     76.00   2150.00     73.68   -999.25     10.56      0.00     20.72     98.00      1.93      0.49
 1271.6000   1271.60      8.78     76.00   2133.00     73.56   -999.25     10.73      0.00     20.54     98.00      1.94      0.48
 1271.8000   1271.80      8.57     76.00   2166.99     73.52   -999.25     10.90      0.00     22.54     98.00      1.95      0.46
 1272.0000   1272.00      8.38     76.00   2136.00     73.34   -999.25     11.07      0.00     24.54     98.00      1.97      0.44
 1272.2000   1272.20      8.17     77.00   2082.99     73.56   -999.25     11.23      0.00     26.54     98.00      1.98      0.43
 1272.4000   1272.40      7.97     77.00   2028.01     73.68   -999.25     11.40      0.00     28.54     98.00      1.99      0.41
 1272.6000   1272.60      7.78     76.00   1955.00     73.56   -999.25     11.57      0.00     30.53     98.00      2.00      0.40
 1272.8000   1272.80      7.57     76.00   1915.01     73.52   -999.25     11.74      0.00     32.53     98.00      2.00      0.40
 1273.0000   1273.00      7.37     75.00   1952.00     62.40   -999.25     11.91      0.00     31.08     98.00      2.00      0.40
 1273.2000   1273.20      7.18     76.00   1941.00     56.62   -999.25     12.00      0.00     29.41     98.00      1.99      0.40
 1273.4000   1273.40      6.97     75.00   1945.00     56.49   -999.25     12.00      0.00     27.40     98.42      1.99      0.40
 1273.6000   1273.60      6.77     76.00   1978.00     56.28   -999.25     12.00      0.00     25.03     99.27      1.99      0.40
 1273.8000   1273.80      6.58     76.00   2010.99     56.58   -999.25     12.00      0.00     23.39     99.88      1.99      0.40
 1274.0000   1274.00      6.37     76.00   2085.00     56.62   -999.25     12.00      0.00     26.20     99.03      1.98      0.40
 1274.2000   1274.20      6.18     76.00   2177.01     56.28   -999.25     12.00      0.00     29.00     98.18      1.98      0.40
 1274.4000   1274.40      5.97     76.00   2231.99     56.49   -999.25     12.00      0.00     31.90     97.33      1.98      0.40
 1274.6000   1274.60      5.77     76.00   2237.01     56.58   -999.25     12.00      0.00     34.82     96.48      1.97      0.41
 1274.8000   1274.80      5.58     75.00   2311.98     56.28   -999.25     12.00      0.00     34.69     96.75      1.96      0.43
 1275.0000   1275.00      5.37     76.00   2267.00     56.25   -999.25     11.99      0.00     30.68     98.45      1.94      0.45
 1275.2000   1275.20      5.18     76.00   2214.00     56.62   -999.25     11.78      0.00     26.78     99.85      1.93      0.48
 1275.4000   1275.40      4.97     76.00   2226.00     55.71   -999.25     11.56      0.00     24.14     98.15      1.91      0.50
 1275.6000   1275.60      4.77     76.00   2224.01     56.21   -999.25     11.35      0.00     21.50     96.44      1.90      0.52
 1275.8000   1275.80      4.58     75.00   2288.98     54.27   -999.25     11.13      0.00     23.72     96.66      1.88      0.54
 1276.0000   1276.00      4.38     75.00   2329.00     53.51   -999.25     10.91      0.00     27.61     97.55      1.87      0.56
 1276.2000   1276.20      4.17     76.00   2275.99     56.49   -999.25     10.70      0.00     29.38     98.00      1.86      0.58
 1276.4000   1276.40      3.97     76.00   2244.00     56.52   -999.25     10.48      0.00     28.94     98.00      1.85      0.59
 1276.6000   1276.60      3.78     75.00   2330.00     54.76   -999.25     10.26      0.00     27.95     98.13      1.86      0.57
 1276.8000   1276.80      3.57     75.00   2315.00     55.68   -999.25     10.05      0.00     23.83     98.99      1.88      0.55
 1277.0000   1277.00      3.38     76.00   2276.00     56.36   -999.25     10.08      0.00     19.70     99.85      1.90      0.53
 1277.2000   1277.20      3.18     76.00   2237.99     56.62   -999.25     10.19      0.00     19.14     99.29      1.91      0.51
 1277.4000   1277.40      2.97     77.00   2201.00     56.49   -999.25     10.30      0.00     19.30     98.44      1.93      0.49
 1277.6000   1277.60      2.78     77.00   2198.00     56.28   -999.25     10.41      0.00     20.64     98.00      1.95      0.47
 1277.8000   1277.80      2.57     76.00   2212.00     56.58   -999.25     10.52      0.00     23.24     98.00      1.96      0.45
 1278.0000   1278.00      2.38     75.00   2286.00     56.62   -999.25     10.63      0.00     25.51     98.00      1.98      0.42
 1278.2000   1278.20      2.17     76.00   2282.99     56.25   -999.25     10.74      0.00     25.51     98.00      2.00      0.40
 1278.4000   1278.40      1.97     76.00   2244.00     56.52   -999.25     10.85      0.00     25.51     98.00      2.13      0.40
 1278.6000   1278.60      1.78     76.00   2195.99     56.57   -999.25     10.96      0.00     19.07     99.35      2.27      0.40
 1278.8000   1278.80     29.33     78.00   2101.02      9.15   -999.25     10.76      0.71     37.73     96.57      2.42      0.40
 1279.0000   1279.00     29.14     77.00   2149.00     30.94   -999.25     10.39      0.00     13.49     97.90      2.56      0.40
 1279.2000   1279.20     28.94     76.00   2200.01     48.22   -999.25     10.02      0.00     25.94     96.87      2.52      0.42
 1279.4000   1279.40     28.74     76.00   2237.00     48.49   -999.25      9.72      0.00     36.46     96.00      2.47      0.44
 1279.6000   1279.60     28.54     76.00   2288.98     64.35   -999.25      9.42   -999.25   -999.25   -999.25      2.43      0.46
 1279.8000   1279.80     28.34     78.00   2102.05     15.16   -999.25      9.12   -999.25   -999.25   -999.25      2.38      0.48
 1280.0000   1280.00     28.13     77.00   2170.00     50.82   -999.25      8.83   -999.25   -999.25   -999.25      2.34      0.50
 1280.2000   1280.20     27.94     77.00   2178.00     36.96   -999.25      8.53   -999.25   -999.25   -999.25      2.29      0.52
 1280.4000   1280.40     27.74     77.00   2189.00     54.30   -999.25      8.23   -999.25   -999.25   -999.25      2.25      0.54
 1280.6000   1280.60     27.53     76.00   2166.00     51.67   -999.25      7.94   -999.25   -999.25   -999.25      2.20      0.57
 1280.8000   1280.80     27.34     76.00   2142.01     51.79   -999.25      7.64   -999.25   -999.25   -999.25      2.16      0.59
 1281.0000   1281.00     27.14     76.00   2206.00     56.73   -999.25      7.34   -999.25   -999.25   -999.25      2.12      0.60
 1281.2000   1281.20     26.94     76.00   2202.01     56.99   -999.25      7.05   -999.25   -999.25   -999.25      2.11      0.60
 1281.4000   1281.40     26.74     75.00   2252.99     69.21   -999.25      7.60   -999.25   -999.25   -999.25      2.10      0.60
 1281.6000   1281.60     26.54     75.00   2294.00     70.71   -999.25      8.31   -999.25   -999.25   -999.25      2.09      0.60
 1281.8000   1281.80     26.34     76.00   2294.00     83.44   -999.25      9.02   -999.25   -999.25   -999.25      2.08      0.60
 1282.0000   1282.00     26.13     76.00   2257.00     80.03   -999.25      9.73   -999.25   -999.25   -999.25      2.07      0.60
 1282.2000   1282.20     25.94     76.00   2260.00     82.71   -999.25     10.44   -999.25   -999.25   -999.25      2.06      0.60
 1282.4000   1282.40     25.74     76.00   2255.00     82.47   -999.25     11.15   -999.25   -999.25   -999.25      2.05      0.60
 1282.6000   1282.60     25.54     76.00   2261.00     82.89   -999.25     11.86      0.00     18.24    100.00      2.04      0.60
