~Version Information
VERS.                       2.00: SCHLUMBERGER LAS - Version 2.00
WRAP.                         NO: One line per depth step
~Well Information
STRT.M                 2124.0000: Start Depth
STOP.M                 3002.8000: End Depth
STEP.M                    0.2000:  
NULL.                    -999.25:  
COMP.                    Bapetco: COMPANY
WELL.                BED 3 C18-N: WELL
FLD .                      BED 3: FLD
SRVC.               Schlumberger: SERVICE COMPANY
LOC .                           : LOCATION
DATE.                  07-Jul-20: LOG DATE
UWI .                  20EGP0553: API NUMBER
~Curve Information
DEPT.M                          : MWD Tool Measurement Depth
BDEP.M                          : Bit Depth
KPOSI.M                          : Kelly Position (Raw)
HKL .KLBF                       : Hook Load
SPP .PSI                        : Standpipe Pressure
ROP .M/HR                       : Rate of Penetration (MWD Depth Ave.)
PSPD.M/MIN                      : Instantaneous Pipe Speed
VIBC.CPS                        : Vibration Count
SSL_H.                           : Stick Slip Level from HDS1
SSS_H.                           : Stick Slip Percentage from HDS1
RPM_H.                           : Average RPM from HDS1
VIBXYH.                           : Vibration XY
VIBZH.                           : Vibration Z
#     DEPT      BDEP     KPOSI       HKL       SPP       ROP      PSPD      VIBC     SSL_H     SSS_H     RPM_H    VIBXYH     VIBZH
#        M         M         M      KLBF       PSI      M/HR     M/MIN       CPS                                                  
#
# Relog Number     0         0         0         0         0         0         0         0         0         0         0         0
#
~ASCII Data
# ...
 2706.8000   2706.80     10.75     82.00   2965.02     44.17   -999.25      6.18      1.25     77.65     97.01      1.97      1.29
 2707.0000   2707.00     10.55     82.00   3009.00     35.32   -999.25      6.88      1.87     85.63     94.50      1.99      1.24
 2707.2000   2707.20     10.35     83.00   2997.00     48.78   -999.25      7.58      2.00     87.12     93.18      2.00      1.21
 2707.4000   2707.40     10.15     83.00   3015.01     45.65   -999.25      8.29      2.00     86.98     92.15      2.00      1.23
 2707.6000   2707.60      9.95     83.00   3031.99     46.36   -999.25      8.99      1.55     81.05     93.82      2.00      1.26
 2707.8000   2707.80      9.75     83.00   3026.00     43.40   -999.25      9.69      1.01     74.10     95.96      2.00      1.28
 2708.0000   2708.00      9.55     82.00   3043.00     35.55   -999.25     10.40      1.00     67.70     97.17      2.00      1.31
 2708.2000   2708.20      9.35     83.00   3019.99     51.73   -999.25     10.95      1.00     63.93     97.24      2.00      1.33
 2708.4000   2708.40      9.15     83.00   2984.00     58.28   -999.25     10.59      1.00     66.10     94.74      2.00      1.36
 2708.6000   2708.60      8.95     83.00   2978.00     57.06   -999.25     10.23      1.00     68.26     92.25      2.00      1.38
 2708.8000   2708.80      8.75     83.00   3027.99     59.55   -999.25      9.87      1.00     64.00     94.17      2.00      1.41
 2709.0000   2709.00      8.55     83.00   3031.00     59.47   -999.25      9.51      1.00     59.03     96.59      1.98      1.43
 2709.2000   2709.20      8.35     83.00   3024.99     58.14   -999.25      9.16      1.25     62.47     96.50      1.97      1.46
 2709.4000   2709.40      8.15     82.00   2992.00     40.38   -999.25      8.80      1.85     77.77     92.89      1.95      1.48
 2709.6000   2709.60      7.95     82.00   2996.00     32.56   -999.25      8.44      2.00     82.96     95.32      1.94      1.51
 2709.8000   2709.80      7.75     83.00   2998.00     52.42   -999.25      8.08      2.00     84.88     99.71      1.92      1.53
 2710.0000   2710.00      7.55     84.00   2945.00     53.82   -999.25      7.89      2.00     87.23     99.07      1.91      1.56
 2710.2000   2710.20      7.35     83.00   2898.01     44.06   -999.25      7.74      2.00     89.61     98.08      1.90      1.59
 2710.4000   2710.40      7.15     84.00   2922.00     40.92   -999.25      7.59      1.48     81.90     95.94      1.88      1.63
 2710.6000   2710.60      6.94     84.00   2918.00     45.81   -999.25      7.45      1.00     72.49     94.14      1.88      1.70
 2710.8000   2710.80      6.75     83.00   2972.99     45.15   -999.25      7.30      1.00     57.81     95.21      1.87      1.77
 2711.0000   2711.00      6.55     83.00   2959.00     42.63   -999.25      7.16      1.00     52.68     95.59      1.86      1.84
 2711.2000   2711.20      6.34     83.00   2973.99     28.79   -999.25      7.01      1.00     75.42     94.01      1.85      1.92
 2711.4000   2711.40      6.15     83.00   2949.94     22.63   -999.25      6.05      1.00     59.26     96.20      1.85      1.99
 2711.6000   2711.60      5.95     82.00   2830.06     16.02   -999.25      5.02      0.52     42.70     98.09      1.72      1.90
 2711.8000   2711.80      5.75     82.00   2859.99     15.69   -999.25      4.01      0.00     25.14     95.90      1.57      1.78
 2712.0000   2712.00      5.55     82.00   3028.00     28.79   -999.25      4.66      0.00     27.46     94.15      1.41      1.66
 2712.2000   2712.20      5.35     82.00   3038.00     33.72   -999.25      5.32      0.61     57.52     94.00      1.39      1.55
 2712.4000   2712.40      5.15     83.00   3024.01     41.57   -999.25      5.97      1.24     78.15     94.00      1.47      1.46
 2712.6000   2712.60      4.95     83.00   3035.99     39.11   -999.25      6.63      1.83     81.90     94.00      1.55      1.37
 2712.8000   2712.80      4.75     83.00   3035.00     42.60   -999.25      7.29      2.00     86.62     94.84      1.63      1.28
 2713.0000   2713.00      4.55     83.00   3018.00     38.76   -999.25      7.94      2.00     91.63     95.93      1.71      1.20
 2713.2000   2713.20      4.35     83.00   2967.00     40.04   -999.25      8.13      2.00     89.22     91.31      1.79      1.11
 2713.4000   2713.40      4.15     83.00   2983.00     44.33   -999.25      8.28      1.84     79.81     89.94      1.87      1.02
 2713.6000   2713.60      3.95     83.00   2984.00     40.43   -999.25      8.42      1.27     52.83     96.76      1.89      1.08
 2713.8000   2713.80      3.75     84.00   2915.02     45.92   -999.25      8.57      1.00     47.60     98.90      1.89      1.18
 2714.0000   2714.00      3.55     84.00   2897.00     45.94   -999.25      8.71      1.00     62.07     96.81      1.89      1.28
 2714.2000   2714.20      3.35     83.00   2946.01     38.67   -999.25      8.86      0.59     52.56     95.18      1.89      1.38
 2714.4000   2714.40      3.15     83.00   3006.98     36.11   -999.25      9.00      0.13     36.46     94.50      1.89      1.48
 2714.6000   2714.60      2.95     83.00   2966.02     23.71   -999.25      9.21      1.00     73.85     97.50      1.89      1.57
 2714.8000   2714.80      2.75     83.00   2978.00     39.06   -999.25      9.42      1.00     61.05     93.68      1.94      1.65
 2715.0000   2715.00      2.55     83.00   2944.00     29.85   -999.25      9.64      1.00     52.75     96.84      2.01      1.73
 2715.2000   2715.20      2.35     83.00   2960.02     22.41   -999.25      9.85      0.49     41.85     96.95      2.08      1.80
 2715.4000   2715.40      2.15     83.00   3042.98     38.16   -999.25      9.85      0.47     45.25     94.47      2.14      1.87
 2715.6000   2715.60      1.95     83.00   3003.02     40.09   -999.25      9.30      1.68     77.12     95.68      2.21      1.95
 2715.8000   2715.80      1.75     83.00   2997.00     39.99   -999.25      8.75      1.38     77.69     96.00      2.25      1.99
 2716.0000   2716.00     29.62     85.00   2800.00      7.58   -999.25      8.21      0.87     67.80     96.54      2.21      1.96
 2716.2000   2716.20     29.42     85.00   2874.01     32.96   -999.25      7.66      0.62     58.40     97.53      2.16      1.92
 2716.4000   2716.40     29.22     84.00   2912.03     31.22   -999.25      7.11      0.37     49.00     98.52      2.12      1.89
 2716.6000   2716.60     29.01     84.00   2979.97     33.00   -999.25      7.00      0.12     39.61     99.51      2.07      1.86
 2716.8000   2716.80     28.82     84.00   3010.99     38.95   -999.25      7.00      0.00     33.40    101.67      2.03      1.82
 2717.0000   2717.00     28.62     84.00   2974.00     47.05   -999.25      7.00      0.00     30.26    104.95      2.00      1.81
 2717.2000   2717.20     28.42     83.00   2964.01     42.81   -999.25      7.00      0.43     48.66    104.28      2.00      1.84
 2717.4000   2717.40     28.22     83.00   3000.01     34.40   -999.25      7.00      0.94     71.75    102.12      2.00      1.88
 2717.6000   2717.60     28.02     83.00   3024.99     38.07   -999.25      7.00      0.30     42.58    103.40      2.00      1.91
 2717.8000   2717.80     27.82     83.00   3031.00     37.38   -999.25      7.00      0.38     33.19    103.23      2.00      1.94
 2718.0000   2718.00     27.62     83.00   3039.00     30.80   -999.25      7.00      1.11     44.86    101.55      2.00      1.98
 2718.2000   2718.20     27.42     83.00   3059.01     32.40   -999.25      7.00      1.89     76.97     98.45      2.00      2.00
 2718.4000   2718.40     27.22     83.00   3086.99     36.39   -999.25      7.00      1.49     70.20    102.12      1.98      2.00
 2718.6000   2718.60     27.02     83.00   3058.01     43.45   -999.25      7.00      1.00     61.26    105.24      1.97      2.00
 2718.8000   2718.80     26.82     83.00   3078.99     43.12   -999.25      7.00      1.00     70.64    101.31      1.95      2.00
 2719.0000   2719.00     26.62     83.00   3054.00     52.94   -999.25      7.00      1.07     80.00     98.15      1.93      2.00
