~Version Information
VERS.                       2.00: SCHLUMBERGER LAS - Version 2.00
WRAP.                         NO: One line per depth step
~Well Information
STRT.M                 2124.0000: Start Depth
STOP.M                 3002.8000: End Depth
STEP.M                    0.2000:  
NULL.                    -999.25:  
COMP.                    Bapetco: COMPANY
WELL.                BED 3 C18-N: WELL
FLD .                      BED 3: FLD
SRVC.               Schlumberger: SERVICE COMPANY
LOC .                           : LOCATION
DATE.                  07-Jul-20: LOG DATE
UWI .                  20EGP0553: API NUMBER
~Curve Information
DEPT.M                          : MWD Tool Measurement Depth
BDEP.M                          : Bit Depth
KPOSI.M                          : Kelly Position (Raw)
HKL .KLBF                       : Hook Load
SPP .PSI                        : Standpipe Pressure
ROP .M/HR                       : Rate of Penetration (MWD Depth Ave.)
PSPD.M/MIN                      : Instantaneous Pipe Speed
VIBC.CPS                        : Vibration Count
SSL_H.                           : Stick Slip Level from HDS1
SSS_H.                           : Stick Slip Percentage from HDS1
RPM_H.                           : Average RPM from HDS1
VIBXYH.                           : Vibration XY
VIBZH.                           : Vibration Z
#     DEPT      BDEP     KPOSI       HKL       SPP       ROP      PSPD      VIBC     SSL_H     SSS_H     RPM_H    VIBXYH     VIBZH
#        M         M         M      KLBF       PSI      M/HR     M/MIN       CPS                                                  
#
# Relog Number     0         0         0         0         0         0         0         0         0         0         0         0
#
~ASCII Data
# ...
 2992.0000   2992.00     12.00     84.00   2811.00     16.87   -999.25     13.54      0.00     16.45     95.37      2.28      1.88
 2992.2000   2992.20     11.80     84.00   2766.01     18.97   -999.25     12.42      0.00     16.38     95.18      2.40      2.00
 2992.4000   2992.40     11.60     84.00   2792.05     19.29   -999.25     14.00      0.00     17.55     96.00      2.36      2.00
 2992.6000   2992.60     11.40     84.00   2887.95     18.06   -999.25     15.57      0.00     18.13     96.31      2.31      2.00
 2992.8000   2992.80     11.20     84.00   2903.00     19.69   -999.25     17.12      0.00     21.29     97.30      2.26      2.00
 2993.0000   2993.00     11.00     84.00   2922.00     20.00   -999.25     18.36      0.00     24.14     96.00      2.22      2.00
 2993.2000   2993.20     10.79     84.00   2918.99     18.73   -999.25     19.61      0.00     21.42     96.00      2.18      2.00
 2993.4000   2993.40     10.59     84.00   2897.00     19.13   -999.25     20.86      0.00     15.03     96.00      2.14      2.00
 2993.6000   2993.60     10.39     84.00   2892.00     19.57   -999.25     22.14      0.00     18.75     96.00      2.16      2.10
 2993.8000   2993.80     10.19     84.00   2883.00     18.57   -999.25     23.42      0.00     19.39     96.00      2.20      2.23
 2994.0000   2994.00      9.99     84.00   2886.00     18.22   -999.25     24.71      0.00     13.88     96.00      2.25      2.36
 2994.2000   2994.20      9.80     84.00   2890.00     18.37   -999.25     22.60      0.00     19.05     96.00      2.23      2.32
 2994.4000   2994.40      9.59     84.00   2877.00     18.57   -999.25     19.49      0.00     22.02     94.92      2.19      2.19
 2994.6000   2994.60      9.39     84.00   2885.00     20.34   -999.25     16.37      0.00     26.55     96.98      2.15      2.07
 2994.8000   2994.80      9.19     84.00   2866.00     17.24   -999.25     13.76      0.00     18.82     95.58      2.13      1.93
 2995.0000   2995.00      8.99     84.00   2900.00     19.17   -999.25     11.54      0.37     45.07     94.19      2.13      1.78
 2995.2000   2995.20      8.79     84.00   2949.99     23.31   -999.25      9.32      2.43    100.65     82.25      2.13      1.62
 2995.4000   2995.40      8.59     86.00   2911.92     12.60   -999.25     13.25      0.00     27.20    100.14      2.13      1.71
 2995.6000   2995.60      8.39     86.00   2758.08     16.42   -999.25     18.23      0.00     17.28     94.36      2.13      1.84
 2995.8000   2995.80      8.20     85.00   2804.99     17.95   -999.25     23.20      0.00     12.42     96.00      2.13      1.97
 2996.0000   2996.00      8.00     85.00   2827.00     17.12   -999.25     21.94      0.00     11.94     96.00      2.09      2.00
 2996.2000   2996.20      7.80     84.00   2855.01     18.11   -999.25     19.50      0.00     35.06     90.87      2.04      2.00
 2996.4000   2996.40      7.59     84.00   2886.00     16.84   -999.25     17.05      2.31     86.99     98.00      1.98      2.00
 2996.6000   2996.60      7.39     84.00   2882.00     13.63   -999.25     14.23      0.01     18.45     93.96      1.98      1.85
 2996.8000   2996.80      7.20     85.00   2949.98     16.26   -999.25     11.41      1.00     64.48     94.25      1.98      1.69
 2997.0000   2997.00      7.00     85.00   2927.00     17.24   -999.25     11.36      1.00     53.86    100.00      2.05      1.60
 2997.2000   2997.20      6.79     85.00   2852.00     15.15   -999.25     14.09      0.00     22.41     97.11      2.22      1.60
 2997.4000   2997.40      6.60     85.00   2867.01     13.99   -999.25     16.81      0.82     46.50     96.00      2.38      1.60
 2997.6000   2997.60      6.39     84.00   2886.99     15.71   -999.25     15.65      0.71     38.36     93.17      2.32      1.60
 2997.8000   2997.80      6.19     84.00   2924.99     17.86   -999.25     14.19      1.00     65.32    101.69      2.22      1.60
 2998.0000   2998.00      5.99     84.00   2913.00     16.18   -999.25     12.82      1.00     48.50     95.00      2.13      1.60
 2998.2000   2998.20      5.80     84.00   2946.00     18.57   -999.25     11.81      2.67    107.86     87.63      2.13      1.60
 2998.4000   2998.40      5.60     84.00   2955.99     16.54   -999.25     10.79      0.26     41.90     94.52      2.13      1.60
 2998.6000   2998.60      5.40     84.00   2930.01     19.00   -999.25     10.08      1.00     64.45     97.07      2.13      1.60
 2998.8000   2998.80      5.20     84.00   2933.00     18.59   -999.25     10.47      2.64    102.23     83.23      2.13      1.60
 2999.0000   2999.00      5.00     85.00   2901.00     11.88   -999.25     10.86      3.00    123.16     89.99      2.13      1.60
 2999.2000   2999.20      4.80     86.00   2813.98     25.49   -999.25     10.73      1.39     64.20    100.03      2.10      1.58
 2999.4000   2999.40      4.60     87.00   2723.00     27.62   -999.25     10.30      0.32     29.99     97.90      2.04      1.54
 2999.6000   2999.60      4.40     88.00   2714.00     27.55   -999.25      9.88      0.00     20.02     94.89      1.98      1.49
 2999.8000   2999.80      4.19     87.00   2679.01     27.58   -999.25      9.45      0.00     20.04     94.83      1.91      1.45
 3000.0000   3000.00      4.00     86.00   2704.00     30.03   -999.25      9.02      0.00     19.71     94.48      1.85      1.41
 3000.2000   3000.20      3.80     85.00   2742.00     15.61   -999.25     10.39      0.00     22.55     94.71      1.97      1.46
 3000.4000   3000.40      3.59     85.00   2737.00     19.99   -999.25     11.85      0.00     23.42     94.06      2.13      1.54
 3000.6000   3000.60      3.39     84.00   2737.00     14.36   -999.25     13.09      0.00     22.65     96.00      2.26      1.60
 3000.8000   3000.80      3.19     84.00   2715.01     13.89   -999.25     13.50      0.00     22.22     96.00      2.20      1.60
 3001.0000   3001.00      2.99     84.00   2724.00     15.07   -999.25     13.92      0.00     14.27     94.10      2.14      1.60
 3001.2000   3001.20      2.80     84.00   2703.01     14.13   -999.25     11.83      0.00     16.67     96.00      2.13      1.66
 3001.4000   3001.40      2.59     84.00   2759.00     16.26   -999.25      9.16      0.85     46.94     94.29      2.13      1.73
 3001.6000   3001.60      2.39     84.00   2759.00     17.20   -999.25      7.04      0.00     27.00     96.00      2.12      1.80
 3001.8000   3001.80      2.20     84.00   2739.00     17.17   -999.25      7.23      0.00     18.26     96.00      2.10      1.80
 3002.0000   3002.00      1.99     84.00   2704.00     16.31   -999.25      7.42      0.00     22.46     96.00      2.07      1.80
 3002.2000   3002.20      1.91     84.00   2702.00     41.63   -999.25      7.61      0.22     27.29     97.80      2.04      1.80
 3002.4000   3002.40      1.90     84.00   2700.00     66.96   -999.25      7.80      0.57     40.43    100.57      2.01      1.80
 3002.6000   3002.60      1.89     84.00   2698.00     92.28   -999.25      8.00      0.92     53.58    103.34      1.98      1.80
 3002.8000   3002.80      1.70     84.00   2677.01     14.66   -999.25      8.78      0.00     18.92     96.00      1.98      1.80
