~Version Information
VERS.                       2.00: SCHLUMBERGER LAS - Version 2.00
WRAP.                         NO: One line per depth step
~Well Information
STRT.M                 1134.0000: Start Depth
STOP.M                 2124.0000: End Depth
STEP.M                    0.2000:  
NULL.                    -999.25:  
COMP.                    Bapetco: COMPANY
WELL.                BED 3 C18-N: WELL
FLD .                      BED 3: FLD
SRVC.               Schlumberger: SERVICE COMPANY
LOC .                           : LOCATION
DATE.                  05-Jul-20: LOG DATE
UWI .                  20EGP0553: API NUMBER
~Curve Information
DEPT.M                          : MWD Tool Measurement Depth
BDEP.M                          : Bit Depth
KPOSI.M                          : Kelly Position (Raw)
HKL .KLBF                       : Hook Load
SPP .PSI                        : Standpipe Pressure
ROP .M/HR                       : Rate of Penetration (MWD Depth Ave.)
PSPD.M/MIN                      : Instantaneous Pipe Speed
VIBC.CPS                        : Vibration Count
SSL_H.                           : Stick Slip Level from HDS1
SSS_H.                           : Stick Slip Percentage from HDS1
RPM_H.                           : Average RPM from HDS1
VIBXYH.                           : Vibration XY
VIBZH.                           : Vibration Z
#     DEPT      BDEP     KPOSI       HKL       SPP       ROP      PSPD      VIBC     SSL_H     SSS_H     RPM_H    VIBXYH     VIBZH
#        M         M         M      KLBF       PSI      M/HR     M/MIN       CPS                                                  
#
# Relog Number     0         0         0         0         0         0         0         0         0         0         0         0
#
~ASCII Data
# ...
 2051.6000   2051.60      4.18     74.00   2116.99     26.66   -999.25     95.66      0.00     21.48     93.34      5.37      2.97
 2051.8000   2051.80      3.98     74.00   2130.00     28.44   -999.25     93.65      0.00     21.63     94.22      5.31      2.92
 2052.0000   2052.00      3.79     74.00   2114.00     28.50   -999.25     91.64      0.00     19.51     95.11      5.26      2.88
 2052.2000   2052.20      3.59     74.00   2109.99     23.50   -999.25     89.63      0.00     16.87     94.69      5.20      2.83
 2052.4000   2052.40      3.38     75.00   2089.01     26.30   -999.25     89.47      0.00     12.57     95.46      5.15      2.81
 2052.6000   2052.60      3.18     74.00   2114.99     31.11   -999.25     90.16      0.00     12.75     94.16      5.11      2.86
 2052.8000   2052.80      2.98     74.00   2108.00     26.66   -999.25     90.84      0.00     12.51     95.96      5.06      2.90
 2053.0000   2053.00      2.79     74.00   2098.00     27.55   -999.25     91.53      0.00     14.28     96.00      5.02      2.94
 2053.2000   2053.20      2.59     75.00   2072.00     24.08   -999.25     92.96      0.00     15.20     97.70      4.98      2.99
 2053.4000   2053.40      2.38     75.00   2077.01     23.22   -999.25     96.01      0.00     18.16     96.34      5.10      3.07
 2053.6000   2053.60      2.18     75.00   2098.99     32.48   -999.25     99.06      0.00     19.43     96.00      5.27      3.18
 2053.8000   2053.80      1.99     75.00   2066.01     25.29   -999.25    102.12      0.00     16.25     96.00      5.45      3.28
 2054.0000   2054.00      1.79     74.00   2051.00     21.34   -999.25    108.07      0.00     16.08     94.54      5.62      3.38
 2054.2000   2054.20     29.72     78.00   1881.02      1.71   -999.25    152.94      0.00     13.93    100.00      6.21      3.93
 2054.4000   2054.40     29.52     76.00   1968.04     25.57   -999.25    170.44      0.00     13.72    100.00      6.97      4.37
 2054.6000   2054.60     29.32     75.00   2051.96     14.12   -999.25    162.00      0.00     13.51    100.00      6.91      4.31
 2054.8000   2054.80     29.12     75.00   2110.99     24.32   -999.25    153.56      0.00     13.29    100.00      6.85      4.24
 2055.0000   2055.00     28.92     74.00   2182.00     20.42   -999.25    145.12      0.00     13.08    100.00      6.75      4.17
 2055.2000   2055.20     28.72     74.00   2216.00     21.68   -999.25    148.06      0.00     11.76     98.60      6.56      4.06
 2055.4000   2055.40     28.52     74.00   2209.99     22.13   -999.25    151.16      0.00     12.11     98.00      6.37      3.94
 2055.6000   2055.60     28.32     74.00   2196.01     21.39   -999.25    154.26      0.00     10.36     98.00      6.18      3.83
 2055.8000   2055.80     28.13     74.00   2189.00     19.93   -999.25    158.08      0.00      9.54     97.90      6.31      3.86
 2056.0000   2056.00     27.92     74.00   2216.00     30.91   -999.25    162.81      0.00     15.66     96.27      6.58      3.95
 2056.2000   2056.20     27.72     74.00   2182.01     26.77   -999.25    167.54      0.00     15.05     97.36      6.85      4.04
 2056.4000   2056.40     27.52     73.00   2217.97     30.80   -999.25    172.27      0.00     15.00     96.93      7.11      4.12
 2056.6000   2056.60     27.32     73.00   2163.03     27.85   -999.25    177.00      0.00     14.29     96.79      7.34      4.20
 2056.8000   2056.80     27.12     73.00   2156.00     30.76   -999.25    179.07      0.76     53.65     89.43      7.19      4.15
 2057.0000   2057.00     26.92     75.00   2121.00     14.41   -999.25    180.42      2.12    131.37     79.86      7.03      4.10
 2057.2000   2057.20     26.72     76.00   1948.02     43.29   -999.25    181.77      0.57     46.77     98.29      6.88      4.06
 2057.4000   2057.40     26.52     74.00   2023.00     44.76   -999.25    183.12      0.01     11.14     96.05      6.73      4.01
 2057.6000   2057.60     26.32     75.00   2027.00     27.22   -999.25    182.22      0.00      7.67     97.68      6.73      3.91
 2057.8000   2057.80     26.13     75.00   2014.00     29.99   -999.25    177.04      0.00     10.70     98.00      6.80      3.78
 2058.0000   2058.00     25.92     75.00   2025.00     25.98   -999.25    171.87      0.00     10.86     99.23      6.87      3.65
 2058.2000   2058.20     25.72     75.00   1997.00     25.43   -999.25    166.70      0.00     13.64     98.85      6.94      3.52
 2058.4000   2058.40     25.52     75.00   2002.01     29.04   -999.25    161.53      0.00     16.61     98.85      6.99      3.41
 2058.6000   2058.60     25.32     75.00   2026.99     31.37   -999.25    160.77      0.00     15.49     99.61      6.94      3.45
 2058.8000   2058.80     25.12     75.00   2019.00     27.15   -999.25    161.86      0.00      9.18     98.00      6.89      3.49
 2059.0000   2059.00     24.92     75.00   2009.00     26.30   -999.25    162.95      0.00     10.16     98.00      6.84      3.54
 2059.2000   2059.20     24.72     75.00   2009.00     26.30   -999.25    164.04      0.00     12.08     98.00      6.79      3.58
 2059.4000   2059.40     24.53     75.00   2012.00     24.52   -999.25    164.47      0.00     13.96     98.00      6.72      3.70
 2059.6000   2059.60     24.33     75.00   2010.00     24.02   -999.25    160.22      0.00     21.36     98.00      6.64      3.87
 2059.8000   2059.80     24.12     75.00   2013.00     33.40   -999.25    155.97      0.00     19.38     98.00      6.55      4.04
 2060.0000   2060.00     23.92     75.00   2028.00     26.02   -999.25    151.72      0.00     13.93     98.00      6.47      4.22
 2060.2000   2060.20     23.72     75.00   2021.00     30.62   -999.25    147.47      0.00     13.19     98.00      6.38      4.39
 2060.4000   2060.40     23.52     75.00   2027.00     26.14   -999.25    145.02      0.00     14.78     98.00      6.44      4.27
 2060.6000   2060.60     23.32     75.00   2020.00     28.36   -999.25    143.52      0.00     10.20     98.00      6.51      4.14
 2060.8000   2060.80     23.12     75.00   2008.00     25.88   -999.25    142.02      0.00      9.30     98.00      6.58      4.01
 2061.0000   2061.00     22.92     75.00   2019.00     31.56   -999.25    140.52      0.00     13.73     98.00      6.64      3.88
 2061.2000   2061.20     22.72     75.00   2024.00     26.56   -999.25    139.02      0.00     15.31     98.00      6.60      3.81
 2061.4000   2061.40     22.53     75.00   2014.01     32.80   -999.25    139.20      0.00     15.58     98.77      6.38      3.85
 2061.6000   2061.60     22.33     75.00   2031.99     30.32   -999.25    139.40      0.00     15.77     99.73      6.16      3.89
 2061.8000   2061.80     22.13     75.00   2017.00     28.87   -999.25    139.60      0.00     14.39     98.11      5.93      3.93
 2062.0000   2062.00     21.92     75.00   2024.00     31.08   -999.25    139.81      0.00     15.06     98.00      5.71      3.97
 2062.2000   2062.20     21.72     75.00   2031.00     26.20   -999.25    139.94      0.00     14.00     99.13      5.58      3.99
 2062.4000   2062.40     21.52     75.00   2019.00     32.75   -999.25    138.39      0.00     13.97     99.16      5.65      3.95
 2062.6000   2062.60     21.32     75.00   2017.00     25.09   -999.25    136.85      0.00     15.88     97.52      5.71      3.91
 2062.8000   2062.80     21.12     75.00   2056.99     38.72   -999.25    135.30      0.00     17.54     96.14      5.77      3.87
 2063.0000   2063.00     20.92     75.00   2047.00     34.03   -999.25    133.76      0.00     14.83     97.30      5.84      3.83
 2063.2000   2063.20     20.72     75.00   2028.00     31.87   -999.25    132.22      0.00     12.74     98.83      5.87      3.82
 2063.4000   2063.40     20.52     75.00   2036.02     25.12   -999.25    128.59      0.00     13.41     99.62      5.84      3.89
 2063.6000   2063.60     20.32     75.00   2073.98     50.90   -999.25    124.63      0.00     18.44     98.26      5.81      3.96
 2063.8000   2063.80     20.12     75.00   2061.00     38.30   -999.25    120.67      0.00     18.55     97.00      5.77      4.02
