~Version Information
VERS.                       2.00: SCHLUMBERGER LAS - Version 2.00
WRAP.                         NO: One line per depth step
~Well Information
STRT.M                 1134.0000: Start Depth
STOP.M                 2124.0000: End Depth
STEP.M                    0.2000:  
NULL.                    -999.25:  
COMP.                    Bapetco: COMPANY
WELL.                BED 3 C18-N: WELL
FLD .                      BED 3: FLD
SRVC.               Schlumberger: SERVICE COMPANY
LOC .                           : LOCATION
DATE.                  05-Jul-20: LOG DATE
UWI .                  20EGP0553: API NUMBER
~Curve Information
DEPT.M                          : MWD Tool Measurement Depth
BDEP.M                          : Bit Depth
KPOSI.M                          : Kelly Position (Raw)
HKL .KLBF                       : Hook Load
SPP .PSI                        : Standpipe Pressure
ROP .M/HR                       : Rate of Penetration (MWD Depth Ave.)
PSPD.M/MIN                      : Instantaneous Pipe Speed
VIBC.CPS                        : Vibration Count
SSL_H.                           : Stick Slip Level from HDS1
SSS_H.                           : Stick Slip Percentage from HDS1
RPM_H.                           : Average RPM from HDS1
VIBXYH.                           : Vibration XY
VIBZH.                           : Vibration Z
#     DEPT      BDEP     KPOSI       HKL       SPP       ROP      PSPD      VIBC     SSL_H     SSS_H     RPM_H    VIBXYH     VIBZH
#        M         M         M      KLBF       PSI      M/HR     M/MIN       CPS                                                  
#
# Relog Number     0         0         0         0         0         0         0         0         0         0         0         0
#
~ASCII Data
# ...
 1196.0000   1196.00     25.98     74.00   2186.00     78.08   -999.25     16.41      0.00     17.60     97.86      2.10      0.40
 1196.2000   1196.20     25.78     74.00   2174.00     80.03   -999.25     16.88      0.00     17.35     98.00      2.08      0.40
 1196.4000   1196.40     25.58     74.00   2187.00     75.32   -999.25     17.35      0.00     17.35     98.00      2.05      0.40
 1196.6000   1196.60     25.38     74.00   2169.00     80.03   -999.25     17.81      0.00     17.35     98.00      2.03      0.40
 1196.8000   1196.80     25.18     74.00   2183.00     79.79   -999.25     18.28      0.00     17.05     98.00      2.01      0.40
 1197.0000   1197.00     24.98     75.00   2160.00     82.28   -999.25     18.74      0.00     16.46     98.00      1.99      0.40
 1197.2000   1197.20     24.78     75.00   2171.99     83.11   -999.25     18.80      0.00     15.87     98.00      1.97      0.41
 1197.4000   1197.40     24.58     76.00   2125.01     82.76   -999.25     18.34      0.00     15.39     98.00      1.96      0.43
 1197.6000   1197.60     24.38     76.00   2129.00     82.96   -999.25     17.89      0.00     16.56     98.00      1.95      0.44
 1197.8000   1197.80     24.18     76.00   2139.00     83.17   -999.25     17.43      0.00     17.74     98.00      1.94      0.46
 1198.0000   1198.00     23.98     75.00   2146.00     83.20   -999.25     16.98      0.00     18.92     98.00      1.93      0.47
 1198.2000   1198.20     23.78     75.00   2187.00     82.71   -999.25     16.52      0.00     18.60     98.00      1.92      0.49
 1198.4000   1198.40     23.58     74.00   2194.00     75.88   -999.25     16.07      0.00     17.29     98.00      1.91      0.50
 1198.6000   1198.60     23.38     74.00   2189.00     70.71   -999.25     15.62      0.00     15.98     98.00      1.90      0.52
 1198.8000   1198.80     23.18     74.00   2192.00     72.47   -999.25     15.16      0.00     15.20     97.69      1.89      0.53
 1199.0000   1199.00     22.98     74.00   2190.00     74.49   -999.25     14.71      0.00     14.97     97.06      1.88      0.55
 1199.2000   1199.20     22.78     74.00   2184.00     76.56   -999.25     14.25      0.00     14.74     96.43      1.87      0.56
 1199.4000   1199.40     22.58     75.00   2178.00     80.57   -999.25     13.80      0.00     15.21     96.18      1.86      0.58
 1199.6000   1199.60     22.38     75.00   2146.00     82.96   -999.25     13.34      0.00     17.19     96.76      1.85      0.59
 1199.8000   1199.80     22.18     75.00   2138.00     83.20   -999.25     12.89      0.00     19.17     97.34      1.86      0.60
 1200.0000   1200.00     21.98     75.00   2153.00     83.17   -999.25     12.44      0.00     21.15     97.92      1.89      0.60
 1200.2000   1200.20     21.78     75.00   2138.01     82.47   -999.25     11.98      0.00     20.47     97.48      1.93      0.60
 1200.4000   1200.40     21.58     75.00   2196.99     81.74   -999.25     11.53      0.00     19.35     96.88      1.96      0.60
 1200.6000   1200.60     21.38     74.00   2209.00     78.32   -999.25     11.07      0.00     18.24     96.28      1.99      0.60
 1200.8000   1200.80     21.18     74.00   2189.00     74.05   -999.25     10.62      0.00     17.35     96.00      2.02      0.60
 1201.0000   1201.00     20.98     74.00   2216.00     72.25   -999.25     10.17      0.00     16.67     96.00      2.06      0.60
 1201.2000   1201.20     20.78     74.00   2172.01     73.39   -999.25      9.71      0.00     15.98     96.00      2.09      0.60
 1201.4000   1201.40     20.58     74.00   2209.00     75.81   -999.25      9.26      0.00     16.71     96.28      2.12      0.60
 1201.6000   1201.60     20.38     74.00   2196.00     80.27   -999.25      8.81      0.00     19.04     96.87      2.16      0.60
 1201.8000   1201.80     20.18     75.00   2160.01     83.20   -999.25      8.35      0.00     21.37     97.47      2.19      0.60
 1202.0000   1202.00     19.98     75.00   2162.00     82.62   -999.25      7.90      0.00     23.57     97.94      2.22      0.60
 1202.2000   1202.20     19.78     76.00   2149.00     83.20   -999.25      7.44      0.00     24.62     97.37      2.26      0.60
 1202.4000   1202.40     19.58     75.00   2143.00     82.96   -999.25      7.00      0.00     25.66     96.79      2.28      0.60
 1202.6000   1202.60     19.38     75.00   2181.00     83.17   -999.25      7.08      0.00     26.70     96.21      2.30      0.58
 1202.8000   1202.80     19.19     75.00   2179.00     83.01   -999.25      7.15      0.00     28.28     96.00      2.31      0.57
 1203.0000   1203.00     18.98     74.00   2216.00     82.47   -999.25      7.22      0.00     30.16     96.00      2.32      0.55
 1203.2000   1203.20     18.78     74.00   2213.00     76.12   -999.25      7.30      0.00     32.05     96.00      2.33      0.54
 1203.4000   1203.40     18.58     74.00   2211.00     77.10   -999.25      7.37      0.00     31.83     96.19      2.34      0.52
 1203.6000   1203.60     18.38     74.00   2200.00     81.49   -999.25      7.44      0.00     27.14     96.77      2.35      0.51
 1203.8000   1203.80     18.18     75.00   2188.00     82.96   -999.25      7.52      0.00     22.46     97.36      2.37      0.49
 1204.0000   1204.00     17.98     75.00   2136.00     82.47   -999.25      7.59      0.00     17.77     97.95      2.38      0.48
 1204.2000   1204.20     17.78     76.00   2123.99     83.44   -999.25      7.67      0.00     19.63     97.47      2.39      0.46
 1204.4000   1204.40     17.58     76.00   2099.00     83.20   -999.25      7.74      0.00     22.14     96.90      2.40      0.45
 1204.6000   1204.60     17.38     76.00   2118.00     83.01   -999.25      7.81      0.00     24.65     96.32      2.41      0.43
 1204.8000   1204.80     17.18     76.00   2126.00     83.11   -999.25      7.89      0.00     26.62     96.00      2.43      0.42
 1205.0000   1205.00     16.98     75.00   2149.00     80.66   -999.25      7.96      0.00     27.92     96.00      2.44      0.40
 1205.2000   1205.20     16.78     75.00   2174.01     73.56   -999.25      7.96      0.00     29.22     96.00      2.42      0.41
 1205.4000   1205.40     16.58     75.00   2200.00     71.98   -999.25      7.88      0.08     31.14     96.16      2.38      0.43
 1205.6000   1205.60     16.38     74.00   2233.00     72.55   -999.25      7.79      0.42     35.09     96.84      2.34      0.45
 1205.8000   1205.80     16.18     74.00   2227.00     71.41   -999.25      7.71      0.76     39.05     97.52      2.30      0.46
 1206.0000   1206.00     15.98     74.00   2226.00     69.26   -999.25      7.62      0.90     41.21     97.80      2.27      0.48
 1206.2000   1206.20     15.78     74.00   2236.99     70.59   -999.25      7.54      0.57     39.06     97.13      2.23      0.50
 1206.4000   1206.40     15.58     74.00   2211.00     71.98   -999.25      7.45      0.23     36.91     96.46      2.19      0.51
 1206.6000   1206.60     15.38     75.00   2223.00     73.00   -999.25      7.37      0.00     34.93     96.21      2.15      0.53
 1206.8000   1206.80     15.18     74.00   2223.00     72.38   -999.25      7.28      0.00     33.31     96.88      2.12      0.55
 1207.0000   1207.00     14.98     74.00   2219.00     70.59   -999.25      7.20      0.00     31.69     97.55      2.08      0.56
 1207.2000   1207.20     14.78     74.00   2255.00     67.10   -999.25      7.11      0.00     30.97     97.73      2.04      0.58
 1207.4000   1207.40     14.58     74.00   2258.00     65.08   -999.25      7.03      0.00     32.07     96.93      2.00      0.60
 1207.6000   1207.60     14.38     74.00   2281.00     55.68   -999.25      8.22      0.00     33.17     96.12      2.12      0.60
 1207.8000   1207.80     14.18     74.00   2303.99     45.24   -999.25      9.95      0.00     29.47     96.00      2.26      0.60
 1208.0000   1208.00     13.98     74.00   2268.00     43.48   -999.25     11.68      0.00     25.03     96.00      2.40      0.60
 1208.2000   1208.20     13.79     74.00   2265.99     46.09   -999.25     13.40      0.00     28.42     96.00      2.54      0.60
