~Version Information
VERS.                       2.00: SCHLUMBERGER LAS - Version 2.00
WRAP.                         NO: One line per depth step
~Well Information
STRT.FT                2257.0000: Start Depth
STOP.FT                3002.0000: End Depth
STEP.FT                   0.2000:  
NULL.                    -999.25:  
COMP.                    BAPETCO: COMPANY
WELL.                BED 3 C18-M: WELL
FLD .                   BED AREA: FLD
SRVC.               Schlumberger: SERVICE COMPANY
LOC .                           : LOCATION
DATE.                  21-Sep-19: LOG DATE
UWI .                  19EGP0321: API NUMBER
~Curve Information
DEPT.FT                         : MWD Tool Measurement Depth
ROPI.FT/HR                      : Rate of Penetration (Time Based)
KPOSI.FT                         : Kelly Position (Raw)
HKL I.KLBF                       : Hook Load (Raw)
SPP I.PSI                        : Standpipe Pressure (Raw)
PSPD.FT/MIN                     : Instantaneous Pipe Speed
VIBC.CPS                        : Vibration Count
VIBXYH.                           : Vibration XY
VIBZH.                           : Vibration Z
SSS_H.                           : Stick Slip Percentage from HDS1
SSL_H.                           : Stick Slip Level from HDS1
RPM_H.                           : Average RPM from HDS1
#     DEPT      ROPI     KPOSI     HKL I     SPP I      PSPD      VIBC    VIBXYH     VIBZH     SSS_H     SSL_H     RPM_H
#       FT     FT/HR        FT      KLBF       PSI    FT/MIN       CPS                                                  
#
# Relog Number     0         0         0         0         0         0         0         0         0         0         0
#
~ASCII Data
# ...
 2498.2000     64.65     68.86    204.06   2038.12   -999.25      8.16      2.00      2.00     44.66      0.38    136.67
 2498.4000     98.71     68.18    204.58   2046.71   -999.25     11.43      2.00      2.00     49.57      0.70    137.06
 2498.6000    194.47     67.52    201.49   2067.92   -999.25     14.69      2.00      2.00     54.00      1.00    137.44
 2498.8000    110.49     66.86    201.63   2077.77   -999.25     16.00      2.00      2.00     54.00      1.00    137.83
 2499.0000    234.72     66.24    200.35   1997.20   -999.25     16.00      2.00      2.00     54.00      1.00    138.00
 2499.2000    232.91     65.55    201.11   2003.88   -999.25     16.00      2.00      2.00     54.00      1.00    138.00
 2499.4000    119.64     64.93    201.68   2034.86   -999.25     16.00      2.00      2.00     54.24      1.00    138.00
 2499.6000    206.91     64.24    204.26   2021.83   -999.25     15.68      2.00      2.00     54.50      1.00    138.00
 2499.8000    102.02     63.60    201.43   2032.37   -999.25     14.08      2.00      2.00     54.76      1.00    138.00
 2500.0000    204.73     62.94    200.13   2012.01   -999.25     12.48      2.00      2.00     55.46      1.00    138.00
 2500.2000     98.73     62.27    202.07   2076.96   -999.25     12.00      2.00      2.00     64.69      1.00    138.00
 2500.4000    201.91     61.61    200.13   2060.80   -999.25     12.00      2.00      2.00     73.92      1.00    137.86
 2500.6000    112.44     60.96    198.87   2025.49   -999.25     25.86      2.00      2.00     79.00      1.00    137.60
 2500.8000    135.08     60.33    202.65   2036.09   -999.25     28.00      2.00      2.00     78.23      1.00    137.34
 2501.0000    235.64     59.65    200.45   2064.52   -999.25     25.94      2.00      2.00     76.05      1.00    137.08
 2501.2000    176.89     58.99    204.44   2051.57   -999.25     19.06      2.00      2.00     73.86      1.00    136.83
 2501.4000    131.37     58.33    202.98   2027.45   -999.25     12.19      2.00      2.00     70.68      0.96    136.57
 2501.6000    230.70     57.68    202.66   2029.17   -999.25      6.00      2.00      2.00     61.85      0.70    136.31
 2501.8000    141.59     57.03    201.25   2081.10   -999.25      6.00      2.00      2.00     53.01      0.44    136.05
 2502.0000    116.73     56.36    203.24   2037.55   -999.25      6.00      2.00      2.00     44.18      0.18    136.00
 2502.2000    253.76     55.74    203.57   2010.29   -999.25      6.00      2.00      2.00     38.14      0.00    136.00
 2502.4000     88.47     55.06    202.84   2003.72   -999.25      6.00      2.00      2.00     38.59      0.00    136.00
 2502.6000    117.80     54.40    200.84   2082.92   -999.25      5.69      2.00      2.00     39.05      0.00    136.00
 2502.8000     67.43     53.74    201.55   1993.52   -999.25      5.06      2.00      2.00     39.50      0.00    136.00
 2503.0000    151.84     53.08    201.36   2025.67   -999.25      4.44      2.00      2.00     39.95      0.00    136.00
 2503.2000    129.83     52.43    202.73   2072.92   -999.25      4.00      2.00      2.00     41.54      0.26    136.00
 2503.4000    140.49     51.78    200.49   2037.49   -999.25      4.00      2.00      2.00     43.26      0.54    136.00
 2503.6000    119.95     51.12    203.04   2061.37   -999.25      4.00      2.00      2.00     44.97      0.83    136.49
 2503.8000    162.76     50.49    200.87   2058.82   -999.25      4.00      2.00      2.00     46.00      1.00    137.03
 2504.0000    111.31     49.84    201.30   2054.22   -999.25      4.00      2.00      2.00     46.00      1.00    137.58
 2504.2000    177.23     49.16    200.69   2051.35   -999.25      4.00      2.00      2.00     46.00      1.00    138.12
 2504.4000    276.62     48.51    202.95   2047.14   -999.25      4.00      2.00      2.00     46.00      1.00    138.67
 2504.6000    127.79     47.84    203.70   2018.06   -999.25      4.00      2.00      2.00     45.63      1.00    139.21
 2504.8000    250.30     47.18    202.83   2047.99   -999.25      3.48      2.00      2.00     44.16      1.00    139.76
 2505.0000    126.53     46.53    202.26   2025.62   -999.25      2.61      2.00      2.00     42.69      1.00    139.72
 2505.2000    126.63     45.88    201.36   2004.32   -999.25      2.00      2.00      2.00     41.22      1.00    139.20
 2505.4000     74.56     45.21    204.63   2007.05   -999.25      2.00      2.00      2.00     41.66      1.00    138.69
 2505.6000    162.48     44.56    203.75   2073.18   -999.25      2.18      2.00      2.00     42.44      1.00    138.18
 2505.8000    242.11     43.90    201.21   1977.75   -999.25      2.80      2.00      2.00     43.22      1.00    137.67
 2506.0000    129.76     43.24    203.11   2047.18   -999.25      3.42      2.00      2.00     44.00      1.00    137.15
 2506.2000    116.49     42.62    203.11   2058.32   -999.25      4.00      2.00      2.00     40.00      0.76    136.64
 2506.4000    220.11     41.96    202.16   2077.89   -999.25      4.00      2.00      2.00     36.00      0.53    136.13
 2506.6000    126.22     41.28    203.20   2018.84   -999.25      4.00      2.00      2.00     32.00      0.29    136.59
 2506.8000    206.49     40.62    203.70   2010.55   -999.25      4.00      2.00      2.00     28.00      0.06    137.38
 2507.0000    173.59     39.96    200.96   2039.44   -999.25      4.00      2.00      2.00     26.57      0.00    138.17
 2507.2000     13.37     39.34    202.35   2054.30   -999.25      3.96      2.00      2.00     25.99      0.00    138.96
 2507.4000     64.75     38.68    205.01   1967.39   -999.25      3.22      2.00      2.00     25.41      0.00    139.75
 2507.6000     80.57     38.03    206.23   2047.86   -999.25      2.48      2.00      2.00     26.11      0.00    140.54
 2507.8000     60.14     37.34    204.17   2018.67   -999.25      2.00      2.00      2.00     29.83      0.00    141.33
 2508.0000     60.70     36.68    204.70   2027.79   -999.25      2.00      2.00      2.00     33.54      0.00    141.92
 2508.2000     82.86     36.02    206.81   1993.63   -999.25      2.10      2.00      2.00     37.26      0.00    141.37
 2508.4000    197.20     35.37    202.73   2068.33   -999.25      3.13      2.00      2.00     35.98      0.00    140.83
 2508.6000    136.89     34.71    202.85   2049.26   -999.25      4.00      2.00      2.00     33.45      0.00    140.29
 2508.8000    130.67     34.08    203.81   2020.70   -999.25      4.00      2.00      2.00     30.92      0.00    139.74
 2509.0000    182.69     33.42    203.64   2010.49   -999.25      4.00      2.00      2.00     28.39      0.00    139.20
 2509.2000    185.22     32.74    203.57   2062.80   -999.25      4.00      2.00      2.00     27.90      0.00    138.65
 2509.4000    106.82     32.09    204.13   2072.88   -999.25      4.00      2.00      2.00     29.90      0.00    138.11
 2509.6000    110.41     31.43    203.29   2023.23   -999.25      4.00      2.00      2.00     31.90      0.00    138.20
 2509.8000    154.95     30.77    203.81   2007.40   -999.25      4.00      2.00      2.00     33.90      0.00    138.45
 2510.0000    116.61     30.12    202.98   2046.21   -999.25      4.00      2.00      2.00     34.00      0.00    138.70
 2510.2000    177.75     29.46    202.99   2049.55   -999.25      4.00      2.00      2.00     34.00      0.00    138.94
 2510.4000    125.22     28.81    204.75   2051.08   -999.25      4.00      2.00      2.00     34.00      0.00    139.19
 2510.6000    162.69     28.16    205.91   2005.37   -999.25      4.00      2.00      2.00     34.00      0.00    139.44
 2510.8000     55.12     27.50    205.76   2021.03   -999.25      3.96      2.00      2.00     34.78      0.00    139.69
 2511.0000    100.92     26.87    208.52   2065.32   -999.25      3.13      2.00      2.00     36.50      0.00    139.94
 2511.2000    163.39     26.19    202.98   2033.14   -999.25      2.29      2.00      2.00     38.22      0.00    139.49
 2511.4000     78.17     25.52    204.30   1999.90   -999.25      2.00      2.00      2.00     41.41      0.17    138.81
