~Version Information
VERS.                       2.00: SCHLUMBERGER LAS - Version 2.00
WRAP.                         NO: One line per depth step
~Well Information
STRT.FT                2257.0000: Start Depth
STOP.FT                3002.0000: End Depth
STEP.FT                   0.2000:  
NULL.                    -999.25:  
COMP.                    BAPETCO: COMPANY
WELL.                BED 3 C18-M: WELL
FLD .                   BED AREA: FLD
SRVC.               Schlumberger: SERVICE COMPANY
LOC .                           : LOCATION
DATE.                  21-Sep-19: LOG DATE
UWI .                  19EGP0321: API NUMBER
~Curve Information
DEPT.FT                         : MWD Tool Measurement Depth
ROPI.FT/HR                      : Rate of Penetration (Time Based)
KPOSI.FT                         : Kelly Position (Raw)
HKL I.KLBF                       : Hook Load (Raw)
SPP I.PSI                        : Standpipe Pressure (Raw)
PSPD.FT/MIN                     : Instantaneous Pipe Speed
VIBC.CPS                        : Vibration Count
VIBXYH.                           : Vibration XY
VIBZH.                           : Vibration Z
SSS_H.                           : Stick Slip Percentage from HDS1
SSL_H.                           : Stick Slip Level from HDS1
RPM_H.                           : Average RPM from HDS1
#     DEPT      ROPI     KPOSI     HKL I     SPP I      PSPD      VIBC    VIBXYH     VIBZH     SSS_H     SSL_H     RPM_H
#       FT     FT/HR        FT      KLBF       PSI    FT/MIN       CPS                                                  
#
# Relog Number     0         0         0         0         0         0         0         0         0         0         0
#
~ASCII Data
# ...
 2900.2000    151.26     76.25    203.08   2487.00   -999.25      4.00      2.00      2.00     78.87      1.79    123.72
 2900.4000    229.29     75.59    202.04   2493.02   -999.25      4.00      2.00      2.00     72.25      1.46    122.58
 2900.6000     95.34     74.93    204.06   2479.58   -999.25      4.00      2.00      2.00     65.64      1.13    121.44
 2900.8000    139.27     74.28    203.21   2508.68   -999.25      4.00      2.00      2.00     59.00      0.86    120.31
 2901.0000    174.74     73.59    203.40   2489.21   -999.25      4.00      2.00      2.00     52.33      0.63    119.17
 2901.2000     98.70     72.96    203.45   2505.83   -999.25      4.37      2.00      2.00     45.67      0.40    118.03
 2901.4000     78.71     72.28    203.86   2468.30   -999.25      5.03      2.00      2.00     39.00      0.17    116.90
 2901.6000     64.50     71.64    204.06   2523.74   -999.25      5.70      2.00      2.00     35.23      0.09    115.76
 2901.8000    189.24     71.00    202.90   2527.58   -999.25      6.00      2.00      2.00     40.14      0.44    114.62
 2902.0000     71.70     70.34    202.32   2510.59   -999.25      6.00      2.00      2.00     45.05      0.79    113.87
 2902.2000     44.44     69.65    203.97   2484.48   -999.25      6.00      2.00      2.00     51.02      1.00    113.58
 2902.4000     99.80     69.02    205.69   2534.77   -999.25      6.00      2.00      2.00     58.59      1.00    113.29
 2902.6000    243.48     68.37    203.46   2533.83   -999.25      4.89      2.00      2.00     66.16      1.00    113.01
 2902.8000     93.29     67.71    204.71   2500.05   -999.25      3.66      2.00      2.00     73.73      1.00    112.72
 2903.0000    149.18     67.04    202.41   2532.00   -999.25      2.43      2.00      2.00     74.74      1.00    112.43
 2903.2000     63.43     66.39    203.82   2509.64   -999.25      2.00      2.00      2.00     72.94      1.00    112.14
 2903.4000    242.84     65.75    202.40   2519.38   -999.25      2.00      2.00      2.00     71.14      1.00    113.00
 2903.6000    190.74     65.09    203.78   2553.61   -999.25      2.00      2.00      2.00     69.34      1.00    115.01
 2903.8000    268.17     64.44    202.59   2511.14   -999.25      2.13      2.00      2.00     67.54      1.00    117.02
 2904.0000    160.45     63.78    202.63   2532.57   -999.25      2.67      2.00      2.00     65.23      1.00    119.03
 2904.2000    210.81     63.11    203.63   2553.66   -999.25      3.20      2.00      2.00     62.69      1.00    121.04
 2904.4000    184.59     62.45    203.15   2541.01   -999.25      3.73      2.00      2.00     60.16      1.00    123.05
 2904.6000    126.49     61.81    204.82   2532.35   -999.25      4.00      2.00      2.00     57.62      1.00    125.06
 2904.8000    218.50     61.13    201.32   2552.45   -999.25      4.00      2.00      2.00     55.09      1.00    127.07
 2905.0000    211.08     60.48    203.13   2511.74   -999.25      4.00      2.00      2.00     52.55      1.00    129.08
 2905.2000    255.87     59.81    202.24   2518.45   -999.25      4.00      2.00      2.00     50.01      1.00    131.09
 2905.4000    128.96     59.19    201.79   2534.07   -999.25      4.00      2.00      2.00     52.48      1.00    133.10
 2905.6000     51.83     58.52    202.57   2494.27   -999.25      4.12      2.00      2.00     59.93      1.06    128.00
 2905.8000     88.70     57.85    202.94   2566.91   -999.25      6.00      2.00      2.00     98.80      2.20    117.09
 2906.0000     56.52     57.22    204.16   2555.18   -999.25      6.00      2.00      2.00    138.30      3.00    106.18
 2906.2000     42.61     56.54    207.80   2532.40   -999.25      4.00      2.00      2.00    196.00      3.00     98.35
 2906.4000     43.72     55.91    205.87   2544.06   -999.25      4.73      2.00      2.00    196.00      3.00     99.74
 2906.6000    141.99     55.23    206.05   2546.42   -999.25      6.37      2.00      2.00    196.00      3.00    101.14
 2906.8000     19.27     54.57    207.36   2546.33   -999.25      8.00      2.00      2.00    180.48      3.00    102.53
 2907.0000    124.67     53.93    205.82   2538.79   -999.25      8.00      2.00      2.00    152.26      3.00    103.93
 2907.2000     43.88     53.28    205.10   2577.88   -999.25      8.00      2.00      2.00    124.05      3.00    112.61
 2907.4000     87.52     52.62    208.26   2547.26   -999.25      6.00      2.00      2.00     82.17      2.03    121.68
 2907.6000     58.63     51.95    209.35   2537.63   -999.25      6.00      2.00      2.00     44.78      1.00    130.75
 2907.8000      0.00     51.31    211.37   2561.17   -999.25      6.73      2.00      2.00     43.69      1.00    136.87
 2908.0000    196.27     50.66    209.54   2567.02   -999.25      7.64      2.00      2.00     42.60      1.00    131.24
 2908.2000    224.08     49.98    206.42   2582.15   -999.25      8.00      2.00      2.00     45.90      1.00    125.61
 2908.4000    276.24     49.34    204.45   2585.94   -999.25      8.00      2.00      2.00     54.59      1.00    119.97
 2908.6000    123.17     48.69    204.59   2605.27   -999.25      8.00      2.00      2.00     63.27      1.00    114.34
 2908.8000    137.27     48.03    203.97   2556.34   -999.25      8.00      2.00      2.00     71.96      1.00    108.70
 2909.0000     56.52     47.35    203.99   2575.24   -999.25      8.00      2.00      2.00     86.22      1.59    103.07
 2909.2000    111.21     46.70    203.16   2577.34   -999.25      8.00      2.00      2.00    103.49      2.50     96.94
 2909.4000    123.21     46.05    204.44   2568.58   -999.25      8.00      2.00      2.00    115.11      3.00     86.38
 2909.6000    180.26     45.40    203.04   2587.10   -999.25      7.39      2.00      2.00    119.79      3.00     75.83
 2909.8000     22.51     44.75    202.02   2588.34   -999.25      4.31      2.00      2.00    127.91      3.00     65.27
 2910.0000     78.38     44.08    206.15   2531.15   -999.25      4.00      2.00      2.00    167.04      3.00     65.57
 2910.2000     57.15     43.41    203.55   2537.16   -999.25      7.17      2.00      2.00    169.00      3.00     76.71
 2910.4000    116.50     42.78    205.49   2565.93   -999.25      8.00      2.00      2.00    169.00      3.00     87.85
 2910.6000      0.16     42.13    203.30   2557.33   -999.25      8.00      2.00      2.00    155.80      3.00     98.99
 2910.8000      0.00     41.44    202.72   2551.45   -999.25      8.00      2.00      2.00    126.48      3.00    101.03
 2911.0000     19.74     40.81    202.34   2557.21   -999.25     15.37      2.00      2.00    136.31      3.00     95.64
 2911.2000    185.79     40.14    205.61   2564.91   -999.25     12.21      2.00      2.00    148.22      3.00     90.25
 2911.4000    157.28     39.50    204.34   2538.64   -999.25     10.00      2.00      2.00    150.00      3.00     84.86
 2911.6000    148.90     38.84    202.91   2558.33   -999.25     10.00      2.00      2.00    150.00      3.00     79.85
 2911.8000     56.99     38.19    202.68   2568.37   -999.25     10.00      2.00      2.00    146.73      3.00     78.33
 2912.0000     30.80     37.52    204.84   2593.34   -999.25     10.00      2.00      2.00    137.40      3.00     76.81
 2912.2000    145.64     36.87    207.02   2565.80   -999.25     10.00      2.00      2.00    136.00      3.00     75.29
 2912.4000     92.97     36.21    206.02   2534.09   -999.25     10.00      2.00      2.00    136.00      3.00     75.17
 2912.6000     67.58     35.54    207.36   2544.72   -999.25     10.00      2.00      2.00    135.58      2.99     82.97
 2912.8000    236.70     34.91    204.64   2541.47   -999.25     10.00      2.00      2.00    127.09      2.79     90.78
 2913.0000     59.40     34.22    205.68   2565.88   -999.25     10.00      2.00      2.00    118.61      2.59     98.58
 2913.2000    145.59     33.57    204.80   2574.69   -999.25      8.89      2.00      2.00    110.12      2.38    106.39
 2913.4000     12.36     32.94    207.73   2543.89   -999.25      7.05      2.00      2.00    101.64      2.18    114.19
