~Version Information
VERS.                       2.00: SCHLUMBERGER LAS - Version 2.00
WRAP.                         NO: One line per depth step
~Well Information
STRT.FT                1138.0000: Start Depth
STOP.FT                2257.0000: End Depth
STEP.FT                   0.2000:  
NULL.                    -999.25:  
COMP.                    BAPETCO: COMPANY
WELL.                BED 3 C18-M: WELL
FLD .                   BED AREA: FLD
SRVC.               Schlumberger: SERVICE COMPANY
LOC .                           : LOCATION
DATE.                  19-Sep-19: LOG DATE
UWI .                  19EGP0321: API NUMBER
~Curve Information
DEPT.FT                         : MWD Tool Measurement Depth
ROPI.FT/HR                      : Rate of Penetration (Time Based)
KPOSI.FT                         : Kelly Position (Raw)
HKL I.KLBF                       : Hook Load (Raw)
SPP I.PSI                        : Standpipe Pressure (Raw)
PSPD.FT/MIN                     : Instantaneous Pipe Speed
VIBC.CPS                        : Vibration Count
VIBXYH.                           : Vibration XY
VIBZH.                           : Vibration Z
SSS_H.                           : Stick Slip Percentage from HDS1
SSL_H.                           : Stick Slip Level from HDS1
RPM_H.                           : Average RPM from HDS1
#     DEPT      ROPI     KPOSI     HKL I     SPP I      PSPD      VIBC    VIBXYH     VIBZH     SSS_H     SSL_H     RPM_H
#       FT     FT/HR        FT      KLBF       PSI    FT/MIN       CPS                                                  
#
# Relog Number     0         0         0         0         0         0         0         0         0         0         0
#
~ASCII Data
# ...
 2183.2000    126.53     14.30    189.05   2501.95   -999.25     23.38      2.00      2.00    169.31      3.00    106.00
 2183.4000     43.75     13.68    189.47   2512.68   -999.25     28.23      2.00      2.00    160.20      3.00    106.00
 2183.6000     90.01     12.99    187.95   2482.48   -999.25     34.00      2.00      2.00    149.75      3.00    106.79
 2183.8000    133.29     12.34    185.71   2475.74   -999.25     32.49      2.00      2.00    148.04      3.00    107.72
 2184.0000    168.26     11.68    191.90   2416.54   -999.25     28.16      2.00      2.00    146.34      3.00    108.65
 2184.2000    143.29     11.02    192.54   2479.61   -999.25     29.12      2.00      2.00    151.49      3.00    109.58
 2184.4000     46.43     10.37    192.04   2505.94   -999.25     35.38      2.00      2.00    158.00      3.00    109.56
 2184.6000     83.24      9.71    192.38   2518.28   -999.25     35.36      2.00      2.00    158.00      3.00    108.75
 2184.8000     56.59      9.06    191.18   2485.50   -999.25     33.84      2.00      2.00    154.80      3.00    107.94
 2185.0000     48.59      8.40    191.69   2458.26   -999.25     32.79      2.00      2.00    150.80      3.00    107.13
 2185.2000     90.95      7.74    188.49   2498.76   -999.25     32.00      2.00      2.00    138.23      3.00    106.32
 2185.4000     27.95      7.09    192.56   2458.10   -999.25     31.63      2.00      2.00    125.70      3.00    106.96
 2185.6000     65.02      6.43    189.62   2463.76   -999.25     28.00      2.00      2.00    132.68      3.00    108.56
 2185.8000      1.53      5.77    192.93   2454.88   -999.25     33.00      2.00      2.00    139.65      3.00    110.16
 2186.0000     31.72      5.12    193.80   2493.83   -999.25     36.00      2.00      2.00    140.00      3.00    111.76
 2186.2000     61.05     95.73    192.42   2512.34   -999.25     39.21      2.00      2.00    143.20      3.00    111.29
 2186.4000     22.37     95.08    191.73   2525.37   -999.25     38.00      2.00      2.00    146.62      3.00    110.46
 2186.6000     38.82     94.42    191.65   2535.21   -999.25     38.00      2.00      2.00    143.17      3.00    109.76
 2186.8000     74.11     93.77    192.09   2524.00   -999.25     32.00      2.00      2.00    134.93      3.00    109.22
 2187.0000    145.62     93.11    192.23   2480.46   -999.25     29.14      2.00      2.00    126.43      3.00    108.68
 2187.2000    121.19     92.45    191.18   2462.49   -999.25     28.00      2.00      2.00    127.58      3.00    108.14
 2187.4000    103.00     91.82    190.06   2466.10   -999.25     28.74      2.00      2.00    128.49      3.00    109.38
 2187.6000     12.77     91.14    190.10   2518.14   -999.25     30.00      2.00      2.00    125.07      3.00    111.23
 2187.8000      0.11     90.49    191.99   2524.16   -999.25     28.00      2.00      2.00    124.23      3.00    113.08
 2188.0000     97.66     89.83    190.38   2495.62   -999.25     22.00      2.00      2.00    142.67      3.00    110.84
 2188.2000      0.00     89.17    191.19   2520.02   -999.25     28.00      2.00      2.00    149.33      3.00    104.52
 2188.4000     63.63     88.52    191.58   2548.54   -999.25     27.37      2.00      2.00    146.43      3.00     98.21
 2188.6000     55.34     87.86    189.72   2542.64   -999.25     28.79      2.00      2.00    131.93      3.00     95.53
 2188.8000     80.08     87.20    191.52   2505.83   -999.25     28.34      2.00      2.00    118.08      3.00     94.80
 2189.0000      0.00     86.55    190.19   2545.46   -999.25     28.40      2.00      2.00    134.20      3.00     94.07
 2189.2000     53.33     85.89    189.85   2578.33   -999.25     24.00      2.00      2.00    147.42      3.00     94.61
 2189.4000     92.31     85.24    190.70   2544.93   -999.25     24.92      2.00      2.00    150.58      3.00     95.29
 2189.6000      0.00     84.58    191.95   2554.05   -999.25     25.37      2.00      2.00    152.00      3.00     95.97
 2189.8000     53.07     83.92    189.76   2540.38   -999.25     24.00      2.00      2.00    146.93      3.00     94.64
 2190.0000     26.91     83.27    191.99   2544.89   -999.25     26.54      2.00      2.00    132.45      3.00     93.21
 2190.2000     42.78     82.61    191.80   2548.28   -999.25     26.74      2.00      2.00    140.69      3.00     93.22
 2190.4000    343.77     81.96    190.97   2572.82   -999.25     32.00      2.00      2.00    114.74      2.48    101.36
 2190.6000    107.40     81.31    191.78   2548.45   -999.25     41.23      2.00      2.00     93.53      2.23    109.49
 2190.8000     23.78     80.64    190.38   2535.88   -999.25     44.00      2.00      2.00    108.03      2.73    114.97
 2191.0000     45.56     79.99    190.36   2508.25   -999.25     32.35      2.00      2.00    119.66      3.00    109.81
 2191.2000      0.62     79.33    188.87   2553.01   -999.25     29.65      2.00      2.00    127.78      3.00    104.64
 2191.4000      0.19     78.71    193.42   2592.83   -999.25     32.00      2.00      2.00    129.00      3.00    100.05
 2191.6000     59.99     78.02    190.10   2571.81   -999.25     27.37      2.00      2.00    132.77      3.00    100.59
 2191.8000     65.71     77.36    191.77   2584.78   -999.25     23.25      2.00      2.00    145.35      3.00    101.14
 2192.0000     54.60     76.71    191.71   2574.04   -999.25     22.00      2.00      2.00    149.17      3.00    101.68
 2192.2000     10.43     76.05    190.62   2581.84   -999.25     22.00      2.00      2.00    145.83      3.00    101.03
 2192.4000      0.00     75.39    192.52   2563.61   -999.25     37.01      2.00      2.00    145.00      3.00     98.61
 2192.6000     48.01     74.74    190.23   2579.48   -999.25     28.88      2.00      2.00    144.03      3.00     96.18
 2192.8000      0.00     74.08    192.41   2552.87   -999.25     26.00      2.00      2.00    137.58      3.00     94.26
 2193.0000     27.68     73.43    189.37   2595.88   -999.25     23.33      2.00      2.00    135.95      3.00     96.84
 2193.2000      0.00     72.77    191.52   2571.62   -999.25     22.00      2.00      2.00    137.53      3.00     99.42
 2193.4000     85.76     72.11    190.10   2589.65   -999.25     22.78      2.00      2.00    140.62      3.00    102.00
 2193.6000     48.59     71.46    190.32   2569.44   -999.25     24.00      2.00      2.00    143.50      3.00    101.33
 2193.8000     49.93     70.80    190.57   2623.14   -999.25     26.40      2.00      2.00    138.50      3.00    100.67
 2194.0000      0.00     70.14    190.38   2583.03   -999.25     29.43      2.00      2.00    134.10      3.00    100.00
 2194.2000      0.00     69.49    192.00   2593.79   -999.25     26.00      2.00      2.00    125.49      3.00    100.00
 2194.4000     95.27     68.83    191.89   2580.21   -999.25     28.96      2.00      2.00    111.00      3.00    100.00
 2194.6000      1.17     68.18    189.05   2580.69   -999.25     28.44      2.00      2.00    110.23      3.00     99.83
 2194.8000     53.44     67.52    190.44   2576.42   -999.25     29.38      2.00      2.00    120.94      3.00     99.17
 2195.0000     35.76     66.86    191.95   2616.43   -999.25     57.07      2.00      2.00    134.76      3.00     98.50
 2195.2000     56.07     66.21    192.13   2555.22   -999.25     38.00      2.00      2.00    132.41      3.00     98.23
 2195.4000     22.13     65.55    193.32   2597.03   -999.25     36.95      2.00      2.00    127.27      3.00     99.14
 2195.6000     16.94     64.91    190.82   2553.50   -999.25     36.00      2.00      2.00    125.34      3.00    100.05
 2195.8000      0.00     64.24    191.52   2604.04   -999.25     42.67      2.00      2.00    129.05      3.00    100.95
 2196.0000     70.65     63.60    190.52   2574.49   -999.25     46.00      2.00      2.00    139.28      3.00    101.86
 2196.2000    106.00     62.93    192.18   2569.96   -999.25     42.89      2.00      2.00    149.08      3.00    102.00
 2196.4000     88.31     62.27    191.42   2597.05   -999.25     29.93      2.00      2.00    150.66      3.00    102.00
