~Version Information
VERS.                       2.00: SCHLUMBERGER LAS - Version 2.00
WRAP.                         NO: One line per depth step
~Well Information
STRT.FT                1138.0000: Start Depth
STOP.FT                2257.0000: End Depth
STEP.FT                   0.2000:  
NULL.                    -999.25:  
COMP.                    BAPETCO: COMPANY
WELL.                BED 3 C18-M: WELL
FLD .                   BED AREA: FLD
SRVC.               Schlumberger: SERVICE COMPANY
LOC .                           : LOCATION
DATE.                  19-Sep-19: LOG DATE
UWI .                  19EGP0321: API NUMBER
~Curve Information
DEPT.FT                         : MWD Tool Measurement Depth
ROPI.FT/HR                      : Rate of Penetration (Time Based)
KPOSI.FT                         : Kelly Position (Raw)
HKL I.KLBF                       : Hook Load (Raw)
SPP I.PSI                        : Standpipe Pressure (Raw)
PSPD.FT/MIN                     : Instantaneous Pipe Speed
VIBC.CPS                        : Vibration Count
VIBXYH.                           : Vibration XY
VIBZH.                           : Vibration Z
SSS_H.                           : Stick Slip Percentage from HDS1
SSL_H.                           : Stick Slip Level from HDS1
RPM_H.                           : Average RPM from HDS1
#     DEPT      ROPI     KPOSI     HKL I     SPP I      PSPD      VIBC    VIBXYH     VIBZH     SSS_H     SSL_H     RPM_H
#       FT     FT/HR        FT      KLBF       PSI    FT/MIN       CPS                                                  
#
# Relog Number     0         0         0         0         0         0         0         0         0         0         0
#
~ASCII Data
# ...
 1499.8000    104.65     70.28    178.95   2341.93   -999.25    364.00     13.00      4.00     14.55      0.00     98.93
 1500.0000     53.58     69.62    183.50   2319.06   -999.25    361.71     13.00      4.00     12.51      0.00     99.35
 1500.2000     85.64     68.96    183.63   2305.94   -999.25    360.00     15.09      4.00     11.32      0.00     99.77
 1500.4000      0.04     68.34    183.26   2326.07   -999.25    360.00     17.19      4.00     10.41      0.00    100.00
 1500.6000     75.86     67.65    184.21   2322.52   -999.25    360.00     17.50      4.00     10.00      0.00    100.00
 1500.8000     41.21     67.01    184.68   2333.23   -999.25    368.24     14.91      4.00     10.00      0.00    100.00
 1501.0000     35.76     66.34    183.41   2316.24   -999.25    388.84     12.43      4.00     10.27      0.00    100.00
 1501.2000     89.84     65.68    183.15   2331.13   -999.25    394.00     10.54      4.00     11.16      0.00     99.97
 1501.4000     92.78     65.03    183.14   2314.92   -999.25    375.54      9.50      4.00     12.07      0.00     99.46
 1501.6000     57.02     64.37    180.60   2358.22   -999.25    336.00      8.16      3.10     13.57      0.00     98.95
 1501.8000     62.30     63.71    181.55   2310.02   -999.25    336.00      6.90      2.27     15.00      0.00     98.44
 1502.0000     90.83     63.06    182.49   2327.66   -999.25    336.00      8.90      3.60     15.00      0.00     98.09
 1502.2000     79.77     62.40    180.41   2344.13   -999.25    365.55      6.50      4.00     14.65      0.00     98.71
 1502.4000     77.28     61.78    183.92   2308.10   -999.25    377.69      9.50      4.00     14.06      0.00     99.32
 1502.6000     90.25     61.09    181.93   2326.29   -999.25    380.00      9.50      4.00     11.43      0.00     99.94
 1502.8000     97.14     60.43    182.31   2316.41   -999.25    143.78      5.85      2.52     20.59      0.29    126.18
 1503.0000     76.80     59.78    181.73   2337.75   -999.25    307.12      4.00      4.00     41.76      0.88    155.27
 1503.2000     49.93     59.15    182.11   2317.66   -999.25    353.05      4.00      6.08     76.60      1.70    180.89
 1503.4000     63.44     58.46    181.73   2375.07   -999.25     86.04      4.00      5.80     66.17      1.46    186.85
 1503.6000     36.58     57.82    181.73   2323.95   -999.25     54.86      4.00      4.92     59.91      1.27    192.81
 1503.8000    156.02     57.15    181.09   2310.00   -999.25     65.76      4.00      4.04     90.82      1.88    194.00
 1504.0000    137.42     56.50    182.88   2355.49   -999.25    193.54      2.13      9.14     62.50      1.00    194.00
 1504.2000     89.25     55.84    182.14   2335.90   -999.25    121.29      2.79      7.34     29.56      0.09    194.00
 1504.4000     70.94     55.18    181.83   2347.05   -999.25     96.00      3.44      5.53     37.39      0.52    194.00
 1504.6000     59.59     54.54    179.96   2330.16   -999.25     96.00      3.84      5.07     45.22      0.96    194.00
 1504.8000     42.02     53.87    181.59   2317.92   -999.25     96.00      2.79     12.17     67.86      1.43    194.00
 1505.0000     84.71     53.22    183.24   2372.33   -999.25     96.00      2.21     15.88     92.14      1.90    190.95
 1505.2000     31.41     52.56    184.55   2363.73   -999.25     88.40      3.04      9.43     76.08      1.59    187.36
 1505.4000     66.05     51.90    181.73   2293.69   -999.25     91.38      3.87      2.97     49.93      1.08    183.77
 1505.6000     59.10     51.25    180.74   2355.53   -999.25     75.79      4.00      2.00     70.13      1.55    180.18
 1505.8000     78.14     50.59    182.86   2343.80   -999.25     72.00      4.00      2.00     81.48      1.81    188.98
 1506.0000      0.72     49.93    180.26   2303.12   -999.25    119.10      4.00      2.00     53.10      1.16    198.44
 1506.2000     53.08     49.28    180.98   2339.57   -999.25    109.12      4.00      2.00     90.25      2.50    206.82
 1506.4000     60.51     48.63    180.72   2314.33   -999.25    138.00      4.00      2.31     55.85      1.33    210.92
 1506.6000     68.92     47.97    181.83   2320.29   -999.25    102.46      4.00      2.62     97.85      2.70    211.55
 1506.8000     47.61     47.31    181.83   2330.43   -999.25    104.00      4.00      2.93     69.97      1.79    201.76
 1507.0000     39.79     46.65    181.83   2313.49   -999.25    120.65      4.00      3.24     62.33      1.33    191.96
 1507.2000      6.75     46.00    180.60   2358.29   -999.25     66.48      4.00      3.55     92.13      1.94    190.97
 1507.4000      0.29     45.34    184.11   2277.09   -999.25    138.00      4.00      3.86     63.30      1.35    192.18
 1507.6000      6.66     44.68    182.40   2311.09   -999.25    136.24      4.00      4.00     58.00      1.24    193.39
 1507.8000     96.74     44.03    180.85   2302.35   -999.25    101.24      4.00      4.00     88.00      1.82    195.14
 1508.0000     43.64     43.38    180.69   2338.45   -999.25     96.00      3.46      8.59     73.97      1.55    197.43
 1508.2000      0.18     42.72    182.03   2354.54   -999.25    126.24      2.83     13.99     51.08      1.17    199.71
 1508.4000     68.91     42.09    180.98   2325.69   -999.25    138.00      2.19     19.38     84.97      2.28    202.00
 1508.6000     59.64     41.40    183.04   2307.23   -999.25    115.99      2.31     19.74     94.80      2.60    204.39
 1508.8000     62.63     40.75    179.42   2354.96   -999.25     80.44      2.76     17.94     59.94      1.46    206.78
 1509.0000     54.31     40.09    182.43   2336.40   -999.25     49.54      3.21     16.15     66.82      1.71    209.16
 1509.2000     58.26     39.44    182.21   2376.80   -999.25     19.82      3.66     14.35    101.53      2.88    208.87
 1509.4000     66.60     38.81    180.47   2333.55   -999.25     49.32      4.17     12.77    201.83      3.00    207.13
 1509.6000     53.03     38.14    181.83   2313.06   -999.25    131.83      4.83     11.83    139.00      2.08    205.39
 1509.8000     63.72     37.47    178.89   2305.25   -999.25    107.12      5.50     10.90     46.02      1.00    203.65
 1510.0000    120.05     36.81    182.46   2332.86   -999.25    266.00      6.17      9.97     75.09      1.61    201.71
 1510.2000     59.62     36.15    180.88   2318.58   -999.25    301.93      6.50      9.50     86.19      1.84    195.92
 1510.4000     40.96     35.50    178.22   2332.16   -999.25    125.81      6.50      9.50     63.86      1.37    190.13
 1510.6000     54.35     34.84    180.07   2319.05   -999.25     98.71      6.50      9.50     51.17      1.12    184.34
 1510.8000    118.80     34.19    180.50   2349.38   -999.25     88.50      6.50      9.50     77.05      1.71    180.79
 1511.0000     81.46     33.53    180.83   2330.55   -999.25    358.17      6.14     10.00     76.67      1.70    183.97
 1511.2000     84.74     32.87    181.83   2276.85   -999.25    178.78      5.66     10.68     50.00      1.09    187.14
 1511.4000     34.64     32.22    183.35   2366.26   -999.25     43.56      5.18     11.35     75.75      1.61    190.27
 1511.6000     85.07     31.56    180.55   2300.69   -999.25     46.38      4.70     12.02     84.25      1.78    193.01
 1511.8000     56.24     30.91    182.21   2334.05   -999.25     39.00      4.22     12.70     60.35      1.29    195.75
 1512.0000     50.17     30.25    181.07   2384.57   -999.25     53.29      4.00      8.97     59.09      1.24    198.49
 1512.2000     63.63     29.59    181.07   2301.61   -999.25     54.00      4.00      2.02     91.82      1.85    197.43
 1512.4000     37.21     28.97    182.49   2310.46   -999.25     54.00      4.00      2.47     77.50      1.58    191.71
 1512.6000     52.34     28.28    181.36   2347.46   -999.25     36.61      4.00      2.92     47.50      1.03    186.00
 1512.8000     40.65     27.64    180.45   2286.98   -999.25    127.08      4.00      3.37     83.18      1.83    185.16
 1513.0000     48.73     26.97    181.31   2336.83   -999.25    123.38      4.00      3.82     67.77      1.48    195.68
