~Version Information
VERS.                       2.00: SCHLUMBERGER LAS - Version 2.00
WRAP.                         NO: One line per depth step
~Well Information
STRT.FT                1138.0000: Start Depth
STOP.FT                2257.0000: End Depth
STEP.FT                   0.2000:  
NULL.                    -999.25:  
COMP.                    BAPETCO: COMPANY
WELL.                BED 3 C18-M: WELL
FLD .                   BED AREA: FLD
SRVC.               Schlumberger: SERVICE COMPANY
LOC .                           : LOCATION
DATE.                  19-Sep-19: LOG DATE
UWI .                  19EGP0321: API NUMBER
~Curve Information
DEPT.FT                         : MWD Tool Measurement Depth
ROPI.FT/HR                      : Rate of Penetration (Time Based)
KPOSI.FT                         : Kelly Position (Raw)
HKL I.KLBF                       : Hook Load (Raw)
SPP I.PSI                        : Standpipe Pressure (Raw)
PSPD.FT/MIN                     : Instantaneous Pipe Speed
VIBC.CPS                        : Vibration Count
VIBXYH.                           : Vibration XY
VIBZH.                           : Vibration Z
SSS_H.                           : Stick Slip Percentage from HDS1
SSL_H.                           : Stick Slip Level from HDS1
RPM_H.                           : Average RPM from HDS1
#     DEPT      ROPI     KPOSI     HKL I     SPP I      PSPD      VIBC    VIBXYH     VIBZH     SSS_H     SSL_H     RPM_H
#       FT     FT/HR        FT      KLBF       PSI    FT/MIN       CPS                                                  
#
# Relog Number     0         0         0         0         0         0         0         0         0         0         0
#
~ASCII Data
# ...
 2102.8000    108.17     90.35    192.14   2497.62   -999.25     58.00      2.00      2.00    126.27      3.00    114.06
 2103.0000     99.19     89.72    192.35   2532.57   -999.25     30.00      2.00      2.00    128.73      3.00    100.03
 2103.2000     54.18     89.04    188.58   2528.26   -999.25     31.10      2.00      2.00    159.28      3.00     86.00
 2103.4000     71.58     88.42    190.10   2562.16   -999.25     32.00      2.00      2.00    200.58      3.00     86.63
 2103.6000      8.32     87.76    188.20   2496.86   -999.25     32.81      2.00      2.00    204.45      3.00     87.25
 2103.8000     35.56     87.08    188.59   2539.90   -999.25     34.00      2.00      2.00    208.50      3.00     87.87
 2104.0000    172.65     86.42    188.90   2498.23   -999.25     42.57      2.00      2.00    211.00      3.00     88.60
 2104.2000     54.47     85.78    191.14   2500.29   -999.25     46.00      2.00      2.00    209.91      3.00     89.36
 2104.4000     95.24     85.13    189.00   2496.15   -999.25     40.45      2.00      2.00    202.64      3.00     90.23
 2104.6000     17.67     84.45    189.97   2497.58   -999.25     36.00      2.00      2.00    184.77      3.00     91.80
 2104.8000     39.17     83.83    188.05   2550.14   -999.25     36.00      2.00      2.00    156.74      3.00     93.37
 2105.0000     48.73     83.14    190.10   2422.85   -999.25     58.86      2.00      2.00    138.82      3.00     96.04
 2105.2000     99.21     82.48    189.69   2422.09   -999.25     32.21      2.00      2.00    147.21      3.00     99.45
 2105.4000     67.28     81.86    191.04   2433.22   -999.25     30.00      2.00      2.00    150.14      2.84    104.08
 2105.6000    272.81     81.20    191.86   2507.95   -999.25     41.64      2.00      2.00    105.74      2.04    112.41
 2105.8000    120.25     80.52    188.88   2472.54   -999.25     44.36      2.00      2.00     61.34      1.24    120.75
 2106.0000     64.16     79.89    189.38   2525.78   -999.25     46.00      2.00      2.00     83.20      1.85    129.08
 2106.2000     34.00     79.20    187.44   2467.81   -999.25     42.91      2.00      2.00    131.54      3.00    129.17
 2106.4000    103.30     78.54    190.85   2535.52   -999.25     22.38      2.00      2.00    142.23      3.00    124.80
 2106.6000    135.42     77.92    189.86    978.37   -999.25     16.99      2.00      2.00    152.92      3.00    120.44
 2106.8000    180.48     77.25    193.74   2450.06   -999.25     23.85      2.00      2.00    137.16      3.00    116.54
 2107.0000    102.65     76.61    189.03   2435.99   -999.25     28.00      2.00      2.00    151.81      3.00    112.69
 2107.2000     55.92     75.95    192.37   2418.96   -999.25     30.76      2.00      2.00    213.00      3.00    109.83
 2107.4000    185.74     75.29    188.86   2431.25   -999.25     50.00      2.00      2.00    209.58      3.00    109.26
 2107.6000     34.41     74.61    187.25   2443.93   -999.25     42.30      2.00      2.00    202.74      3.00    108.69
 2107.8000     68.48     73.95    187.06   2476.27   -999.25     34.00      2.00      2.00    177.51      3.00    108.11
 2108.0000    105.42     73.33    190.25   2467.10   -999.25     32.95      2.00      2.00    138.02      3.00    108.91
 2108.2000     52.33     72.66    188.98   2451.47   -999.25     32.00      2.00      2.00    116.64      3.00    109.87
 2108.4000     52.15     72.01    190.51   2455.37   -999.25     34.00      2.00      2.00    114.78      3.00    107.20
 2108.6000     46.32     71.33    187.34   2482.63   -999.25     34.59      2.00      2.00    115.53      3.00    104.53
 2108.8000     32.93     70.67    189.52   2447.18   -999.25     36.00      2.00      2.00    117.61      3.00    104.71
 2109.0000     56.71     70.03    188.73   2439.54   -999.25     30.00      2.00      2.00    116.13      3.00    105.60
 2109.2000    136.07     69.39    192.09   2441.37   -999.25     29.58      2.00      2.00    118.94      3.00    108.13
 2109.4000     37.12     68.70    190.40   2424.68   -999.25     22.00      2.00      2.00    135.59      3.00    112.00
 2109.6000     81.52     68.05    189.14   2412.30   -999.25     24.28      2.00      2.00    165.00      3.00    112.00
 2109.8000     36.98     67.39    188.48   2440.12   -999.25     30.00      2.00      2.00    165.00      3.00    112.00
 2110.0000     48.44     66.73    189.43   2458.76   -999.25     30.00      2.00      2.00    119.51      3.00    111.62
 2110.2000     59.92     66.11    189.71   2457.54   -999.25     28.22      2.00      2.00    140.33      3.00    110.67
 2110.4000     97.89     65.44    188.31   2401.92   -999.25     25.50      2.00      2.00    134.06      3.00    110.65
 2110.6000     68.66     64.80    189.91   2446.22   -999.25     24.73      2.00      2.00    127.89      3.00    112.81
 2110.8000    106.13     64.12    194.53   2315.49   -999.25     26.55      2.00      2.00    105.16      2.38    104.01
 2111.0000     90.83     63.45    191.52   2327.54   -999.25     28.00      2.00      2.00     50.00      1.00    106.42
 2111.2000     73.77     62.81    188.34   2360.43   -999.25     32.43      2.00      2.00    107.77      2.48    108.85
 2111.4000    138.87     62.14    190.00   2370.15   -999.25     56.00      2.00      2.00    128.00      3.00    111.27
 2111.6000    105.18     61.52    190.29   2346.92   -999.25     47.55      2.00      2.00    122.56      3.00    114.27
 2111.8000     30.21     60.83    191.52   2405.71   -999.25     46.00      2.00      2.00    112.00      3.00    117.51
 2112.0000    117.79     60.20    189.90   2434.82   -999.25     48.00      2.00      2.00    118.67      3.00    118.00
 2112.2000     73.61     59.53    190.81   2399.52   -999.25     48.00      2.00      2.00    110.36      3.00    118.00
 2112.4000    139.67     58.87    188.59   2407.70   -999.25     48.00      2.00      2.00    109.00      3.00    117.89
 2112.6000     83.44     58.21    191.30   2426.52   -999.25     46.87      2.00      2.00    113.68      3.00    116.74
 2112.8000     49.14     57.58    190.44   2425.41   -999.25     46.00      2.00      2.00    139.56      3.00    116.39
 2113.0000    118.15     56.89    189.75   2445.82   -999.25     54.00      2.00      2.00    133.41      3.00    117.50
 2113.2000    206.31     56.27    189.62   2410.77   -999.25     54.00      2.00      2.00    117.69      3.00    118.00
 2113.4000     26.62     55.58    190.95   2394.08   -999.25     58.00      2.00      2.00    108.35      3.00    118.00
 2113.6000    104.97     54.93    190.72   2423.65   -999.25     49.67      2.00      2.00    110.00      3.00    117.62
 2113.8000    133.43     54.27    191.33   2450.65   -999.25     46.20      2.00      2.00    111.77      3.00    116.11
 2114.0000    146.87     53.64    188.38   2432.42   -999.25     36.00      2.00      2.00    114.71      3.00    114.60
 2114.2000     20.21     52.99    190.00   2458.76   -999.25     42.00      2.00      2.00    120.65      3.00    114.60
 2114.4000    104.19     52.33    189.15   2396.62   -999.25     47.80      2.00      2.00    156.14      3.00    115.60
 2114.6000    174.71     51.66    191.12   2380.31   -999.25     62.00      2.00      2.00    106.09      3.00    121.86
 2114.8000     99.14     50.98    190.53   2429.72   -999.25     63.60      2.00      2.00    101.24      3.00    131.61
 2115.0000    122.15     50.34    188.31   2390.41   -999.25     64.00      2.00      2.00    126.04      3.00    136.43
 2115.2000     38.91     49.69    190.05   2415.83   -999.25     59.76      2.00      2.00    115.96      3.00    137.22
 2115.4000     26.55     49.02    189.15   2438.03   -999.25     46.60      2.00      2.00    111.00      3.00    138.00
 2115.6000    136.12     48.36    191.71   2407.66   -999.25     51.07      2.00      2.00     60.59      1.18    132.55
 2115.8000     31.73     47.70    189.90   2349.47   -999.25     54.00      2.00      2.00     27.61      0.00    127.09
 2116.0000     40.95     47.08    190.19   2384.64   -999.25     54.00      2.00      2.00     29.61      0.00    126.00
