~Version Information
VERS.                       2.00: SCHLUMBERGER LAS - Version 2.00
WRAP.                         NO: One line per depth step
~Well Information
STRT.FT                1138.0000: Start Depth
STOP.FT                2257.0000: End Depth
STEP.FT                   0.2000:  
NULL.                    -999.25:  
COMP.                    BAPETCO: COMPANY
WELL.                BED 3 C18-M: WELL
FLD .                   BED AREA: FLD
SRVC.               Schlumberger: SERVICE COMPANY
LOC .                           : LOCATION
DATE.                  19-Sep-19: LOG DATE
UWI .                  19EGP0321: API NUMBER
~Curve Information
DEPT.FT                         : MWD Tool Measurement Depth
ROPI.FT/HR                      : Rate of Penetration (Time Based)
KPOSI.FT                         : Kelly Position (Raw)
HKL I.KLBF                       : Hook Load (Raw)
SPP I.PSI                        : Standpipe Pressure (Raw)
PSPD.FT/MIN                     : Instantaneous Pipe Speed
VIBC.CPS                        : Vibration Count
VIBXYH.                           : Vibration XY
VIBZH.                           : Vibration Z
SSS_H.                           : Stick Slip Percentage from HDS1
SSL_H.                           : Stick Slip Level from HDS1
RPM_H.                           : Average RPM from HDS1
#     DEPT      ROPI     KPOSI     HKL I     SPP I      PSPD      VIBC    VIBXYH     VIBZH     SSS_H     SSL_H     RPM_H
#       FT     FT/HR        FT      KLBF       PSI    FT/MIN       CPS                                                  
#
# Relog Number     0         0         0         0         0         0         0         0         0         0         0
#
~ASCII Data
# ...
 1794.6000     87.27     54.27    179.27   2343.43   -999.25    310.00      6.13      2.00     21.16      0.00    109.19
 1794.8000     64.91     53.61    179.84   2355.88   -999.25    328.55      4.28      2.00     20.27      0.00    108.69
 1795.0000      9.23     52.95    181.07   2391.16   -999.25    344.00      4.00      2.00     20.98      0.00    108.20
 1795.2000     99.87     52.30    179.99   2362.26   -999.25    344.00      4.00      2.00     22.37      0.00    108.29
 1795.4000     78.13     51.64    180.41   2367.37   -999.25    300.56      4.00      2.00     22.04      0.00    108.78
 1795.6000     76.29     50.98    179.97   2388.52   -999.25    299.36      4.00      2.00     21.22      0.00    109.27
 1795.8000     72.46     50.33    184.11   2390.35   -999.25    326.56      4.28      2.00     21.78      0.00    109.76
 1796.0000     45.75     49.67    186.87   2394.12   -999.25    332.00      6.13      2.00     22.00      0.00    109.74
 1796.2000     38.68     49.02    184.68   2426.11   -999.25    332.00      4.28      2.00     21.49      0.00    109.23
 1796.4000     76.98     48.36    180.88   2437.93   -999.25    335.57      5.96      2.00     20.56      0.00    108.72
 1796.6000     55.56     47.70    181.54   2437.16   -999.25    342.00      6.50      2.00     19.25      0.00    108.21
 1796.8000     42.41     47.05    183.25   2396.05   -999.25    342.00      6.36      2.00     17.37      0.00    108.28
 1797.0000     60.46     46.39    180.31   2393.77   -999.25    340.27      4.00      2.00     19.33      0.00    108.74
 1797.2000     88.08     45.73    183.59   2391.14   -999.25    340.00      4.00      2.00     22.25      0.00    109.20
 1797.4000     74.80     45.08    181.31   2408.01   -999.25    340.00      4.82      2.00     25.12      0.00    109.66
 1797.6000     56.76     44.42    182.99   2437.07   -999.25    325.03      5.90      2.00     27.91      0.00    109.91
 1797.8000     65.80     43.77    183.42   2393.60   -999.25    314.00      6.50      2.00     29.75      0.00    109.57
 1798.0000     40.37     43.11    184.21   2276.66   -999.25    314.00      6.50      2.00     28.75      0.00    109.22
 1798.2000    111.67     42.46    183.94   2362.98   -999.25    301.51      6.50      2.00     27.75      0.00    108.88
 1798.4000     92.66     41.80    181.96   2369.71   -999.25    287.63      6.01      2.00     27.00      0.00    108.53
 1798.6000    124.84     41.14    182.30   2380.57   -999.25    280.00      5.19      2.00     27.00      0.00    108.19
 1798.8000    149.59     40.49    178.41   2371.69   -999.25    280.00      4.37      2.00     27.00      0.00    108.13
 1799.0000    107.41     39.83    182.71   2380.84   -999.25    280.00      4.00      2.00     26.77      0.00    108.40
 1799.2000     97.08     39.17    182.02   2331.88   -999.25    280.00      4.00      2.00     25.27      0.00    108.68
 1799.4000    111.71     38.52    182.12   2386.41   -999.25    279.38      4.00      2.00     23.77      0.00    108.96
 1799.6000     71.15     37.86    185.63   2344.67   -999.25    278.00      4.00      2.00     22.28      0.00    109.24
 1799.8000    129.75     37.20    181.69   2381.89   -999.25    276.62      4.00      2.00     21.35      0.00    109.51
 1800.0000    129.28     36.55    182.24   2370.87   -999.25    276.00      4.00      2.00     23.71      0.00    109.79
 1800.2000     58.69     35.89    182.33   2356.03   -999.25    276.00      4.00      2.00     26.06      0.00    109.92
 1800.4000    148.37     35.24    181.26   2341.31   -999.25    275.78      4.00      2.00     28.41      0.00    109.62
 1800.6000     87.79     34.58    182.26   2330.94   -999.25    274.67      4.00      2.00     27.43      0.00    109.32
 1800.8000    119.86     33.95    180.23   2361.85   -999.25    274.00      4.00      2.00     25.34      0.00    109.02
 1801.0000     95.45     33.27    181.02   2373.96   -999.25    274.00      4.00      2.00     23.25      0.00    108.71
 1801.2000   -122.88     32.61    186.64   2369.82   -999.25    274.00      4.00      2.00     21.23      0.00    108.41
 1801.4000     46.45     31.96    184.68   2374.95   -999.25    157.20      4.00      2.00     19.31      0.00    108.11
 1801.6000    146.44     31.30    180.83   2372.61   -999.25    183.19      4.00      2.00     17.38      0.00    108.92
 1801.8000     78.15     30.64    191.99   2363.78   -999.25     32.00      4.00      2.00     19.50      0.00    110.32
 1802.0000     88.72     29.99    189.90   2381.64   -999.25     32.00      4.00      2.00     25.96      0.34    111.73
 1802.2000     79.62     29.33    188.38   2340.65   -999.25     32.00      3.21      2.00     60.15      1.31    113.14
 1802.4000    130.33     28.67    186.37   2321.63   -999.25     32.00      2.37      2.00     94.35      2.27    114.55
 1802.6000    110.78     28.02    184.90   2354.92   -999.25     32.00      2.00      2.00    121.80      3.00    115.96
 1802.8000    106.22     27.36    183.45   2352.41   -999.25     35.35      2.00      2.00    128.98      3.00    117.37
 1803.0000    119.61     26.71    184.79   2370.72   -999.25     42.79      2.00      2.00    136.17      3.00    118.26
 1803.2000    113.32     26.05    185.82   2344.02   -999.25     48.00      2.00      2.00    143.00      3.00    118.73
 1803.4000     98.02     25.39    184.82   2345.64   -999.25     48.00      2.12      2.00    143.00      3.00    119.21
 1803.6000    103.51     24.74    184.46   2349.70   -999.25     74.22      2.88      2.00    143.00      3.00    119.68
 1803.8000     84.50     24.08    187.85   2343.56   -999.25    139.78      3.65      2.00    143.00      3.00    120.15
 1804.0000     94.87     23.43    186.87   2340.44   -999.25    205.33      4.00      2.00    143.00      3.00    120.63
 1804.2000    165.68     22.77    185.11   2334.42   -999.25    270.89      4.00      2.00    118.96      2.36    121.10
 1804.4000    175.35     22.11    183.39   2330.59   -999.25    284.00      4.00      2.00     94.91      1.72    121.57
 1804.6000    115.55     21.46    185.06   2331.46   -999.25    284.00      4.00      2.00     70.87      1.08    121.90
 1804.8000    133.69     20.80    182.91   2330.66   -999.25    284.00      4.00      2.00     46.82      0.45    120.91
 1805.0000     27.11     20.14    187.07   2332.77   -999.25    284.00      4.00      2.00     29.62      0.00    119.91
 1805.2000    184.56     19.49    184.57   2351.20   -999.25    284.00      4.00      2.00     28.37      0.00    118.92
 1805.4000    170.91     18.83    184.40   2339.40   -999.25    284.00      4.00      2.00     27.12      0.00    117.93
 1805.6000    172.27     18.18    184.33   2354.66   -999.25    288.00      4.00      2.00     25.88      0.00    116.93
 1805.8000    169.94     17.52    185.01   2342.46   -999.25    293.00      4.00      2.00     24.63      0.00    115.94
 1806.0000    174.17     16.86    182.97   2335.98   -999.25    298.00      4.00      2.00     23.38      0.00    114.94
 1806.2000     15.86     16.21    194.85   2358.00   -999.25    298.00      4.00      2.00     20.57      0.00    114.06
 1806.4000     80.10     15.55    193.10   2362.29   -999.25    321.02      5.54      3.23     18.86      0.00    115.23
 1806.6000    189.87     14.89    191.61   2352.55   -999.25    367.09      6.50      4.00     18.60      0.00    116.39
 1806.8000    104.28     14.24    190.44   2355.25   -999.25    374.00      6.50      4.00     18.34      0.00    117.56
 1807.0000    123.80     13.58    190.29   2339.54   -999.25    374.00      6.50      4.00     18.08      0.00    118.73
 1807.2000    187.33     12.93    186.78   2350.51   -999.25    374.00      6.50      4.00     17.36      0.00    119.90
 1807.4000    122.76     12.30    185.36   2327.63   -999.25    377.71      6.50      4.00     16.45      0.00    121.07
 1807.6000    145.91     11.61    186.67   2334.85   -999.25    383.43      6.50      4.00     15.55      0.00    122.28
 1807.8000     33.30     10.96    195.54   2337.20   -999.25    438.94      7.17      4.00     15.00      0.00    123.66
