~Version Information
VERS.                       2.00: SCHLUMBERGER LAS - Version 2.00
WRAP.                         NO: One line per depth step
~Well Information
STRT.FT                2257.0000: Start Depth
STOP.FT                3002.0000: End Depth
STEP.FT                   0.2000:  
NULL.                    -999.25:  
COMP.                    BAPETCO: COMPANY
WELL.                BED 3 C18-M: WELL
FLD .                   BED AREA: FLD
SRVC.               Schlumberger: SERVICE COMPANY
LOC .                           : LOCATION
DATE.                  21-Sep-19: LOG DATE
UWI .                  19EGP0321: API NUMBER
~Curve Information
DEPT.FT                         : MWD Tool Measurement Depth
ROPI.FT/HR                      : Rate of Penetration (Time Based)
KPOSI.FT                         : Kelly Position (Raw)
HKL I.KLBF                       : Hook Load (Raw)
SPP I.PSI                        : Standpipe Pressure (Raw)
PSPD.FT/MIN                     : Instantaneous Pipe Speed
VIBC.CPS                        : Vibration Count
VIBXYH.                           : Vibration XY
VIBZH.                           : Vibration Z
SSS_H.                           : Stick Slip Percentage from HDS1
SSL_H.                           : Stick Slip Level from HDS1
RPM_H.                           : Average RPM from HDS1
#     DEPT      ROPI     KPOSI     HKL I     SPP I      PSPD      VIBC    VIBXYH     VIBZH     SSS_H     SSL_H     RPM_H
#       FT     FT/HR        FT      KLBF       PSI    FT/MIN       CPS                                                  
#
# Relog Number     0         0         0         0         0         0         0         0         0         0         0
#
~ASCII Data
# ...
 2752.8000     55.35     85.11    208.05   2430.66   -999.25      8.20      2.00      2.00     40.81      0.88    137.16
 2753.0000    137.55     84.45    204.11   2444.83   -999.25     18.00      2.00      2.00     33.50      0.50    135.97
 2753.2000     79.05     83.76    201.12   2502.19   -999.25     18.00      2.00      2.00     26.19      0.12    134.78
 2753.4000     67.27     83.11    202.70   2430.83   -999.25     18.00      2.00      2.00     27.18      0.00    134.20
 2753.6000     21.62     82.48    202.82   2453.58   -999.25     15.17      2.00      2.00     34.51      0.32    134.77
 2753.8000     75.27     81.82    204.84   2423.63   -999.25     14.00      2.00      2.00     43.70      0.86    135.34
 2754.0000     40.66     81.17    208.93   2470.05   -999.25     11.12      2.00      2.00     46.00      1.00    135.91
 2754.2000     25.48     80.51    209.00   2450.67   -999.25      6.00      2.00      2.00     43.55      0.89    136.00
 2754.4000     43.24     79.82    209.38   2439.64   -999.25      6.00      2.00      2.00     23.90      0.00    136.00
 2754.6000     84.87     79.20    208.71   2462.36   -999.25      6.00      2.00      2.00     23.38      0.00    136.00
 2754.8000     52.45     78.51    209.29   2485.11   -999.25      6.00      2.00      2.00     24.22      0.00    136.00
 2755.0000    123.42     77.85    208.62   2427.77   -999.25      6.00      2.00      2.00     29.10      0.00    135.84
 2755.2000     34.21     77.22    205.67   2405.40   -999.25      6.00      2.00      2.00     33.36      0.00    135.36
 2755.4000     38.95     76.55    205.77   2481.04   -999.25      6.00      2.00      2.00     35.13      0.00    134.89
 2755.6000    101.31     75.89    203.09   2441.15   -999.25      6.00      2.00      2.00     36.91      0.00    134.42
 2755.8000     25.30     75.26    205.39   2441.36   -999.25      6.00      2.00      2.00     42.54      0.79    133.70
 2756.0000    111.88     74.60    203.68   2455.43   -999.25      6.00      2.00      2.00     61.99      1.33    130.70
 2756.2000    113.06     73.94    201.40   2447.04   -999.25      6.85      2.00      2.00     85.99      1.78    127.70
 2756.4000     77.67     73.26    203.05   2448.37   -999.25      9.27      2.00      2.00    106.06      2.32    124.70
 2756.6000    174.55     72.64    199.05   2412.77   -999.25     10.00      2.00      2.00    122.19      2.97    121.71
 2756.8000     67.83     71.95    201.47   2439.21   -999.25     11.90      2.00      2.00    123.68      3.00    118.78
 2757.0000    114.48     71.31    199.69   2432.33   -999.25     14.00      2.00      2.00    124.79      3.00    115.90
 2757.2000    190.83     70.64    197.88   2429.66   -999.25     16.29      2.00      2.00    125.86      3.00    113.87
 2757.4000     55.41     70.00    197.99   2456.90   -999.25     26.00      2.00      2.00    124.90      3.00    111.85
 2757.6000    105.67     69.36    196.55   2457.90   -999.25     26.00      2.00      2.00    124.93      3.00    109.82
 2757.8000     32.11     68.67    196.74   2453.45   -999.25     26.00      2.00      2.00    143.69      3.00    107.48
 2758.0000    103.58     68.04    197.58   2412.66   -999.25     24.60      2.00      2.00    154.00      3.00    102.29
 2758.2000     39.28     67.39    197.41   2477.52   -999.25     19.20      2.00      2.00    154.00      3.00     97.09
 2758.4000     64.02     66.70    196.84   2442.36   -999.25     11.20      2.00      2.00    155.45      3.00     91.90
 2758.6000     35.89     66.08    198.83   2437.84   -999.25     10.00      2.00      2.00    160.28      3.00     89.55
 2758.8000    126.07     65.42    200.22   2480.65   -999.25     10.75      2.00      2.00    151.46      3.00     95.76
 2759.0000     64.88     64.75    198.69   2445.95   -999.25     11.75      2.00      2.00    140.25      3.00    101.97
 2759.2000     85.38     64.08    201.08   2483.90   -999.25     12.00      2.00      2.00    158.26      3.00    107.00
 2759.4000     49.78     63.42    204.06   2471.42   -999.25      6.00      2.00      2.00    176.00      3.00    109.86
 2759.6000     90.63     62.76    203.59   2483.42   -999.25      5.91      2.00      2.00    171.65      3.00    112.71
 2759.8000     70.41     62.14    204.72   2470.18   -999.25      5.00      2.00      2.00    167.31      3.00    115.57
 2760.0000     63.32     61.45    207.99   2552.26   -999.25      4.09      2.00      2.00    149.03      3.00    118.43
 2760.2000    137.01     60.79    205.73   2509.80   -999.25      4.00      2.00      2.00    124.78      3.00    122.61
 2760.4000     66.82     60.14    204.95   2550.84   -999.25      4.00      2.00      2.00     90.61      2.22    128.42
 2760.6000     96.87     59.48    204.32   2510.39   -999.25      5.64      2.00      2.00     38.03      0.00    134.23
 2760.8000     52.45     58.86    205.58   2572.76   -999.25      6.00      2.00      2.00     45.33      0.67    134.28
 2761.0000     36.33     58.17    204.54   2571.07   -999.25      6.00      2.00      2.00     63.55      1.45    123.65
 2761.2000    129.62     57.55    204.06   2540.01   -999.25      6.00      2.00      2.00     92.63      2.36    113.01
 2761.4000    171.14     56.86    199.53   2544.57   -999.25      6.00      2.00      2.00    136.64      3.00    102.38
 2761.6000     70.43     56.23    207.52   2566.08   -999.25      6.00      2.00      2.00    184.00      3.00    103.82
 2761.8000    154.22     55.58    204.74   2556.37   -999.25      4.79      2.00      2.00    184.00      3.00    123.38
 2762.0000     63.21     54.91    205.37   2554.03   -999.25      4.00      2.00      2.00    137.38      2.03    139.28
 2762.2000    108.37     54.23    203.58   2543.56   -999.25      4.00      2.00      2.00     52.69      0.26    134.48
 2762.4000     69.25     53.61    205.48   2562.19   -999.25      4.16      2.00      2.00     54.76      0.45    129.68
 2762.6000     50.77     52.92    201.97   2564.75   -999.25      7.23      2.00      2.00     72.12      0.97    124.88
 2762.8000    108.74     52.29    200.59   2521.97   -999.25      8.00      2.00      2.00     99.97      2.23    120.95
 2763.0000     19.61     51.61    201.88   2537.27   -999.25     17.62      2.00      2.00    120.15      3.00    118.32
 2763.2000     64.15     50.96    198.68   2518.26   -999.25     22.00      2.00      2.00    128.03      3.00    115.68
 2763.4000     76.86     50.33    198.93   2540.97   -999.25     22.00      2.00      2.00    129.14      3.00    113.05
 2763.6000     48.33     49.67    198.36   2500.67   -999.25     22.00      2.00      2.53    128.00      3.00    114.53
 2763.8000     58.42     48.99    197.26   2547.33   -999.25     30.00      2.00      4.00    121.49      3.00    118.74
 2764.0000     35.18     48.33    196.93   2494.64   -999.25     30.00      2.00      4.00    114.98      3.00    122.95
 2764.2000     87.63     47.67    197.60   2565.54   -999.25     27.77      2.00      4.00    113.59      3.00    127.16
 2764.4000    104.89     47.01    198.83   2493.59   -999.25     20.37      2.00      4.00    113.10      3.00    116.61
 2764.6000     23.49     46.39    201.40   2516.02   -999.25     15.58      2.00      2.00    142.00      3.00    102.38
 2764.8000     47.83     45.74    201.24   2516.06   -999.25      8.00      2.00      2.00    142.00      3.00     88.14
 2765.0000     55.36     45.08    202.26   2463.62   -999.25      8.00      2.00      2.00    135.24      3.00     92.10
 2765.2000     74.31     44.42    202.75   2456.59   -999.25      6.97      2.00      4.00    119.12      3.00     99.28
 2765.4000    111.04     43.74    203.73   2503.32   -999.25      6.00      2.00      4.00    119.42      3.00    106.46
 2765.6000     63.65     43.11    203.43   2481.82   -999.25      6.00      2.00      4.00    119.73      3.00    113.64
 2765.8000     47.28     42.44    204.48   2476.92   -999.25      6.00      2.00      3.78    117.32      2.92    120.82
 2766.0000     58.82     41.77    208.43   2502.17   -999.25      5.26      2.00      2.89     90.52      2.12    128.00
