~Version Information
VERS.                       2.00: SCHLUMBERGER LAS - Version 2.00
WRAP.                         NO: One line per depth step
~Well Information
STRT.FT                1138.0000: Start Depth
STOP.FT                2257.0000: End Depth
STEP.FT                   0.2000:  
NULL.                    -999.25:  
COMP.                    BAPETCO: COMPANY
WELL.                BED 3 C18-M: WELL
FLD .                   BED AREA: FLD
SRVC.               Schlumberger: SERVICE COMPANY
LOC .                           : LOCATION
DATE.                  19-Sep-19: LOG DATE
UWI .                  19EGP0321: API NUMBER
~Curve Information
DEPT.FT                         : MWD Tool Measurement Depth
ROPI.FT/HR                      : Rate of Penetration (Time Based)
KPOSI.FT                         : Kelly Position (Raw)
HKL I.KLBF                       : Hook Load (Raw)
SPP I.PSI                        : Standpipe Pressure (Raw)
PSPD.FT/MIN                     : Instantaneous Pipe Speed
VIBC.CPS                        : Vibration Count
VIBXYH.                           : Vibration XY
VIBZH.                           : Vibration Z
SSS_H.                           : Stick Slip Percentage from HDS1
SSL_H.                           : Stick Slip Level from HDS1
RPM_H.                           : Average RPM from HDS1
#     DEPT      ROPI     KPOSI     HKL I     SPP I      PSPD      VIBC    VIBXYH     VIBZH     SSS_H     SSL_H     RPM_H
#       FT     FT/HR        FT      KLBF       PSI    FT/MIN       CPS                                                  
#
# Relog Number     0         0         0         0         0         0         0         0         0         0         0
#
~ASCII Data
# ...
 2035.8000     16.96     24.18    190.20   2476.31   -999.25     26.44      2.00      2.00    105.50      3.00    109.21
 2036.0000     20.04     23.56    190.33   2510.54   -999.25     22.67      2.00      2.00    109.00      3.00    111.64
 2036.2000     21.96     22.90    190.86   2460.65   -999.25     28.92      2.00      2.00    109.86      3.00    108.81
 2036.4000     36.29     22.24    192.47   2491.23   -999.25     30.00      2.00      2.00    110.15      3.00    107.54
 2036.6000     14.71     21.59    190.76   2529.36   -999.25     36.00      2.00      2.00    115.60      3.00    113.69
 2036.8000     19.45     20.90    192.55   2510.71   -999.25     28.00      2.00      2.00    137.00      3.00    114.95
 2037.0000     14.71     20.28    191.71   2481.82   -999.25     35.39      2.00      2.00    121.74      3.00    115.95
 2037.2000     23.11     19.59    192.57   2553.62   -999.25     41.87      2.00      2.00    108.00      3.00    115.00
 2037.4000     11.00     18.96    190.67   2473.72   -999.25     36.00      2.00      2.00    103.33      3.00    114.10
 2037.6000     25.36     18.31    190.85   2509.70   -999.25     32.00      2.00      2.00    103.73      3.00    116.15
 2037.8000     20.74     17.65    190.00   2483.26   -999.25     26.00      2.00      2.00    110.20      3.00    117.89
 2038.0000     37.77     16.99    190.85   2488.26   -999.25     32.00      2.00      2.00    114.13      3.00    116.74
 2038.2000     42.51     16.32    191.37   2527.18   -999.25     32.00      2.00      2.00    113.24      3.00    114.88
 2038.4000     52.47     15.68    189.05   2502.17   -999.25     28.00      2.00      2.00    111.33      3.00    111.68
 2038.6000     43.84     15.03    190.86   2492.35   -999.25     28.00      2.00      2.00    107.58      3.00    108.48
 2038.8000     31.77     14.37    191.42   2514.71   -999.25     27.43      2.00      2.00    125.01      3.00    108.00
 2039.0000     91.24     13.71    192.09   2509.15   -999.25     33.00      2.00      2.00    111.12      3.00    107.56
 2039.2000     65.73     13.06    191.57   2504.56   -999.25     37.72      2.00      2.00    135.24      3.00    106.59
 2039.4000     58.95     12.40    192.18   2506.05   -999.25     24.00      2.00      2.00    119.00      3.00    106.50
 2039.6000     36.06     11.74    189.98   2516.27   -999.25     29.67      2.00      2.00    116.41      3.00    107.75
 2039.8000     83.06     11.09    188.37   2527.67   -999.25     30.00      2.00      2.00    109.31      3.00    109.64
 2040.0000     23.14     10.43    191.35   2502.71   -999.25     32.00      2.00      2.00    111.00      3.00    111.69
 2040.2000     41.57      9.78    190.95   2510.80   -999.25     36.00      2.00      2.00    106.95      3.00    110.26
 2040.4000     53.71      9.10    189.00   2493.94   -999.25     36.00      2.00      2.00    105.00      3.00    108.21
 2040.6000     65.72      8.46    191.23   2504.78   -999.25     29.43      2.00      2.00    109.10      3.00    108.00
 2040.8000     62.02      7.81    188.02   2512.90   -999.25     26.00      2.00      2.00    107.41      3.00    108.06
 2041.0000     60.84      7.15    188.86   2476.42   -999.25     26.84      2.00      2.00    126.70      3.00    109.17
 2041.2000     77.48      6.50    191.08   2492.74   -999.25     30.00      2.00      2.00    116.53      3.00    109.82
 2041.4000     73.79      5.84    190.83   2489.73   -999.25     15.06      2.00      2.00    116.80      3.00    109.09
 2041.6000    -19.58      5.15    196.55   2466.93   -999.25     28.00      2.00      2.00    119.00      3.00    108.36
 2041.8000    181.91     99.87    194.85   2451.42   -999.25     29.42      2.00      2.00    109.21      2.77    118.63
 2042.0000    122.26     99.21    188.26   2432.09   -999.25     36.24      2.00      2.00    103.63      2.30    139.87
 2042.2000     41.97     98.56    196.27   2372.43   -999.25     33.12      2.00      2.00     85.53      1.71    139.18
 2042.4000     92.40     97.92    194.47   2394.44   -999.25     20.00      2.00      2.00     29.00      0.00    125.06
 2042.6000     96.25     97.28    191.39   2337.37   -999.25     19.33      2.00      2.00     22.85      0.00     98.01
 2042.8000     37.52     96.59    193.42   2276.36   -999.25     20.50      2.00      2.00    125.39      3.00     93.75
 2043.0000     34.60     95.96    191.24   2315.60   -999.25     23.16      2.00      2.00    153.40      3.00    113.34
 2043.2000     66.31     95.28    190.85   2268.21   -999.25     20.00      2.00      2.00    136.06      3.00    127.00
 2043.4000     60.78     94.62    192.89   2281.37   -999.25     16.18      2.00      2.00    118.00      3.00    107.00
 2043.6000    164.45     93.99    189.12   2287.43   -999.25     14.00      2.00      2.00    118.00      3.00     95.27
 2043.8000     63.36     93.34    193.23   2287.14   -999.25     14.00      2.00      2.00    121.43      3.00     88.00
 2044.0000     15.86     92.65    189.71   2292.92   -999.25     13.14      2.00      2.00    127.55      3.00     89.57
 2044.2000     53.38     91.99    187.44   2351.49   -999.25     12.00      2.00      2.00    163.00      3.00     91.14
 2044.4000     44.59     91.35    189.40   2365.13   -999.25     16.00      2.00      2.00    164.00      3.00     91.38
 2044.6000     32.15     90.70    190.33   2348.79   -999.25     18.46      2.00      2.00    172.13      3.00     90.00
 2044.8000     28.67     90.06    188.95   2314.79   -999.25     34.00      2.00      2.00    191.09      3.00     88.62
 2045.0000     31.43     89.37    192.38   2354.40   -999.25     28.00      2.00      2.00    210.00      3.00     89.00
 2045.2000     35.82     88.71    189.34   2312.37   -999.25     22.00      2.00      2.00    209.00      3.00     90.82
 2045.4000     49.48     88.06    189.14   2359.88   -999.25     32.40      2.00      2.00    199.00      3.00     91.50
 2045.6000     50.19     87.40    190.19   2371.76   -999.25     31.57      2.00      2.00    200.56      3.00     90.07
 2045.8000     71.53     86.75    185.73   2348.92   -999.25     20.00      2.00      2.00    203.00      3.00     88.64
 2046.0000     77.28     86.09    187.34   2386.95   -999.25     20.00      2.00      2.00    193.39      3.00     88.00
 2046.2000     47.30     85.47    187.92   2424.72   -999.25     21.40      2.00      2.00    164.84      3.00     88.00
 2046.4000     37.22     84.81    186.10   2393.04   -999.25     22.00      2.00      2.00    201.34      3.00     88.00
 2046.6000     55.94     84.12    186.20   2434.35   -999.25     16.00      2.00      2.00    205.00      3.00     88.00
 2046.8000     27.13     83.46    187.15   2393.01   -999.25     16.00      2.00      2.00    201.59      3.00     88.49
 2047.0000     28.55     82.82    188.15   2423.60   -999.25     16.00      2.00      2.00    185.14      3.00     93.37
 2047.2000     19.96     82.15    187.34   2385.64   -999.25     18.29      2.00      2.00    176.00      3.00     98.05
 2047.4000     37.18     81.50    188.86   2470.30   -999.25     20.94      2.00      2.00    165.04      3.00     99.00
 2047.6000     27.37     80.84    187.81   2460.17   -999.25     24.00      2.00      2.00    158.00      3.00     99.95
 2047.8000     37.17     80.18    185.63   2474.30   -999.25     23.60      2.00      2.00    135.45      3.00    100.00
 2048.0000     48.44     79.53    187.34   2487.56   -999.25     18.00      2.00      2.00    129.09      3.00    100.21
 2048.2000    103.17     78.87    185.44   2405.83   -999.25     16.00      2.00      2.00    136.41      3.00    104.31
 2048.4000     36.81     78.23    190.54   2458.83   -999.25     26.00      2.00      2.00    126.60      3.00    108.00
 2048.6000     23.18     77.56    191.03   2465.93   -999.25     25.20      2.00      2.00    124.00      3.00    108.00
 2048.8000     60.05     76.90    187.34   2452.50   -999.25     20.00      2.00      2.00    127.85      3.00    108.00
 2049.0000     54.98     76.25    185.35   2466.15   -999.25     24.00      2.00      2.00    131.00      3.00    108.00
