~Version Information
VERS.                       2.00: SCHLUMBERGER LAS - Version 2.00
WRAP.                         NO: One line per depth step
~Well Information
STRT.FT                2257.0000: Start Depth
STOP.FT                3002.0000: End Depth
STEP.FT                   0.2000:  
NULL.                    -999.25:  
COMP.                    BAPETCO: COMPANY
WELL.                BED 3 C18-M: WELL
FLD .                   BED AREA: FLD
SRVC.               Schlumberger: SERVICE COMPANY
LOC .                           : LOCATION
DATE.                  21-Sep-19: LOG DATE
UWI .                  19EGP0321: API NUMBER
~Curve Information
DEPT.FT                         : MWD Tool Measurement Depth
ROPI.FT/HR                      : Rate of Penetration (Time Based)
KPOSI.FT                         : Kelly Position (Raw)
HKL I.KLBF                       : Hook Load (Raw)
SPP I.PSI                        : Standpipe Pressure (Raw)
PSPD.FT/MIN                     : Instantaneous Pipe Speed
VIBC.CPS                        : Vibration Count
VIBXYH.                           : Vibration XY
VIBZH.                           : Vibration Z
SSS_H.                           : Stick Slip Percentage from HDS1
SSL_H.                           : Stick Slip Level from HDS1
RPM_H.                           : Average RPM from HDS1
#     DEPT      ROPI     KPOSI     HKL I     SPP I      PSPD      VIBC    VIBXYH     VIBZH     SSS_H     SSL_H     RPM_H
#       FT     FT/HR        FT      KLBF       PSI    FT/MIN       CPS                                                  
#
# Relog Number     0         0         0         0         0         0         0         0         0         0         0
#
~ASCII Data
# ...
 2551.8000    115.91     82.35    201.31   2126.42   -999.25     18.00      2.00      2.00    127.00      3.00    128.00
 2552.0000    155.88     81.69    200.99   2098.70   -999.25     21.34      2.00      2.00    121.00      3.00    128.00
 2552.2000    234.68     81.04    201.21   2065.86   -999.25     28.00      2.00      2.00    116.21      3.00    128.00
 2552.4000    172.08     80.38    200.29   2057.44   -999.25     28.00      2.00      2.00    112.62      3.00    128.33
 2552.6000    190.34     79.72    203.44   2101.78   -999.25     28.00      2.00      2.00    110.89      3.00    129.28
 2552.8000    274.57     79.09    201.38   2091.87   -999.25     28.00      2.00      2.00    110.69      3.00    130.22
 2553.0000    261.39     78.44    200.66   2123.88   -999.25     28.00      2.00      2.00    110.50      3.00    131.17
 2553.2000    177.37     77.76    200.80   2124.82   -999.25     21.97      2.00      2.00    110.30      3.00    132.12
 2553.4000     64.92     77.10    201.27   2106.65   -999.25     15.94      2.00      2.00    110.10      3.00    133.06
 2553.6000     91.58     76.44    202.77   2082.82   -999.25      9.92      2.00      2.00    102.87      2.77    134.01
 2553.8000    109.42     75.81    202.85   2117.71   -999.25      6.00      2.00      2.00     88.62      2.31    134.96
 2554.0000    214.54     75.13    201.88   2138.11   -999.25      6.00      2.00      2.00     74.37      1.85    135.91
 2554.2000    173.51     74.47    200.15   2117.37   -999.25      6.00      2.00      2.00     60.12      1.39    136.34
 2554.4000    161.50     73.84    200.94   2101.37   -999.25      6.62      2.00      2.00     47.42      0.94    136.72
 2554.6000    158.28     73.16    201.44   2124.52   -999.25      8.00      2.00      2.00     43.50      0.50    137.09
 2554.8000    132.45     72.51    200.97   2098.02   -999.25      8.00      2.00      2.00     39.59      0.07    137.47
 2555.0000    164.36     71.85    201.21   2108.08   -999.25      8.00      2.00      2.00     39.40      0.20    137.85
 2555.2000    161.10     71.20    201.46   2113.46   -999.25      7.82      2.00      2.00     39.88      0.44    138.23
 2555.4000    230.98     70.54    203.03   2123.74   -999.25      7.30      2.00      2.00     40.36      0.68    138.60
 2555.6000    156.28     69.88    203.20   2125.85   -999.25      6.78      2.00      2.00     40.83      0.92    138.98
 2555.8000    151.64     69.23    202.23   2141.57   -999.25      6.26      2.00      2.00     45.24      1.00    139.36
 2556.0000    217.42     68.57    203.01   2103.11   -999.25      6.00      2.00      2.00     51.75      1.00    139.74
 2556.2000    111.44     67.91    201.56   2090.10   -999.25      6.00      2.00      2.00     58.27      1.00    139.94
 2556.4000    235.02     67.29    201.98   2101.61   -999.25      6.00      2.00      2.00     64.79      1.00    139.72
 2556.6000     89.82     66.63    201.89   2131.28   -999.25      6.00      2.00      2.00     70.00      1.00    139.51
 2556.8000     63.52     65.95    203.52   2114.79   -999.25      6.00      2.00      2.00     70.00      1.00    139.29
 2557.0000    316.61     65.32    201.97   2153.62   -999.25      6.00      2.00      2.00     70.00      1.00    139.08
 2557.2000    115.55     64.63    202.11   2148.37   -999.25      5.53      2.00      2.00     70.00      1.00    138.86
 2557.4000    238.90     63.98    202.71   2126.04   -999.25      4.94      2.00      2.00     70.00      1.00    138.65
 2557.6000     73.51     63.32    206.72   2120.87   -999.25      4.35      2.00      2.00     66.36      0.89    138.43
 2557.8000    128.52     62.66    204.33   2129.19   -999.25      4.00      2.00      2.00     58.25      0.63    138.22
 2558.0000    200.12     62.01    203.49   2106.86   -999.25      4.00      2.00      2.00     50.15      0.38    138.00
 2558.2000    166.24     61.35    204.63   2141.83   -999.25      4.00      2.00      2.00     42.05      0.13    138.00
 2558.4000     89.05     60.70    203.92   2119.88   -999.25      4.00      2.00      2.00     38.00      0.00    138.00
 2558.6000    204.67     60.04    204.22   2125.12   -999.25      4.00      2.00      2.00     38.00      0.00    138.00
 2558.8000     87.15     59.41    204.27   2164.22   -999.25      4.00      2.00      2.00     38.00      0.00    138.00
 2559.0000    170.92     58.73    203.92   2132.31   -999.25      4.00      2.00      2.00     38.00      0.00    138.00
 2559.2000    117.70     58.07    203.58   2127.02   -999.25      4.00      2.00      2.00     37.17      0.00    138.00
 2559.4000    176.65     57.41    203.35   2114.68   -999.25      4.00      2.00      2.00     35.78      0.00    138.00
 2559.6000    137.60     56.78    204.59   2108.70   -999.25      4.00      2.00      2.00     34.39      0.00    138.00
 2559.8000     88.90     56.10    203.59   2156.86   -999.25      4.00      2.00      2.00     33.00      0.00    138.00
 2560.0000    109.06     55.45    204.82   2137.43   -999.25      4.00      2.00      2.00     34.84      0.00    138.00
 2560.2000     54.68     54.81    204.71   2140.32   -999.25      4.30      2.00      2.00     36.68      0.00    138.00
 2560.4000    285.77     54.13    202.78   2069.79   -999.25      5.04      2.00      2.00     38.53      0.00    138.00
 2560.6000    290.01     53.51    202.54   2121.89   -999.25      5.78      2.00      2.00     40.00      0.00    138.00
 2560.8000    227.30     52.85    203.54   2138.28   -999.25      6.00      2.00      2.00     40.00      0.00    138.00
 2561.0000    173.51     52.17    204.39   2150.64   -999.25      6.00      2.00      2.00     40.00      0.00    137.82
 2561.2000    138.47     51.51    201.82   2099.00   -999.25      6.00      2.00      2.00     40.00      0.00    137.53
 2561.4000    172.50     50.85    202.56   2135.18   -999.25      6.00      2.00      2.00     37.42      0.00    137.24
 2561.6000    194.38     50.20    202.47   2126.46   -999.25      5.83      2.00      2.00     34.70      0.00    136.95
 2561.8000     95.51     49.54    203.25   2134.53   -999.25      4.13      2.00      2.00     31.99      0.00    136.66
 2562.0000    235.87     48.88    203.54   2117.21   -999.25      2.43      2.00      2.00     29.27      0.00    136.36
 2562.2000    118.60     48.23    204.57   2121.75   -999.25      2.00      2.00      2.00     27.64      0.00    136.07
 2562.4000    227.92     47.57    205.30   2106.66   -999.25      2.00      2.00      2.00     26.13      0.00    136.50
 2562.6000    136.34     46.94    203.49   2096.41   -999.25      3.83      2.00      2.00     25.09      0.00    137.18
 2562.8000     80.54     46.26    206.17   2159.87   -999.25      6.00      2.00      2.00     25.47      0.00    137.85
 2563.0000     82.47     45.60    206.57   2116.82   -999.25      6.00      2.00      2.00     25.85      0.00    138.52
 2563.2000     87.09     44.95    206.43   2149.72   -999.25      6.00      2.00      2.00     27.93      0.00    139.19
 2563.4000    144.09     44.32    204.73   2120.27   -999.25      6.00      2.00      2.00     31.16      0.00    139.87
 2563.6000    130.63     43.64    206.43   2133.51   -999.25      6.00      2.00      2.00     34.39      0.00    140.00
 2563.8000    113.65     42.98    205.10   2123.93   -999.25      5.31      2.00      2.00     36.00      0.00    140.00
 2564.0000    118.23     42.32    203.87   2090.59   -999.25      4.17      2.00      2.00     36.00      0.00    140.00
 2564.2000     79.59     41.67    206.15   2145.02   -999.25      4.00      2.00      2.00     36.00      0.00    140.00
 2564.4000    117.28     41.01    206.72   2104.69   -999.25      4.00      2.00      2.00     35.62      0.00    140.00
 2564.6000    128.38     40.35    204.74   2153.40   -999.25      4.00      2.00      2.00     34.08      0.00    140.00
 2564.8000    135.56     39.70    204.88   2143.63   -999.25      4.00      2.00      2.00     32.54      0.00    139.97
 2565.0000    107.27     39.04    206.24   2070.29   -999.25      4.00      2.00      2.00     31.00      0.00    139.64
