~Version Information
VERS.                       2.00: SCHLUMBERGER LAS - Version 2.00
WRAP.                         NO: One line per depth step
~Well Information
STRT.FT                2257.0000: Start Depth
STOP.FT                3002.0000: End Depth
STEP.FT                   0.2000:  
NULL.                    -999.25:  
COMP.                    BAPETCO: COMPANY
WELL.                BED 3 C18-M: WELL
FLD .                   BED AREA: FLD
SRVC.               Schlumberger: SERVICE COMPANY
LOC .                           : LOCATION
DATE.                  21-Sep-19: LOG DATE
UWI .                  19EGP0321: API NUMBER
~Curve Information
DEPT.FT                         : MWD Tool Measurement Depth
ROPI.FT/HR                      : Rate of Penetration (Time Based)
KPOSI.FT                         : Kelly Position (Raw)
HKL I.KLBF                       : Hook Load (Raw)
SPP I.PSI                        : Standpipe Pressure (Raw)
PSPD.FT/MIN                     : Instantaneous Pipe Speed
VIBC.CPS                        : Vibration Count
VIBXYH.                           : Vibration XY
VIBZH.                           : Vibration Z
SSS_H.                           : Stick Slip Percentage from HDS1
SSL_H.                           : Stick Slip Level from HDS1
RPM_H.                           : Average RPM from HDS1
#     DEPT      ROPI     KPOSI     HKL I     SPP I      PSPD      VIBC    VIBXYH     VIBZH     SSS_H     SSL_H     RPM_H
#       FT     FT/HR        FT      KLBF       PSI    FT/MIN       CPS                                                  
#
# Relog Number     0         0         0         0         0         0         0         0         0         0         0
#
~ASCII Data
# ...
 2350.8000    142.86     78.67    194.62   1912.58   -999.25     20.00      2.00      2.00    157.90      3.00    107.35
 2351.0000     41.81     78.03    195.32   1934.60   -999.25     20.00      2.00      2.00    163.00      3.00    106.95
 2351.2000     69.11     77.36    195.13   1970.22   -999.25     24.57      2.00      2.00    163.00      3.00    106.55
 2351.4000     56.78     76.71    195.49   1929.56   -999.25     28.00      2.00      2.00    158.76      3.00    106.16
 2351.6000     61.07     76.05    195.68   1960.26   -999.25     28.00      2.00      2.00    150.27      3.00    105.41
 2351.8000     43.19     75.39    195.04   1929.32   -999.25     20.76      2.00      2.00    151.32      3.00    104.44
 2352.0000     64.01     74.76    195.60   1936.38   -999.25     20.00      2.00      2.00    154.04      3.00    103.46
 2352.2000     58.58     74.10    195.89   1955.78   -999.25     21.60      2.00      2.00    155.37      3.00    102.49
 2352.4000     51.07     73.42    195.55   1939.84   -999.25     28.00      2.00      2.00    155.94      3.00    101.21
 2352.6000     17.32     72.77    195.29   1919.62   -999.25     28.00      2.00      2.00    153.79      3.00     99.63
 2352.8000     82.65     72.11    193.99   1939.85   -999.25     26.94      2.00      2.00    151.35      3.00     98.05
 2353.0000     50.94     71.46    196.08   1935.53   -999.25     26.00      2.00      2.00    152.38      3.00     96.47
 2353.2000     63.87     70.83    194.66   1919.90   -999.25     26.00      2.00      2.00    157.68      3.00     98.58
 2353.4000     67.24     70.16    196.27   1947.86   -999.25     25.72      2.00      2.00    154.83      3.00    102.26
 2353.6000    118.26     69.51    195.23   1945.87   -999.25     24.34      2.00      2.00    149.28      3.00    105.95
 2353.8000    101.22     68.86    195.51   1964.36   -999.25     24.00      2.00      2.00    150.06      3.00    109.63
 2354.0000     60.06     68.18    195.55   1935.60   -999.25     25.14      2.00      2.00    151.00      3.00    107.88
 2354.2000     79.92     67.52    194.12   1928.80   -999.25     30.00      2.00      2.00    151.00      3.00    105.53
 2354.4000    147.27     66.86    193.93   1946.53   -999.25     30.00      2.00      2.00    151.00      3.00    103.18
 2354.6000     69.65     66.21    194.42   1951.43   -999.25     30.00      2.00      2.00    159.68      3.00    100.82
 2354.8000    102.61     65.55    195.89   1913.10   -999.25     30.00      2.00      2.00    171.26      3.00    102.36
 2355.0000    135.53     64.90    195.13   1985.05   -999.25     26.40      2.00      2.00    169.18      3.00    106.00
 2355.2000     53.68     64.26    195.08   1949.42   -999.25     18.00      2.00      2.00    164.67      3.00    109.64
 2355.4000    141.58     63.58    194.91   1985.13   -999.25     14.00      2.00      2.00    139.71      3.00    113.27
 2355.6000     98.22     62.93    198.79   1957.76   -999.25     14.00      2.00      2.00    134.86      3.00    113.48
 2355.8000     72.15     62.27    195.98   2013.93   -999.25     18.85      2.00      2.00    135.95      3.00    112.84
 2356.0000    118.31     61.61    195.71   1978.19   -999.25     22.00      2.00      2.00    139.98      3.00    112.19
 2356.2000    102.99     60.96    195.84   1995.41   -999.25     22.00      2.00      2.00    144.16      3.00    112.00
 2356.4000     74.15     60.31    194.77   1993.24   -999.25     21.44      2.00      2.00    142.90      3.00    112.00
 2356.6000     94.64     59.65    195.89   1974.19   -999.25     17.69      2.00      2.00    140.26      3.00    112.00
 2356.8000     24.92     58.99    195.23   1993.26   -999.25     16.00      2.00      2.00    148.34      3.00    112.00
 2357.0000     86.74     58.33    195.30   1999.38   -999.25     16.00      2.00      2.00    157.61      3.00    111.08
 2357.2000     54.76     57.68    193.86   1974.09   -999.25     40.00      2.00      2.00    159.00      3.00    109.56
 2357.4000     53.83     57.04    196.04   1980.26   -999.25     39.43      2.00      2.00    159.33      3.00    108.04
 2357.6000     95.70     56.40    196.18   2019.64   -999.25     28.15      2.00      2.00    159.81      3.00    106.51
 2357.8000     66.92     55.74    195.79   2024.46   -999.25     18.00      2.00      2.00    161.50      3.00    104.99
 2358.0000    117.42     55.05    194.07   1955.78   -999.25     18.00      2.00      2.00    164.00      3.00    103.47
 2358.2000     51.30     54.43    197.81   1997.99   -999.25     18.00      2.00      2.00    165.00      3.00    101.97
 2358.4000     95.16     53.74    195.84   2005.60   -999.25     13.33      2.00      2.00    165.00      3.00    100.47
 2358.6000     50.89     53.08    196.14   2028.01   -999.25     16.00      2.00      2.00    162.07      3.00     98.97
 2358.8000     92.78     52.43    195.79   1966.13   -999.25     16.00      2.00      2.00    156.22      3.00    100.18
 2359.0000    107.84     51.77    194.31   1998.34   -999.25     16.92      2.00      2.00    180.03      3.00    106.42
 2359.2000     63.01     51.14    198.91   2101.64   -999.25     18.97      2.00      2.00    219.72      3.00    112.65
 2359.4000     74.50     50.46    196.27   2153.88   -999.25     20.00      2.00      2.00    178.44      3.00    118.88
 2359.6000    121.58     49.80    193.71   2112.48   -999.25     20.00      2.00      2.00    137.15      3.00    117.22
 2359.8000     65.62     49.15    194.94   2142.04   -999.25     20.00      2.00      2.00    153.99      3.00    107.65
 2360.0000     76.41     48.49    200.59   1923.15   -999.25     12.00      2.00      2.00    161.00      3.00    100.37
 2360.2000     94.61     47.83    197.08   1907.68   -999.25     14.25      2.00      2.00    158.48      3.00    102.23
 2360.4000     49.12     47.19    196.01   1954.62   -999.25     18.00      2.00      2.00    150.12      3.00    104.09
 2360.6000     28.24     46.54    197.18   1927.39   -999.25     18.00      2.00      2.00    143.17      3.00    105.95
 2360.8000    121.13     45.87    194.94   1936.51   -999.25     18.00      2.00      2.00    144.31      3.00    107.81
 2361.0000    100.64     45.24    196.46   1920.11   -999.25     17.64      2.00      2.00    148.20      3.00    104.69
 2361.2000     92.91     44.55    194.56   1920.03   -999.25     14.00      2.00      2.00    156.20      3.00    101.01
 2361.4000     67.65     43.91    196.97   1940.11   -999.25     14.00      2.00      2.00    164.20      3.00     97.33
 2361.6000     66.51     43.24    194.32   1956.20   -999.25     14.94      2.00      2.00    167.00      3.00     93.65
 2361.8000    139.81     42.59    199.52   1919.77   -999.25     16.00      2.00      2.00    162.95      3.00     92.56
 2362.0000    106.31     41.94    197.95   1933.87   -999.25     15.27      2.00      2.00    155.58      3.00     93.57
 2362.2000     69.30     41.27    194.89   1909.36   -999.25     13.45      2.00      2.00    148.21      3.00     94.58
 2362.4000     48.49     40.62    196.46   1926.69   -999.25     12.00      2.00      2.00    148.45      3.00     95.60
 2362.6000     36.57     39.98    196.43   1926.76   -999.25     12.00      2.00      2.00    151.95      3.00     95.60
 2362.8000     51.53     39.30    194.47   1936.05   -999.25     12.00      2.00      2.00    166.04      3.00     94.94
 2363.0000     94.29     38.65    194.80   1931.74   -999.25     17.14      2.00      2.00    180.00      3.00     94.28
 2363.2000     85.52     38.01    195.09   1916.29   -999.25     20.00      2.00      2.00    180.00      3.00     93.62
 2363.4000     69.96     37.35    195.66   1902.40   -999.25     20.00      2.00      2.00    180.00      3.00     92.96
 2363.6000     78.15     36.68    196.20   1910.14   -999.25     19.20      2.00      2.00    176.91      3.00     92.30
 2363.8000     50.16     36.05    194.78   1908.96   -999.25     16.53      2.00      2.00    173.27      3.00     92.25
 2364.0000     59.79     35.38    195.41   1866.76   -999.25     16.00      2.00      2.00    172.53      3.00     92.70
