~Version Information
VERS.                       2.00: SCHLUMBERGER LAS - Version 2.00
WRAP.                         NO: One line per depth step
~Well Information
STRT.FT                2257.0000: Start Depth
STOP.FT                3002.0000: End Depth
STEP.FT                   0.2000:  
NULL.                    -999.25:  
COMP.                    BAPETCO: COMPANY
WELL.                BED 3 C18-M: WELL
FLD .                   BED AREA: FLD
SRVC.               Schlumberger: SERVICE COMPANY
LOC .                           : LOCATION
DATE.                  21-Sep-19: LOG DATE
UWI .                  19EGP0321: API NUMBER
~Curve Information
DEPT.FT                         : MWD Tool Measurement Depth
ROPI.FT/HR                      : Rate of Penetration (Time Based)
KPOSI.FT                         : Kelly Position (Raw)
HKL I.KLBF                       : Hook Load (Raw)
SPP I.PSI                        : Standpipe Pressure (Raw)
PSPD.FT/MIN                     : Instantaneous Pipe Speed
VIBC.CPS                        : Vibration Count
VIBXYH.                           : Vibration XY
VIBZH.                           : Vibration Z
SSS_H.                           : Stick Slip Percentage from HDS1
SSL_H.                           : Stick Slip Level from HDS1
RPM_H.                           : Average RPM from HDS1
#     DEPT      ROPI     KPOSI     HKL I     SPP I      PSPD      VIBC    VIBXYH     VIBZH     SSS_H     SSL_H     RPM_H
#       FT     FT/HR        FT      KLBF       PSI    FT/MIN       CPS                                                  
#
# Relog Number     0         0         0         0         0         0         0         0         0         0         0
#
~ASCII Data
 2257.0000     34.60     53.15    188.20   2325.30   -999.25     50.00      3.20      2.00    216.00      3.00   -999.25
 2257.2000     66.73     52.49    190.60   2466.80   -999.25     34.00      4.00      2.00    230.17      3.00     74.00
 2257.4000    146.23     10.48    199.57   1685.12   -999.25     80.00      3.08      2.00    249.06      3.00    118.00
 2257.6000     49.49     51.20    188.39   2424.34   -999.25     66.73      3.39      2.00    180.87      3.00    109.25
 2257.8000     67.04     50.56    187.79   2426.65   -999.25     28.06      3.50      2.00    205.88      3.00     89.79
 2258.0000     34.03      8.10    194.56   1665.11   -999.25     28.00      2.00      2.00    165.25      3.00    108.35
 2258.2000      0.12      7.45    197.88   1654.50   -999.25     45.98      2.00      2.00    119.16      3.00    110.00
 2258.4000     51.59      6.79    195.20   1643.17   -999.25     68.00      2.00      2.00    119.15      3.00    110.63
 2258.6000     44.38      6.14    193.04   1643.07   -999.25     78.00      2.00      2.00    141.70      3.00    113.70
 2258.8000     33.92      5.48    192.61   1617.82   -999.25     66.00      2.00      2.00    161.48      3.00    104.18
 2259.0000     46.71      4.82    194.27   1635.62   -999.25     76.00      2.00      2.00    157.00      3.00    111.50
 2259.2000    121.88     99.49    191.33   1958.59   -999.25     66.00      2.00      2.00    133.61      3.00    100.32
 2259.4000     32.69     98.85    192.83   1951.68   -999.25     46.07      2.00      2.00    158.94      3.00     94.80
 2259.6000     76.57     98.20    186.96   1919.42   -999.25     68.00      2.00      2.00    173.98      3.00    100.67
 2259.8000     58.97     97.52    187.13   1974.67   -999.25     65.81      2.00      2.00    208.87      3.00     96.31
 2260.0000     43.25     96.88    186.58   1974.53   -999.25     43.00      2.00      2.00    207.00      3.00     89.89
 2260.2000    105.04     96.23    186.31   1935.65   -999.25     51.44      2.00      2.00    182.02      3.00    100.00
 2260.4000     86.67     95.57    184.55   1952.88   -999.25     50.40      2.00      2.00    186.40      3.00    100.42
 2260.6000    195.75     94.90    187.38   2048.23   -999.25     46.86      2.00      2.00    180.58      3.00    102.53
 2260.8000     97.07     94.23    186.79   2190.47   -999.25     44.00      2.00      2.00    156.09      3.00    104.48
 2261.0000    101.50     93.60    187.37   2193.25   -999.25     60.00      2.00      2.00    181.73      3.00    105.18
 2261.2000    114.79     92.95    186.39   2203.91   -999.25     53.45      2.00      2.00    200.99      3.00     88.89
 2261.4000     53.11     92.29    187.39   2220.77   -999.25     42.00      2.00      2.00    215.54      3.00     84.00
 2261.6000    115.08     91.62    185.87   2193.62   -999.25     42.00      2.00      2.00    214.92      3.00     83.33
 2261.8000     69.10     90.95    188.08   2205.02   -999.25     44.85      2.00      2.00    202.12      3.00     87.00
 2262.0000      1.73     90.32    189.52   2215.40   -999.25     44.86      2.00      2.00    223.00      3.00     81.25
 2262.2000     12.70     89.67    188.11   2213.51   -999.25     46.00      2.00      2.00    233.75      3.00     76.40
 2262.4000      4.21     89.01    186.87   2192.89   -999.25     38.99      2.00      2.00    218.99      3.00     74.43
 2262.6000     43.36     88.33    188.13   2202.83   -999.25     56.00      2.00      2.00    242.32      3.00     75.15
 2262.8000     57.06     87.70    190.29   2215.33   -999.25     46.80      2.00      2.00    213.52      3.00     81.91
 2263.0000     48.83     87.04    187.97   2185.83   -999.25     48.00      2.00      2.00    211.12      3.00     92.39
 2263.2000     24.21     86.38    188.34   2168.21   -999.25     43.00      2.00      2.00    211.60      3.00     82.70
 2263.4000     11.56     85.73    188.37   2186.64   -999.25     65.98      2.00      2.00    223.44      3.00     85.87
 2263.6000      1.30     85.07    186.68   2175.52   -999.25     57.98      2.00      2.00    218.33      3.00     85.71
 2263.8000      3.06     84.42    189.54   2192.20   -999.25     64.00      2.00      2.00    189.16      3.00     86.00
 2264.0000     31.72     83.73    192.18   2162.35   -999.25     60.00      2.00      2.00    147.55      3.00     97.58
 2264.2000     40.25     83.10    188.01   2226.26   -999.25     63.01      2.00      2.00    174.83      3.00     94.39
 2264.4000     16.21     82.41    189.21   2166.66   -999.25     69.98      2.00      2.00    195.47      3.00     85.35
 2264.6000     21.82     81.79    191.60   2226.00   -999.25     53.33      2.00      2.00    212.00      3.00     84.00
 2264.8000      2.88     81.14    187.35   2189.37   -999.25     40.00      2.00      2.00    218.45      3.00     88.37
 2265.0000     27.68     80.48    184.77   2157.93   -999.25     48.00      2.00      2.00    201.69      3.00     91.20
 2265.2000     35.60     79.82    185.82   2132.45   -999.25     46.00      2.00      2.00    211.00      3.00     90.36
 2265.4000     13.30     79.17    188.29   2095.12   -999.25     44.15      2.00      2.00    212.50      3.00     91.79
 2265.6000     41.29     78.48    187.34   2143.92   -999.25     46.00      2.00      2.00    216.00      3.00     92.00
 2265.8000     38.60     77.85    188.00   2158.40   -999.25     38.14      2.00      2.00    212.00      3.00     84.73
 2266.0000     32.87     77.20    189.19   2112.11   -999.25      6.00      2.00      2.00      0.00      0.00     59.22
 2266.2000     21.28     76.54    186.87   2102.64   -999.25     48.00      2.00      2.00    218.40      2.82     90.17
 2266.4000     15.42     75.85    188.00   2121.22   -999.25     42.00      2.00      2.00    164.00      3.00     97.64
 2266.6000     34.30     75.23    189.34   2135.77   -999.25     28.00      2.00      2.00    182.01      3.00     89.05
 2266.8000      0.01     74.54    188.86   2082.64   -999.25     31.00      2.00      2.00    178.00      3.00     93.26
 2267.0000     27.87     73.92    186.77   2106.13   -999.25     40.00      2.00      2.00    203.00      3.00     92.23
 2267.2000     25.11     73.26    186.91   2108.18   -999.25     41.00      2.00      2.00    212.00      3.00     82.23
 2267.4000     18.97     72.57    189.71   2058.18   -999.25     35.33      2.00      2.00    199.99      3.00     86.80
 2267.6000     49.77     71.93    188.15   2085.03   -999.25     38.00      2.00      2.00    175.12      3.00     91.06
 2267.8000     58.87     71.26    188.19   2121.92   -999.25     28.84      2.00      2.00    197.99      3.00     94.59
 2268.0000     30.57     70.64    190.19   2120.01   -999.25     32.00      2.00      2.00    194.00      3.00     90.20
 2268.2000     18.69     69.98    188.70   2057.62   -999.25     32.00      2.00      2.00    208.74      3.00     82.47
 2268.4000     14.74     69.32    187.88   2079.32   -999.25     36.00      2.00      2.00    192.99      3.00     85.63
 2268.6000     32.90     68.67    186.14   2119.21   -999.25     34.96      2.00      2.00    189.00      3.00     87.17
 2268.8000    102.83     68.01    182.87   2116.53   -999.25     34.00      2.00      2.00    191.67      3.00     83.83
 2269.0000     83.05     67.36    182.78   2092.08   -999.25     35.00      2.00      2.00    209.52      3.00     80.50
 2269.2000     52.40     66.70    183.02   2090.60   -999.25     40.00      2.00      2.00    223.44      3.00     77.17
 2269.4000     32.80     66.04    183.87   2091.95   -999.25     40.00      2.00      2.00    228.00      3.00     76.69
 2269.6000     45.98     65.37    182.48   2135.79   -999.25     34.40      2.00      2.00    226.80      3.00     77.76
 2269.8000     18.83     64.73    184.20   2138.80   -999.25     34.00      2.00      2.00    222.80      3.00     78.83
 2270.0000    101.12     64.06    183.10   2111.00   -999.25     29.43      2.00      2.00    225.50      3.00     79.89
 2270.2000     67.93     63.40    182.49   2115.57   -999.25     26.00      2.00      2.00    229.84      3.00     77.96
