~Version Information
VERS.                       2.00: SCHLUMBERGER LAS - Version 2.00
WRAP.                         NO: One line per depth step
~Well Information
STRT.FT                2257.0000: Start Depth
STOP.FT                3002.0000: End Depth
STEP.FT                   0.2000:  
NULL.                    -999.25:  
COMP.                    BAPETCO: COMPANY
WELL.                BED 3 C18-M: WELL
FLD .                   BED AREA: FLD
SRVC.               Schlumberger: SERVICE COMPANY
LOC .                           : LOCATION
DATE.                  21-Sep-19: LOG DATE
UWI .                  19EGP0321: API NUMBER
~Curve Information
DEPT.FT                         : MWD Tool Measurement Depth
ROPI.FT/HR                      : Rate of Penetration (Time Based)
KPOSI.FT                         : Kelly Position (Raw)
HKL I.KLBF                       : Hook Load (Raw)
SPP I.PSI                        : Standpipe Pressure (Raw)
PSPD.FT/MIN                     : Instantaneous Pipe Speed
VIBC.CPS                        : Vibration Count
VIBXYH.                           : Vibration XY
VIBZH.                           : Vibration Z
SSS_H.                           : Stick Slip Percentage from HDS1
SSL_H.                           : Stick Slip Level from HDS1
RPM_H.                           : Average RPM from HDS1
#     DEPT      ROPI     KPOSI     HKL I     SPP I      PSPD      VIBC    VIBXYH     VIBZH     SSS_H     SSL_H     RPM_H
#       FT     FT/HR        FT      KLBF       PSI    FT/MIN       CPS                                                  
#
# Relog Number     0         0         0         0         0         0         0         0         0         0         0
#
~ASCII Data
# ...
 2404.4000    135.49     91.50    195.89   1939.75   -999.25     25.11      2.00      2.00    135.46      3.00    123.97
 2404.6000    107.79     90.85    195.81   2001.84   -999.25     26.00      2.00      2.00    136.61      3.00    122.61
 2404.8000     48.52     90.19    194.65   1954.82   -999.25     26.00      2.00      2.00    137.77      3.00    121.33
 2405.0000     97.46     89.57    196.93   1923.33   -999.25     26.00      2.00      2.00    136.13      3.00    120.12
 2405.2000    102.92     88.88    196.29   1973.92   -999.25     24.10      2.00      2.00    133.80      3.00    118.91
 2405.4000     82.47     88.25    196.18   1963.31   -999.25     20.29      2.00      2.00    131.47      3.00    117.70
 2405.6000     36.06     87.60    197.12   1990.80   -999.25     18.00      2.00      2.00    131.00      3.00    116.48
 2405.8000     92.70     86.91    195.65   1974.74   -999.25     18.00      2.00      2.00    131.00      3.00    117.77
 2406.0000     68.05     86.28    196.65   1941.14   -999.25     15.60      2.00      2.00    131.28      3.00    120.72
 2406.2000     79.78     85.60    197.89   1910.56   -999.25     14.00      2.00      2.00    131.83      3.00    123.66
 2406.4000    107.52     84.94    198.41   1893.51   -999.25     14.00      2.00      2.00    130.44      3.00    126.61
 2406.6000    150.00     84.29    194.88   1927.50   -999.25     14.00      2.00      2.00    128.22      3.00    129.56
 2406.8000    114.88     83.66    195.70   1922.69   -999.25     14.00      2.00      2.00    126.00      3.00    127.47
 2407.0000     91.70     82.97    194.94   1932.15   -999.25     15.23      2.00      2.00    129.58      3.00    124.50
 2407.2000     56.00     82.35    193.99   1965.44   -999.25     15.39      2.00      2.00    133.16      3.00    121.52
 2407.4000     84.10     81.66    196.34   1976.98   -999.25     13.85      2.00      2.00    136.75      3.00    118.55
 2407.6000    177.00     81.00    195.80   1965.76   -999.25     12.31      2.00      2.00    137.39      3.00    115.57
 2407.8000     41.82     80.38    195.88   1973.26   -999.25     12.00      2.00      2.00    136.45      3.00    112.60
 2408.0000    111.30     79.69    196.73   1979.32   -999.25     12.00      2.00      2.00    135.52      3.00    113.98
 2408.2000    108.66     79.04    196.95   1950.70   -999.25     12.00      2.00      2.00    134.85      3.00    116.46
 2408.4000    117.07     78.38    198.68   2000.20   -999.25     12.00      2.00      2.00    134.52      3.00    118.94
 2408.6000    140.15     77.76    196.84   2031.71   -999.25     13.76      2.00      2.00    134.18      3.00    121.42
 2408.8000     78.15     77.08    197.79   1938.95   -999.25     15.71      2.00      2.00    131.80      3.00    123.89
 2409.0000     66.32     76.41    196.22   1971.99   -999.25     16.00      2.00      2.00    126.93      3.00    126.07
 2409.2000    101.93     75.75    197.03   1910.73   -999.25     16.00      2.00      2.00    124.00      3.00    126.52
 2409.4000     77.37     75.10    198.36   1951.91   -999.25     15.54      2.00      2.00    124.00      3.00    126.98
 2409.6000     70.51     74.44    196.97   1963.63   -999.25     14.40      2.00      2.00    124.30      3.00    127.43
 2409.8000     79.58     73.79    195.03   1982.14   -999.25     14.00      2.00      2.00    125.50      3.00    127.89
 2410.0000    104.15     73.15    196.59   1939.50   -999.25     14.31      2.00      2.00    126.70      3.00    128.00
 2410.2000     70.39     72.47    196.65   1999.14   -999.25     16.00      2.00      2.00    132.53      3.00    128.00
 2410.4000     67.26     71.83    196.27   1984.46   -999.25     15.65      2.00      2.00    134.00      3.00    128.00
 2410.6000     70.60     71.16    198.74   1989.34   -999.25     14.65      2.00      2.00    134.00      3.00    128.00
 2410.8000    109.05     70.51    198.15   1978.49   -999.25     14.00      2.00      2.00    130.57      3.00    128.00
 2411.0000     49.02     69.85    198.17   1930.51   -999.25     14.00      2.00      2.00    126.29      3.00    127.41
 2411.2000     91.28     69.22    197.20   1954.24   -999.25     14.00      2.00      2.00    125.79      3.00    126.22
 2411.4000    117.33     68.56    197.32   2010.71   -999.25     13.55      2.00      2.00    126.92      3.00    125.03
 2411.6000     85.20     67.88    197.65   1994.20   -999.25     12.64      2.00      2.00    128.02      3.00    123.84
 2411.8000     82.91     67.26    197.82   2004.91   -999.25     12.00      2.00      2.00    128.39      3.00    122.65
 2412.0000     91.24     66.57    197.89   1968.96   -999.25     12.00      2.00      2.00    128.76      3.00    122.00
 2412.2000     64.99     65.94    197.44   1962.58   -999.25     13.60      2.00      2.00    129.00      3.00    122.00
 2412.4000    103.16     65.27    197.50   1999.57   -999.25     16.00      2.00      2.00    129.00      3.00    122.00
 2412.6000     68.87     64.62    197.55   1992.75   -999.25     16.00      2.00      2.00    129.00      3.00    122.00
 2412.8000     66.66     63.94    197.88   1978.61   -999.25     15.56      2.00      2.00    128.02      3.00    122.00
 2413.0000     58.82     63.29    197.41   1983.68   -999.25     14.31      2.00      2.00    126.63      3.00    122.23
 2413.2000     81.03     62.65    198.87   1988.04   -999.25     14.00      2.00      2.00    126.26      3.00    122.69
 2413.4000     53.06     61.97    197.50   1995.06   -999.25     16.74      2.00      2.00    126.72      3.00    123.15
 2413.6000     80.60     61.34    198.29   2009.60   -999.25     21.32      2.00      2.00    127.00      3.00    123.61
 2413.8000     47.39     60.66    197.98   2015.78   -999.25     22.00      2.00      2.00    127.00      3.00    124.24
 2414.0000     91.12     60.01    198.74   1985.15   -999.25     22.00      2.00      2.00    126.62      3.00    125.82
 2414.2000     79.43     59.38    197.32   1993.56   -999.25     22.00      2.00      2.00    124.69      3.00    127.41
 2414.4000     77.00     58.70    197.12   1996.61   -999.25     17.12      2.00      2.00    122.77      3.00    128.99
 2414.6000     76.54     58.07    197.53   1992.35   -999.25     12.25      2.00      2.00    119.80      3.00    130.57
 2414.8000    101.47     57.38    198.13   1981.29   -999.25     12.00      2.00      2.00    116.12      3.00    131.82
 2415.0000    105.88     56.73    198.38   2010.10   -999.25     11.72      2.00      2.00    113.45      3.00    130.04
 2415.2000    107.34     56.07    199.97   1997.30   -999.25     10.34      2.00      2.00    116.43      3.00    128.25
 2415.4000    125.73     55.45    198.93   2048.28   -999.25     10.00      2.00      2.00    119.42      3.00    126.46
 2415.6000     77.54     54.78    197.31   2017.81   -999.25     10.00      2.00      2.00    122.40      3.00    124.68
 2415.8000     82.46     54.10    197.22   2026.58   -999.25     10.00      2.00      2.00    124.39      3.00    122.89
 2416.0000    140.39     53.44    197.32   1978.28   -999.25     10.00      2.00      2.00    126.13      3.00    122.22
 2416.2000     66.24     52.79    198.08   2017.80   -999.25     10.00      2.00      2.00    126.57      3.00    122.67
 2416.4000     79.09     52.14    198.10   2014.03   -999.25     10.00      2.00      2.00    125.72      3.00    123.11
 2416.6000     69.21     51.50    198.01   2009.69   -999.25     10.00      2.00      2.00    125.00      3.00    123.56
 2416.8000     67.55     50.82    198.46   2006.79   -999.25     10.84      2.00      2.00    125.00      3.00    124.00
 2417.0000     82.18     50.16    198.17   1986.24   -999.25     12.00      2.00      2.00    125.00      3.00    124.00
 2417.2000     86.71     49.53    198.28   2004.73   -999.25     12.00      2.00      2.00    125.00      3.00    124.00
 2417.4000     67.41     48.87    198.46   1989.94   -999.25     12.00      2.00      2.00    125.00      3.00    124.00
 2417.6000     48.12     48.20    198.64   2009.00   -999.25     12.00      2.00      2.00    125.00      3.00    124.00
