~Version Information
VERS.                       2.00: SCHLUMBERGER LAS - Version 2.00
WRAP.                         NO: One line per depth step
~Well Information
STRT.FT                1138.0000: Start Depth
STOP.FT                2257.0000: End Depth
STEP.FT                   0.2000:  
NULL.                    -999.25:  
COMP.                    BAPETCO: COMPANY
WELL.                BED 3 C18-M: WELL
FLD .                   BED AREA: FLD
SRVC.               Schlumberger: SERVICE COMPANY
LOC .                           : LOCATION
DATE.                  19-Sep-19: LOG DATE
UWI .                  19EGP0321: API NUMBER
~Curve Information
DEPT.FT                         : MWD Tool Measurement Depth
ROPI.FT/HR                      : Rate of Penetration (Time Based)
KPOSI.FT                         : Kelly Position (Raw)
HKL I.KLBF                       : Hook Load (Raw)
SPP I.PSI                        : Standpipe Pressure (Raw)
PSPD.FT/MIN                     : Instantaneous Pipe Speed
VIBC.CPS                        : Vibration Count
VIBXYH.                           : Vibration XY
VIBZH.                           : Vibration Z
SSS_H.                           : Stick Slip Percentage from HDS1
SSL_H.                           : Stick Slip Level from HDS1
RPM_H.                           : Average RPM from HDS1
#     DEPT      ROPI     KPOSI     HKL I     SPP I      PSPD      VIBC    VIBXYH     VIBZH     SSS_H     SSL_H     RPM_H
#       FT     FT/HR        FT      KLBF       PSI    FT/MIN       CPS                                                  
#
# Relog Number     0         0         0         0         0         0         0         0         0         0         0
#
~ASCII Data
# ...
 1888.4000    115.52     31.63    184.07   2368.37   -999.25    291.82   -999.25   -999.25   -999.25   -999.25   -999.25
 1888.6000    112.75     30.97    185.06   2390.70   -999.25    345.56   -999.25   -999.25   -999.25   -999.25   -999.25
 1888.8000     79.99     30.35    183.98   2353.48   -999.25    186.20   -999.25   -999.25   -999.25   -999.25   -999.25
 1889.0000     74.59     29.66    184.87   2348.25   -999.25    258.92   -999.25   -999.25   -999.25   -999.25   -999.25
 1889.2000    106.44     29.00    184.06   2338.28   -999.25     51.48   -999.25   -999.25   -999.25   -999.25   -999.25
 1889.4000    134.95     28.35    182.50   2378.16   -999.25     41.05   -999.25   -999.25   -999.25   -999.25   -999.25
 1889.6000     86.19     27.69    183.54   2334.74   -999.25     74.47   -999.25   -999.25   -999.25   -999.25   -999.25
 1889.8000    118.95     27.04    181.50   2343.51   -999.25    446.59   -999.25   -999.25   -999.25   -999.25   -999.25
 1890.0000    121.69     26.40    182.18   2325.46   -999.25    228.86   -999.25   -999.25   -999.25   -999.25   -999.25
 1890.2000    122.33     25.75    180.10   2378.58   -999.25    245.99   -999.25   -999.25   -999.25   -999.25   -999.25
 1890.4000     42.14     25.07    186.27   2373.58   -999.25    207.20   -999.25   -999.25   -999.25   -999.25   -999.25
 1890.6000    116.22     24.41    182.09   2334.64   -999.25    320.80   -999.25   -999.25   -999.25   -999.25   -999.25
 1890.8000    114.96     23.75    181.83   2352.22   -999.25     25.21   -999.25   -999.25   -999.25   -999.25   -999.25
 1891.0000    120.53     23.10    181.16   2329.15   -999.25     84.44   -999.25   -999.25   -999.25   -999.25   -999.25
 1891.2000    115.36     22.45    183.99   2356.90   -999.25    183.99   -999.25   -999.25   -999.25   -999.25   -999.25
 1891.4000    135.91     21.82    182.53   2333.25   -999.25    150.45   -999.25   -999.25   -999.25   -999.25   -999.25
 1891.6000    129.61     21.13    183.40   2340.58   -999.25    157.20   -999.25   -999.25   -999.25   -999.25   -999.25
 1891.8000    143.68     20.47    183.43   2327.22   -999.25     15.03   -999.25   -999.25   -999.25   -999.25   -999.25
 1892.0000    119.67     19.82    183.19   2343.33   -999.25    135.64   -999.25   -999.25   -999.25   -999.25   -999.25
 1892.2000    140.66     19.17    182.59   2303.31   -999.25    268.37   -999.25   -999.25   -999.25   -999.25   -999.25
 1892.4000    138.69     18.54    178.98   2372.98   -999.25    450.22   -999.25   -999.25   -999.25   -999.25   -999.25
 1892.6000    122.47     17.88    183.37   2344.46   -999.25    156.77   -999.25   -999.25   -999.25   -999.25   -999.25
 1892.8000    110.43     17.19    182.59   2393.00   -999.25     46.45   -999.25   -999.25   -999.25   -999.25   -999.25
 1893.0000    105.54     16.57    179.59   2351.94   -999.25     42.94   -999.25   -999.25   -999.25   -999.25   -999.25
 1893.2000    106.52     15.88    180.12   2417.96   -999.25     26.24   -999.25   -999.25   -999.25   -999.25   -999.25
 1893.4000     67.39     15.24    186.02   2403.68   -999.25     49.49   -999.25   -999.25   -999.25   -999.25   -999.25
 1893.6000    105.22     14.57    183.54   2407.04   -999.25    132.51   -999.25   -999.25   -999.25   -999.25   -999.25
 1893.8000     90.00     13.91    183.54   2390.85   -999.25     68.60   -999.25   -999.25   -999.25   -999.25   -999.25
 1894.0000     85.35     13.29    180.98   2424.29   -999.25      5.60   -999.25   -999.25   -999.25   -999.25   -999.25
 1894.2000     94.18     12.63    184.98   2414.19   -999.25    300.17   -999.25   -999.25   -999.25   -999.25   -999.25
 1894.4000     90.87     11.94    183.83   2441.38   -999.25    186.69   -999.25   -999.25   -999.25   -999.25   -999.25
 1894.6000     67.95     11.31    181.60   2394.31   -999.25    197.46   -999.25   -999.25   -999.25   -999.25   -999.25
 1894.8000     85.21     10.65    184.63   2384.62   -999.25     78.19   -999.25   -999.25   -999.25   -999.25   -999.25
 1895.0000     84.69      9.97    184.34   2351.02   -999.25    120.05   -999.25   -999.25   -999.25   -999.25   -999.25
 1895.2000    139.59      9.34    184.81   2310.86   -999.25    121.11   -999.25   -999.25   -999.25   -999.25   -999.25
 1895.4000    139.01      8.68    184.53   2285.29   -999.25    182.47   -999.25   -999.25   -999.25   -999.25   -999.25
 1895.6000    149.01      8.01    184.38   2292.67   -999.25    298.29   -999.25   -999.25   -999.25   -999.25   -999.25
 1895.8000    136.38      7.37    182.83   2266.37   -999.25    176.00   -999.25   -999.25   -999.25   -999.25   -999.25
 1896.0000     16.84      6.69    195.13   2241.02   -999.25    281.27   -999.25   -999.25   -999.25   -999.25   -999.25
 1896.2000    141.64      6.04    191.09   2201.87   -999.25     83.19   -999.25   -999.25   -999.25   -999.25   -999.25
 1896.4000    144.58      5.38    189.11   2282.94   -999.25    335.98   -999.25   -999.25   -999.25   -999.25   -999.25
 1896.6000    225.79     99.05    193.85   2348.92   -999.25    284.00   -999.25   -999.25   -999.25   -999.25   -999.25
 1896.8000     35.80     98.40    192.22   2343.78   -999.25    312.57   -999.25   -999.25   -999.25   -999.25   -999.25
 1897.0000    292.26     97.75    186.33   2320.15   -999.25    341.14   -999.25   -999.25   -999.25   -999.25   -999.25
 1897.2000    114.29     97.11    185.27   2329.70   -999.25    344.00   -999.25   -999.25   -999.25   -999.25   -999.25
 1897.4000      2.62     96.44    186.31   2317.64   -999.25    344.00      9.50      4.00   -999.25   -999.25   -999.25
 1897.6000    149.70     95.77    189.55   2303.31   -999.25    344.00      9.11      3.74     30.87      0.00   -999.25
 1897.8000    173.53     95.12    184.13   2310.10   -999.25    342.98      8.33      3.22     28.37      0.00   -999.25
 1898.0000      0.00     94.49    187.24   2340.68   -999.25    322.57      7.55      2.70     25.87      0.00    119.91
 1898.2000    144.52     93.81    186.19   2289.30   -999.25    302.17      6.77      2.18     23.38      0.00    119.04
 1898.4000    218.67     93.18    185.39   2282.23   -999.25    294.00      6.50      2.00     21.03      0.00    118.16
 1898.6000    209.00     92.50    186.20   2294.86   -999.25    294.00      6.55      2.00     21.70      0.00    117.29
 1898.8000     21.48     91.86    184.73   2290.91   -999.25    291.94      7.48      2.00     22.37      0.00    116.42
 1899.0000     66.99     91.21    187.66   2327.08   -999.25    278.23      8.42      2.00     23.03      0.00    115.54
 1899.2000    140.51     90.55    183.68   2313.67   -999.25    264.51      9.36      2.00     23.70      0.00    114.67
 1899.4000    126.51     89.87    184.30   2346.94   -999.25    250.80      8.85      2.00     24.00      0.00    113.79
 1899.6000     73.73     89.21    186.98   2326.13   -999.25    246.00      8.08      2.00     24.00      0.00    112.92
 1899.8000    148.30     88.58    183.98   2296.59   -999.25    246.00      7.31      2.00     24.00      0.00    112.04
 1900.0000    151.82     87.89    185.11   2335.79   -999.25    246.00      6.54      2.00     24.00      0.00    112.00
 1900.2000    121.70     87.27    186.10   2309.12   -999.25    246.00      6.50      2.00     24.12      0.00    112.00
 1900.4000    153.47     86.58    183.04   2286.59   -999.25    246.00      6.50      2.18     24.41      0.00    112.00
 1900.6000    153.06     85.93    184.78   2297.63   -999.25    246.53      6.50      3.07     24.70      0.00    112.00
 1900.8000    127.75     85.30    185.08   2308.43   -999.25    247.28      6.50      3.96     24.99      0.00    112.00
 1901.0000    186.57     84.64    187.65   2337.43   -999.25    248.00      6.50      3.33     23.83      0.00    112.00
 1901.2000     35.15     83.96    184.32   2330.35   -999.25    248.00      6.50      2.63     22.60      0.00    112.00
 1901.4000     89.84     83.30    184.14   2282.09   -999.25    248.00      6.28      2.00     21.37      0.00    113.88
 1901.6000    103.09     82.64    184.11   2316.25   -999.25    260.41      4.11      2.00     20.76      0.00    115.86
