~Version Information
VERS.                       2.00: SCHLUMBERGER LAS - Version 2.00
WRAP.                         NO: One line per depth step
~Well Information
STRT.FT                2257.0000: Start Depth
STOP.FT                3002.0000: End Depth
STEP.FT                   0.2000:  
NULL.                    -999.25:  
COMP.                    BAPETCO: COMPANY
WELL.                BED 3 C18-M: WELL
FLD .                   BED AREA: FLD
SRVC.               Schlumberger: SERVICE COMPANY
LOC .                           : LOCATION
DATE.                  21-Sep-19: LOG DATE
UWI .                  19EGP0321: API NUMBER
~Curve Information
DEPT.FT                         : MWD Tool Measurement Depth
ROPI.FT/HR                      : Rate of Penetration (Time Based)
KPOSI.FT                         : Kelly Position (Raw)
HKL I.KLBF                       : Hook Load (Raw)
SPP I.PSI                        : Standpipe Pressure (Raw)
PSPD.FT/MIN                     : Instantaneous Pipe Speed
VIBC.CPS                        : Vibration Count
VIBXYH.                           : Vibration XY
VIBZH.                           : Vibration Z
SSS_H.                           : Stick Slip Percentage from HDS1
SSL_H.                           : Stick Slip Level from HDS1
RPM_H.                           : Average RPM from HDS1
#     DEPT      ROPI     KPOSI     HKL I     SPP I      PSPD      VIBC    VIBXYH     VIBZH     SSS_H     SSL_H     RPM_H
#       FT     FT/HR        FT      KLBF       PSI    FT/MIN       CPS                                                  
#
# Relog Number     0         0         0         0         0         0         0         0         0         0         0
#
~ASCII Data
# ...
 2645.6000      1.22     61.42    208.71   2242.23   -999.25      6.00      2.00      2.00     49.75      0.88    139.38
 2645.8000    135.95     60.79    208.00   2263.86   -999.25      6.00      2.00      2.00     38.50      0.25    138.84
 2646.0000     54.21     60.10    208.05   2269.79   -999.25      6.00      2.00      2.00     29.20      0.00    138.30
 2646.2000    110.21     59.48    207.88   2272.83   -999.25      6.00      2.00      2.00     23.69      0.00    138.00
 2646.4000      0.00     58.83    208.14   2331.77   -999.25      6.00      2.00      2.00     38.00      0.00    138.00
 2646.6000     38.73     58.15    208.48   2278.92   -999.25      6.00      2.00      2.00     38.00      0.00    138.00
 2646.8000    129.98     57.48    207.53   2304.11   -999.25      6.00      2.00      2.00     39.03      0.26    138.00
 2647.0000      0.00     56.82    207.96   2288.25   -999.25      6.00      2.00      2.00     41.31      0.83    137.92
 2647.2000      0.12     56.17    207.96   2294.34   -999.25      6.00      2.00      2.00     42.00      1.00    137.37
 2647.4000     64.43     55.51    207.39   2348.87   -999.25      5.18      2.00      2.00     42.00      1.00    136.82
 2647.6000     45.25     54.86    207.86   2290.79   -999.25      4.00      2.00      2.00     41.35      0.68    136.27
 2647.8000    133.77     54.20    207.20   2328.49   -999.25      4.00      2.00      2.00     40.35      0.18    136.00
 2648.0000    234.14     53.54    207.20   2268.74   -999.25      4.00      2.00      2.00     40.00      0.00    136.00
 2648.2000      0.37     52.89    207.39   2306.64   -999.25      4.00      2.00      2.00     40.00      0.00    136.00
 2648.4000      0.68     52.23    208.71   2279.86   -999.25      5.16      2.00      2.00     40.00      0.00    136.39
 2648.6000     75.74     51.58    206.82   2342.86   -999.25      6.00      2.00      2.00     40.00      0.00    137.70
 2648.8000    115.34     50.92    205.33   2281.72   -999.25     10.20      2.00      2.00     40.00      0.00    139.02
 2649.0000     78.43     50.26    203.40   2335.45   -999.25     12.00      2.00      2.00     39.29      0.00    140.00
 2649.2000     49.22     49.61    203.05   2304.68   -999.25     12.40      2.00      2.00     34.48      0.00    140.00
 2649.4000     24.25     48.95    203.96   2292.99   -999.25     14.00      2.00      2.00     31.38      0.00    140.00
 2649.6000     25.15     48.31    202.92   2270.28   -999.25     14.75      2.00      2.00     32.32      0.00    139.15
 2649.8000     85.86     47.64    202.35   2264.67   -999.25     16.00      2.00      2.00     33.95      0.00    138.08
 2650.0000     55.75     46.98    201.27   2301.64   -999.25     16.00      2.00      2.00     35.33      0.00    137.01
 2650.2000     66.65     46.35    199.80   2314.23   -999.25     16.00      2.00      2.00     36.29      0.00    135.71
 2650.4000     73.98     45.68    199.31   2305.04   -999.25     19.50      2.00      2.00     44.63      0.28    130.00
 2650.6000    106.45     45.01    198.29   2271.20   -999.25     30.00      2.00      2.00     75.21      1.42    124.29
 2650.8000     80.01     44.38    200.62   2284.97   -999.25     30.00      2.00      2.00    105.79      2.55    118.57
 2651.0000     40.95     43.73    203.68   2300.12   -999.25     27.77      2.00      2.00    119.50      3.00    112.86
 2651.2000    103.61     43.04    206.22   2291.51   -999.25     12.92      2.00      2.00    122.00      3.00    112.41
 2651.4000     78.70     42.41    207.34   2308.34   -999.25      4.00      2.00      2.00    122.76      3.00    117.22
 2651.6000     83.88     41.74    209.62   2323.47   -999.25      4.31      2.00      2.00    116.54      3.00    122.04
 2651.8000    111.44     41.11    206.96   2322.25   -999.25      5.33      2.00      2.00    110.31      3.00    126.85
 2652.0000     98.39     40.45    205.26   2299.18   -999.25      6.00      2.00      2.00     79.68      1.90    131.67
 2652.2000     66.26     39.76    205.30   2308.68   -999.25      6.00      2.00      2.00     47.76      0.75    135.96
 2652.4000     86.07     39.13    202.94   2263.98   -999.25      6.00      2.00      2.00     26.46      0.00    135.58
 2652.6000     37.91     38.45    199.70   2321.23   -999.25      8.00      2.00      2.00     24.87      0.00    135.20
 2652.8000     79.85     37.80    198.91   2290.34   -999.25     10.00      2.00      2.00     22.31      0.00    134.82
 2653.0000     34.60     37.17    208.43   2264.84   -999.25     10.00      2.00      2.00     20.63      0.00    134.44
 2653.2000     71.11     36.50    209.63   2301.13   -999.25      7.56      2.00      2.00     26.98      0.00    134.06
 2653.4000     47.80     35.86    210.04   2325.94   -999.25      4.00      2.00      2.00     32.91      0.00    134.81
 2653.6000     85.67     35.17    208.72   2286.75   -999.25      4.11      2.00      2.00     31.13      0.00    135.76
 2653.8000     51.71     34.55    209.54   2326.90   -999.25      5.26      2.00      2.00     29.36      0.00    136.71
 2654.0000     55.17     33.88    209.51   2309.22   -999.25      6.00      2.00      2.00     25.31      0.00    137.67
 2654.2000     65.17     33.20    209.00   2318.99   -999.25      6.00      2.00      2.00     20.69      0.00    138.00
 2654.4000     76.92     32.58    209.98   2302.09   -999.25      6.00      2.00      2.00     22.65      0.00    138.00
 2654.6000     62.82     31.91    209.52   2288.56   -999.25      5.00      2.00      2.00     25.76      0.00    138.00
 2654.8000     56.14     31.23    209.98   2317.98   -999.25      4.00      2.00      2.00     24.95      0.00    138.00
 2655.0000     44.98     30.58    210.04   2305.49   -999.25      4.00      2.00      2.00     21.54      0.00    138.00
 2655.2000     64.55     29.92    209.47   2293.43   -999.25      4.00      2.00      2.00     20.23      0.00    138.00
 2655.4000     80.31     29.29    209.26   2317.38   -999.25      4.00      2.00      2.00     20.66      0.00    138.00
 2655.6000     75.52     28.62    209.38   2310.55   -999.25      4.00      2.00      2.00     22.16      0.00    138.00
 2655.8000     55.17     27.95    208.91   2309.05   -999.25      5.07      2.00      2.00     27.95      0.00    138.00
 2656.0000     57.09     27.30    208.94   2276.70   -999.25      6.00      2.00      2.00     31.41      0.00    138.00
 2656.2000     61.67     26.67    208.94   2326.37   -999.25      6.38      2.00      2.00     29.46      0.00    138.00
 2656.4000     57.41     25.98    209.00   2302.05   -999.25      7.63      2.00      2.00     27.36      0.00    138.00
 2656.6000     73.75     25.35    209.16   2296.24   -999.25      8.00      2.00      2.00     24.80      0.00    137.96
 2656.8000     70.39     24.67    209.29   2269.11   -999.25      8.00      2.00      2.00     23.00      0.00    137.53
 2657.0000     89.01     24.02    209.85   2323.61   -999.25      7.83      2.00      2.00     23.00      0.00    137.10
 2657.2000     94.56     23.39    209.48   2313.64   -999.25      6.72      2.00      2.00     23.00      0.00    136.67
 2657.4000     71.56     22.70    208.91   2288.44   -999.25      6.00      2.00      2.00     21.11      0.00    136.24
 2657.6000     55.87     22.05    209.95   2263.28   -999.25      6.00      2.00      2.00     17.95      0.00    136.19
 2657.8000    109.53     21.39    208.24   2329.83   -999.25      6.00      2.00      2.00     17.82      0.00    136.61
 2658.0000    102.54     20.76    206.85   2335.26   -999.25      6.00      2.00      2.00     19.00      0.00    137.03
 2658.2000     84.50     20.08    204.68   2271.31   -999.25      6.00      2.00      2.00     20.78      0.00    137.45
 2658.4000     71.55     19.45    204.06   2294.06   -999.25      6.00      2.00      2.00     26.00      0.00    137.87
 2658.6000     61.66     18.77    206.90   2297.78   -999.25      6.00      2.00      2.00     31.22      0.00    137.74
 2658.8000     90.54     18.14    207.34   2320.43   -999.25      4.64      2.00      2.00     33.52      0.00    137.36
