~Version Information
VERS.                       2.00: SCHLUMBERGER LAS - Version 2.00
WRAP.                         NO: One line per depth step
~Well Information
STRT.FT                1138.0000: Start Depth
STOP.FT                2257.0000: End Depth
STEP.FT                   0.2000:  
NULL.                    -999.25:  
COMP.                    BAPETCO: COMPANY
WELL.                BED 3 C18-M: WELL
FLD .                   BED AREA: FLD
SRVC.               Schlumberger: SERVICE COMPANY
LOC .                           : LOCATION
DATE.                  19-Sep-19: LOG DATE
UWI .                  19EGP0321: API NUMBER
~Curve Information
DEPT.FT                         : MWD Tool Measurement Depth
ROPI.FT/HR                      : Rate of Penetration (Time Based)
KPOSI.FT                         : Kelly Position (Raw)
HKL I.KLBF                       : Hook Load (Raw)
SPP I.PSI                        : Standpipe Pressure (Raw)
PSPD.FT/MIN                     : Instantaneous Pipe Speed
VIBC.CPS                        : Vibration Count
VIBXYH.                           : Vibration XY
VIBZH.                           : Vibration Z
SSS_H.                           : Stick Slip Percentage from HDS1
SSL_H.                           : Stick Slip Level from HDS1
RPM_H.                           : Average RPM from HDS1
#     DEPT      ROPI     KPOSI     HKL I     SPP I      PSPD      VIBC    VIBXYH     VIBZH     SSS_H     SSL_H     RPM_H
#       FT     FT/HR        FT      KLBF       PSI    FT/MIN       CPS                                                  
#
# Relog Number     0         0         0         0         0         0         0         0         0         0         0
#
~ASCII Data
# ...
 1432.8000    208.59      4.13    172.39   2244.80   -999.25    276.00      9.50      4.00      7.24      0.00     96.68
 1433.0000    262.35      3.49    168.96   2273.91   -999.25    278.15      9.50      4.00      7.38      0.00     95.92
 1433.2000    232.22      2.82    168.09   2270.13   -999.25    281.73      9.50      4.00      8.46      0.00     95.17
 1433.4000    212.61      2.18    167.58   2267.54   -999.25    285.31      9.50      4.00      9.54      0.00     94.42
 1433.6000    179.19      1.54    172.37   2287.95   -999.25    259.00      9.50      4.00     10.62      0.00     93.66
 1433.8000    199.77      0.85    171.40   2297.76   -999.25    142.88      9.50      4.00     11.70      0.00     92.91
 1434.0000    150.40      0.20    172.99   2259.13   -999.25     50.00      9.50      4.00     12.78      0.00     92.15
 1434.2000    242.24     93.11    180.52   2276.06   -999.25     50.00      6.71      3.26     15.50      0.00     94.04
 1434.4000    208.41     92.45    178.68   2221.94   -999.25     50.00      3.22      2.33     18.62      0.00     96.60
 1434.6000    252.76     91.80    174.61   2266.51   -999.25     50.00      3.10      2.49     21.75      0.00     99.15
 1434.8000    153.06     91.14    173.79   2302.96   -999.25    133.87      4.80      3.25     24.87      0.00    101.70
 1435.0000      8.65     90.49    181.64   2201.65   -999.25    238.71      6.50      4.00     28.00      0.00    104.26
 1435.2000    224.31     89.83    179.72   2277.88   -999.25    343.55      7.26      4.00     23.78      0.00    106.81
 1435.4000    223.13     89.17    175.54   2216.43   -999.25    396.00      8.02      4.00     19.56      0.00    109.36
 1435.6000    166.80     88.52    173.86   2156.95   -999.25    396.00      8.78      4.00     15.33      0.00    109.31
 1435.8000    180.09     87.86    171.21   2015.78   -999.25    396.00      9.43      4.00     11.11      0.00    108.38
 1436.0000    188.87     87.20    171.76   1947.59   -999.25    396.00      8.00      4.00      9.27      0.00    107.45
 1436.2000    183.82     86.55    171.42   1847.44   -999.25    396.00      6.57      4.00      9.80      0.00    106.53
 1436.4000    177.73     85.89    171.12   1932.97   -999.25    396.00      7.35      4.00     10.34      0.00    105.60
 1436.6000    107.29     85.24    173.37   1954.72   -999.25    372.10      8.25      4.00     10.87      0.00    104.68
 1436.8000    159.37     84.58    171.47   2029.48   -999.25    348.19      9.14      4.00     11.41      0.00    103.75
 1437.0000    184.84     83.92    170.34   2086.78   -999.25    324.29      9.08      4.00     11.95      0.00    102.82
 1437.2000    189.23     83.27    173.71   2241.08   -999.25    300.39      8.38      4.00     11.35      0.00    101.90
 1437.4000    184.91     82.61    174.87   2298.56   -999.25    298.00      7.69      4.00     10.63      0.00    100.97
 1437.6000    161.02     81.96    171.28   2290.70   -999.25    298.00      6.99      4.00      9.90      0.00    100.05
 1437.8000    119.27     81.30    177.27   2260.04   -999.25    298.00      6.50      3.75      9.18      0.00     99.30
 1438.0000    265.89     80.64    171.66   2335.16   -999.25    296.23      6.50      2.92      9.44      0.00     98.56
 1438.2000    145.47     79.99    173.22   2282.88   -999.25    292.30      6.50      2.08     10.04      0.00     97.81
 1438.4000    244.94     79.33    173.60   2270.06   -999.25    288.36      6.50      2.43     10.63      0.00     97.07
 1438.6000    245.51     78.67    168.65   2305.62   -999.25    286.00      6.50      2.90     11.22      0.00     96.33
 1438.8000    216.85     78.02    167.67   2293.84   -999.25    286.00      6.50      3.38     11.81      0.00     95.59
 1439.0000     98.33     77.36    173.69   2232.67   -999.25    286.00      6.50      3.86     12.41      0.00     94.85
 1439.2000    181.43     76.71    171.93   2227.55   -999.25    286.00      6.91      4.00     13.00      0.00     94.11
 1439.4000    125.89     76.05    172.40   2284.51   -999.25    286.00      7.49      4.00     11.94      0.00     93.37
 1439.6000    302.60     75.39    171.98   2280.92   -999.25    286.00      8.07      4.00     10.87      0.00     92.63
 1439.8000     84.71     74.75    171.11   2251.73   -999.25    286.00      8.66      4.00      9.81      0.00     92.11
 1440.0000    185.07     74.08    174.42   2266.34   -999.25    286.00      9.24      4.00      8.74      0.00     92.86
 1440.2000    100.14     73.45    173.30   2300.51   -999.25    282.86      8.56      4.00      8.21      0.00     93.61
 1440.4000    171.88     72.79    171.71   2262.05   -999.25    277.14      6.84      4.00      8.90      0.00     94.37
 1440.6000    150.02     72.11    172.47   2285.00   -999.25    271.43      7.15      4.00      9.60      0.00     95.12
 1440.8000    206.89     71.46    171.31   2277.05   -999.25    270.34      7.96      4.00     10.30      0.00     95.87
 1441.0000    202.40     70.80    172.70   2292.11   -999.25    270.79      8.77      4.00     10.99      0.00     96.62
 1441.2000    178.28     70.16    170.39   2249.78   -999.25    271.24      9.44      3.96     11.69      0.00     97.37
 1441.4000    197.96     69.49    172.14   2254.24   -999.25    271.69      8.87      3.58     11.69      0.00     98.12
 1441.6000    264.69     68.83    167.77   2252.25   -999.25    272.00      8.29      3.19     11.11      0.00     98.87
 1441.8000     96.41     68.18    173.71   2270.35   -999.25    272.00      7.71      2.81     10.54      0.00     99.62
 1442.0000    226.52     67.53    174.23   2299.55   -999.25    272.00      7.13      2.42      9.97      0.00    100.00
 1442.2000    209.55     66.86    173.93   2258.20   -999.25    272.00      6.56      2.04      9.40      0.00    100.00
 1442.4000    120.25     66.21    175.56   2328.55   -999.25    272.00      6.50      2.00      9.05      0.00    100.00
 1442.6000    135.33     65.55    173.83   2278.93   -999.25    272.00      6.50      2.00      9.23      0.00    100.00
 1442.8000    176.90     64.89    171.80   2263.77   -999.25    272.00      6.50      2.00      9.41      0.00    100.00
 1443.0000     94.15     64.24    172.62   2294.68   -999.25    267.61      6.50      2.00      9.59      0.00    100.00
 1443.2000    208.57     63.58    172.21   2242.00   -999.25    263.21      6.50      2.00      9.77      0.00    100.00
 1443.4000    184.63     62.93    172.80   2233.36   -999.25    258.81      6.73      2.00      9.95      0.00    100.00
 1443.6000    172.10     62.27    174.10   2276.66   -999.25    254.42      7.25      2.00      9.59      0.00    100.00
 1443.8000    241.93     61.61    171.38   2296.14   -999.25    252.00      7.77      2.00      9.05      0.00    100.00
 1444.0000    226.21     60.96    172.76   2277.52   -999.25    252.00      8.28      2.00      8.51      0.00    100.00
 1444.2000    209.91     60.31    171.20   2276.38   -999.25    252.00      8.80      2.00      7.97      0.00    100.00
 1444.4000    221.14     59.65    169.48   2297.48   -999.25    252.00      9.32      2.00      7.43      0.00    100.00
 1444.6000    168.57     59.02    169.76   2224.61   -999.25    254.88      8.69      2.00      7.10      0.00    100.00
 1444.8000    196.57     58.33    172.24   2248.84   -999.25    262.10      7.44      2.00      7.60      0.00    100.00
 1445.0000    193.57     57.68    171.69   2240.78   -999.25    269.31      6.50      2.00      8.11      0.00    100.00
 1445.2000    190.88     57.02    170.33   2283.24   -999.25    274.00      6.50      2.00      8.61      0.00    100.00
 1445.4000    164.38     56.36    170.10   2277.96   -999.25    274.00      6.50      2.00      9.12      0.00    100.00
 1445.6000    108.62     55.71    173.76   2229.47   -999.25    274.00      6.50      2.00      9.62      0.00    100.00
 1445.8000    238.54     55.05    170.50   2271.80   -999.25    274.00      6.50      2.00     10.00      0.00    100.00
 1446.0000    153.57     54.40    172.10   2236.13   -999.25    274.00      6.50      2.00     10.00      0.00    100.00
