~Version Information
VERS.                       2.00: SCHLUMBERGER LAS - Version 2.00
WRAP.                         NO: One line per depth step
~Well Information
STRT.FT                1138.0000: Start Depth
STOP.FT                2257.0000: End Depth
STEP.FT                   0.2000:  
NULL.                    -999.25:  
COMP.                    BAPETCO: COMPANY
WELL.                BED 3 C18-M: WELL
FLD .                   BED AREA: FLD
SRVC.               Schlumberger: SERVICE COMPANY
LOC .                           : LOCATION
DATE.                  19-Sep-19: LOG DATE
UWI .                  19EGP0321: API NUMBER
~Curve Information
DEPT.FT                         : MWD Tool Measurement Depth
ROPI.FT/HR                      : Rate of Penetration (Time Based)
KPOSI.FT                         : Kelly Position (Raw)
HKL I.KLBF                       : Hook Load (Raw)
SPP I.PSI                        : Standpipe Pressure (Raw)
PSPD.FT/MIN                     : Instantaneous Pipe Speed
VIBC.CPS                        : Vibration Count
VIBXYH.                           : Vibration XY
VIBZH.                           : Vibration Z
SSS_H.                           : Stick Slip Percentage from HDS1
SSL_H.                           : Stick Slip Level from HDS1
RPM_H.                           : Average RPM from HDS1
#     DEPT      ROPI     KPOSI     HKL I     SPP I      PSPD      VIBC    VIBXYH     VIBZH     SSS_H     SSL_H     RPM_H
#       FT     FT/HR        FT      KLBF       PSI    FT/MIN       CPS                                                  
#
# Relog Number     0         0         0         0         0         0         0         0         0         0         0
#
~ASCII Data
# ...
 1955.4000     36.13     96.69    185.73   1551.19   -999.25    270.00      6.50      2.00     42.00      1.00    130.09
 1955.6000    119.49     96.03    185.93   1552.23   -999.25    270.00      6.50      2.00     42.72      1.00    127.36
 1955.8000     85.41     95.37    184.12   1554.43   -999.25    264.33      6.50      2.00     43.57      1.00    124.64
 1956.0000    100.92     94.75    183.16   1574.60   -999.25    256.76      6.50      2.00     44.00      1.00    121.91
 1956.2000     93.84     94.09    186.59   1551.80   -999.25    256.00      6.50      2.00     44.00      1.00    119.51
 1956.4000     39.64     93.41    188.48   1567.10   -999.25    137.44      6.50      2.00     76.70      1.58    117.89
 1956.6000    151.57     92.75    187.37   1557.04   -999.25     62.00      6.50      2.00    136.17      2.63    116.27
 1956.8000    117.34     92.12    188.23   1544.70   -999.25     85.27      6.50      2.00    157.00      3.00    114.65
 1957.0000    152.83     91.44    187.62   1556.90   -999.25    190.00      6.50      2.00    157.00      3.00    118.40
 1957.2000    124.58     90.81    188.25   1574.96   -999.25    202.49      6.50      2.00    115.35      2.27    125.73
 1957.4000     51.60     90.12    191.70   1547.24   -999.25    252.49      6.50      2.00     70.85      1.21    133.07
 1957.6000    206.68     89.50    186.93   1542.76   -999.25    260.00      6.50      2.00     26.00      0.00    136.41
 1957.8000     79.61     88.85    187.86   1569.35   -999.25    261.60      6.50      2.00     33.22      0.00    137.10
 1958.0000     87.95     88.17    186.20   1534.73   -999.25    276.00      6.50      2.00     37.88      0.00    137.79
 1958.2000    115.83     87.51    186.25   1518.27   -999.25    273.50      6.50      2.00     32.28      0.00    137.20
 1958.4000     75.96     86.88    189.21   1566.64   -999.25    266.00      6.50      2.00     36.61      0.00    136.06
 1958.6000     86.38     86.22    189.21   1550.57   -999.25    266.00      7.10      2.00     43.00      0.18    134.91
 1958.8000     71.14     85.56    188.31   1534.93   -999.25    266.00      8.81      2.00     53.00      0.76    132.45
 1959.0000     72.23     84.91    188.91   1537.36   -999.25    246.00      7.25      2.00     56.09      1.00    124.73
 1959.2000     77.71     84.24    187.88   1533.65   -999.25    226.00      6.50      2.00     54.59      1.00    117.00
 1959.4000    131.51     83.58    187.47   1536.96   -999.25    226.00      6.50      2.00     53.08      1.00    109.27
 1959.6000    157.94     82.92    187.98   1539.38   -999.25    153.27      6.50      2.00    102.93      1.88    101.55
 1959.8000     78.01     82.27    188.29   1521.49   -999.25     32.09      6.50      2.00    155.50      2.81    105.03
 1960.0000    121.19     81.63    188.45   1527.07   -999.25     20.00      6.50      2.00    166.00      3.00    111.33
 1960.2000    143.39     80.97    185.68   1575.18   -999.25     69.99      6.50      2.00    186.67      3.00    117.62
 1960.4000    127.44     80.29    188.04   1540.26   -999.25    212.83      6.50      2.00    211.00      3.00    123.91
 1960.6000    153.85     79.63    188.64   1526.43   -999.25    220.00      6.50      2.00    104.13      2.64    129.32
 1960.8000     81.11     79.00    187.75   1555.41   -999.25    248.41      6.50      2.00     75.93      1.62    133.09
 1961.0000     63.73     78.33    187.34   1567.57   -999.25    250.00      6.50      2.00     59.00      1.00    136.87
 1961.2000     96.17     77.69    188.60   1539.74   -999.25    242.00      6.50      2.00     58.48      1.00    135.73
 1961.4000     78.71     77.03    186.39   1566.28   -999.25    228.41      6.50      2.00     55.00      1.00    132.49
 1961.6000    100.91     76.35    187.06   1530.42   -999.25     92.43      6.50      2.00     51.52      1.00    129.24
 1961.8000     54.61     75.69    189.81   1566.59   -999.25     38.00      6.50      2.00    105.61      2.03    126.00
 1962.0000     49.89     75.07    188.67   1509.69   -999.25     38.00      5.53      2.00    161.00      3.00    125.38
 1962.2000     43.65     74.41    186.34   1573.49   -999.25     38.29      4.00      2.00    181.00      3.00    124.75
 1962.4000    115.62     73.75    187.36   1565.96   -999.25     40.00      5.67      2.00    188.20      3.00    124.12
 1962.6000    170.79     73.10    193.45    993.10   -999.25     70.72      6.50      2.00    130.14      3.00    125.75
 1962.8000     73.69     72.44    187.48   1017.11   -999.25    104.00      6.50      2.00    116.57      3.00    127.95
 1963.0000    100.46     71.78    187.85   1034.91   -999.25    104.00      5.41      2.00    103.00      3.00    130.14
 1963.2000    139.91     71.13    187.43   1050.46   -999.25    104.00      2.68      2.00    115.00      3.00    131.32
 1963.4000    190.86     70.47    188.28   1061.66   -999.25     47.99      2.00      2.00    121.00      3.00    126.79
 1963.6000     73.12     69.82    187.25   1082.37   -999.25     26.15      2.00      2.00    125.00      3.00    122.26
 1963.8000    170.85     69.16    191.44   1661.61   -999.25     28.00      2.00      2.00    133.00      3.00    121.28
 1964.0000    136.49     68.50    187.15   1643.06   -999.25     28.00      2.00      2.00    145.00      3.00    123.85
 1964.2000     92.10     67.83    189.11   1675.68   -999.25     26.50      2.00      2.00    143.24      3.00    126.41
 1964.4000     45.52     67.19    188.48   1691.56   -999.25     22.00      2.00      2.00    138.22      3.00    128.97
 1964.6000     47.98     66.54    189.10   1618.42   -999.25     22.00      2.00      2.00    125.63      3.00    130.72
 1964.8000     50.14     65.86    189.34   1537.48   -999.25     21.59      2.00      2.00    120.93      3.00    131.91
 1965.0000     95.30     65.22    189.76   1504.97   -999.25     20.21      2.00      2.00    121.11      3.00    133.10
 1965.2000     85.95     64.57    189.17   1469.45   -999.25     20.00      2.00      2.00    124.94      3.00    133.81
 1965.4000     48.70     63.91    188.45   1457.57   -999.25     22.57      2.00      2.00    131.43      3.00    133.07
 1965.6000     43.55     63.25    189.29   1557.42   -999.25     24.00      2.00      2.00    146.00      3.00    132.32
 1965.8000     98.59     62.60    186.96   1636.37   -999.25     23.53      2.00      2.00    146.00      3.00    131.57
 1966.0000     52.77     61.94    186.58   1638.01   -999.25     22.47      2.00      2.00    146.00      3.00    130.82
 1966.2000     88.59     61.29    184.68   1661.24   -999.25     22.00      2.00      2.00    136.03      3.00    130.07
 1966.4000     85.91     60.60    186.48   1627.69   -999.25     22.00      2.00      2.00    129.42      3.00    130.00
 1966.6000     54.62     59.94    186.86   1617.36   -999.25     28.53      2.00      2.00    130.47      3.00    130.00
 1966.8000     34.33     59.29    186.20   1618.52   -999.25     36.00      2.00      2.00    129.15      3.00    130.00
 1967.0000     61.13     58.66    188.38   1641.42   -999.25     33.00      2.00      2.00    126.97      3.00    130.00
 1967.2000     59.62     57.97    187.62   1635.58   -999.25     24.00      2.00      2.00    133.46      3.00    130.00
 1967.4000     53.75     57.35    187.51   1620.92   -999.25     24.00      2.00      2.00    135.52      3.00    130.00
 1967.6000     78.50     56.66    184.42   1608.00   -999.25     25.80      2.00      2.00    127.24      3.00    128.71
 1967.8000     66.43     56.00    186.77   1648.81   -999.25     24.46      2.00      2.00    122.00      3.00    126.13
 1968.0000     36.33     55.35    186.96   1634.51   -999.25     16.77      2.00      2.00    118.72      3.00    123.55
 1968.2000     82.49     54.72    186.56   1642.29   -999.25     16.00      2.00      2.00    123.55      3.00    119.71
 1968.4000     54.29     54.07    186.33   1653.74   -999.25     16.00      2.00      2.00    134.80      3.00    114.00
 1968.6000     56.81     53.38    186.39   1613.72   -999.25     10.00      2.00      2.00    146.83      3.00    108.29
