~Version Information
VERS.                       2.00: SCHLUMBERGER LAS - Version 2.00
WRAP.                         NO: One line per depth step
~Well Information
STRT.FT                1138.0000: Start Depth
STOP.FT                2257.0000: End Depth
STEP.FT                   0.2000:  
NULL.                    -999.25:  
COMP.                    BAPETCO: COMPANY
WELL.                BED 3 C18-M: WELL
FLD .                   BED AREA: FLD
SRVC.               Schlumberger: SERVICE COMPANY
LOC .                           : LOCATION
DATE.                  19-Sep-19: LOG DATE
UWI .                  19EGP0321: API NUMBER
~Curve Information
DEPT.FT                         : MWD Tool Measurement Depth
ROPI.FT/HR                      : Rate of Penetration (Time Based)
KPOSI.FT                         : Kelly Position (Raw)
HKL I.KLBF                       : Hook Load (Raw)
SPP I.PSI                        : Standpipe Pressure (Raw)
PSPD.FT/MIN                     : Instantaneous Pipe Speed
VIBC.CPS                        : Vibration Count
VIBXYH.                           : Vibration XY
VIBZH.                           : Vibration Z
SSS_H.                           : Stick Slip Percentage from HDS1
SSL_H.                           : Stick Slip Level from HDS1
RPM_H.                           : Average RPM from HDS1
#     DEPT      ROPI     KPOSI     HKL I     SPP I      PSPD      VIBC    VIBXYH     VIBZH     SSS_H     SSL_H     RPM_H
#       FT     FT/HR        FT      KLBF       PSI    FT/MIN       CPS                                                  
#
# Relog Number     0         0         0         0         0         0         0         0         0         0         0
#
~ASCII Data
# ...
 1352.4000    145.89     79.42    169.23   2180.48   -999.25      2.00     21.00      2.00     12.33      0.00   -999.25
 1352.6000    166.95     78.77    168.88   2231.28   -999.25      2.00     21.00      2.00     12.25      0.00   -999.25
 1352.8000    120.97     78.12    171.05   2223.44   -999.25      2.00     21.00      2.00     12.17      0.00   -999.25
 1353.0000     97.18     77.43    174.99   2217.75   -999.25      2.00     21.00      2.00     12.09      0.00    308.80
 1353.2000    146.34     76.78    173.13   2151.03   -999.25      2.00     21.00      2.00     12.02      0.00    278.16
 1353.4000    178.24     76.13    167.91   2168.13   -999.25     37.22     21.00      2.00     12.84      0.00    247.51
 1353.6000    136.58     75.49    168.37   2210.46   -999.25     76.34     21.00      2.00     13.88      0.00    216.87
 1353.8000    114.16     74.83    169.79   2231.39   -999.25     76.12     21.00      2.00     14.93      0.00    186.23
 1354.0000     64.30     74.18    170.05   2138.23   -999.25     49.65     21.00      2.00     15.98      0.00    155.59
 1354.2000     88.81     73.49    172.33   2166.72   -999.25     23.18     21.00      2.00     17.02      0.00    124.95
 1354.4000    123.48     72.87    168.69   2177.20   -999.25      2.00     21.00      2.00     18.07      0.00     94.31
 1354.6000    179.51     72.18    167.75   2157.40   -999.25      2.00     21.00      2.00     19.12      0.00     63.66
 1354.8000    147.88     71.56    168.33   2170.61   -999.25      2.00     21.00      2.00     20.16      0.00     71.53
 1355.0000    128.69     70.87    171.01   2162.64   -999.25      2.00   -999.25      2.00     21.67      0.00     92.25
 1355.2000     95.38     70.24    170.98   2148.73   -999.25      2.00   -999.25      2.00     25.05      0.00    112.96
 1355.4000    114.47     69.59    171.76   2226.01   -999.25      2.43   -999.25      2.00     28.42      0.00    133.68
 1355.6000    217.86     68.91    169.36   2186.84   -999.25      4.57   -999.25      2.00     31.79      0.00    154.39
 1355.8000    162.28     68.25    167.90   2200.10   -999.25      6.71   -999.25      2.00     35.16      0.00    175.11
 1356.0000    120.24     67.62    172.99   2221.12   -999.25      8.86   -999.25      2.00     36.00      0.00    195.82
 1356.2000    100.55     66.94    171.96   2237.52   -999.25     11.00   -999.25      2.00     36.00      0.00    216.54
 1356.4000     73.02     66.31    170.62   2218.30   -999.25     13.14   -999.25      2.00     36.00      0.00    233.42
 1356.6000    111.32     65.65    170.30   2217.92   -999.25     15.29   -999.25      2.00     36.00      0.00    243.20
 1356.8000    134.46     64.97    172.93   2191.20   -999.25     17.43   -999.25      2.00     36.00      0.00    252.97
 1357.0000    167.01     64.33    168.31   2232.97   -999.25     19.57   -999.25      2.00     36.00      0.00    262.74
 1357.2000    128.02     63.66    171.43   2225.54   -999.25     20.00   -999.25      2.00     36.00      0.00    272.51
 1357.4000    109.12     62.99    172.46   2173.11   -999.25     20.00   -999.25      2.00     36.00      0.00    282.29
 1357.6000    154.33     62.34    171.44   2206.78   -999.25     20.00   -999.25      2.00     35.71      0.00    292.06
 1357.8000     91.33     61.68    171.38   2204.34   -999.25     20.00   -999.25      2.00     29.89      0.00    301.83
 1358.0000    194.64     61.02    167.10   2217.35   -999.25     20.00   -999.25      2.00     24.08      0.00    311.60
 1358.2000    181.92     60.37    166.31   2181.85   -999.25     20.00   -999.25      2.00     18.27      0.00    299.06
 1358.4000    132.35     59.72    169.96   2174.98   -999.25     20.00     21.00      2.00     12.45      0.00    268.28
 1358.6000     76.04     59.07    171.03   2188.27   -999.25     20.00     21.00      2.00     14.91      0.00    237.49
 1358.8000    139.69     58.42    169.05   2201.75   -999.25     20.00     21.00      2.58     20.12      0.00    206.70
 1359.0000    165.63     57.76    167.45   2209.62   -999.25     20.00     21.00      3.86     25.32      0.00    175.92
 1359.2000     72.99     57.12    171.28   2183.12   -999.25     20.00     21.00      5.13     30.53      0.00    145.13
 1359.4000    154.10     56.46    166.69   2197.69   -999.25     20.00     21.00      6.41     35.74      0.00    114.35
 1359.6000    202.63     55.80    167.85   2227.91   -999.25     21.11     21.00      7.69     64.03      0.70     83.56
 1359.8000    174.99     55.14    167.60   2201.02   -999.25     24.82     21.00      8.97     93.55      1.43     52.77
 1360.0000     90.21     54.47    173.47   2167.55   -999.25     28.54     21.00     10.25    123.06      2.16     39.94
 1360.2000    118.94     53.84    172.17   2191.31   -999.25     32.25     21.00     11.53    152.58      2.89     36.78
 1360.4000    146.52     53.15    169.43   2180.98   -999.25     35.96     21.00     12.81    110.72      2.06     33.62
 1360.6000    140.41     52.53    168.62   2200.10   -999.25     38.32     20.85     14.09     56.28      0.94     30.46
 1360.8000    101.22     51.87    170.87   2233.00   -999.25     39.02     20.23     15.37      9.87      0.00     27.30
 1361.0000    266.44     51.21    165.11   2268.62   -999.25     39.72     19.61     16.65      8.99      0.00     24.13
 1361.2000    143.36     50.54    169.07   2186.17   -999.25     40.00     18.99     17.93      8.11      0.00     20.97
 1361.4000    203.70     49.87    166.07   2221.18   -999.25     40.00     18.37     19.21      7.23      0.00     17.81
 1361.6000    143.68     49.24    169.79   2217.58   -999.25     40.00     17.75     20.49      6.36      0.00     14.65
 1361.8000    172.87     48.59    170.38   2227.51   -999.25     40.00     17.50     21.00      5.48      0.00     11.49
 1362.0000    156.48     47.93    168.64   2215.02   -999.25     40.00     17.50     21.00      4.60      0.00      8.32
 1362.2000     95.48     47.28    168.15   2254.50   -999.25     40.00     17.50     21.00      3.72      0.00      5.16
 1362.4000    223.46     46.61    167.07   2184.99   -999.25     40.00     17.50     21.00      2.84      0.00      2.00
 1362.6000    138.97     45.96    168.67   2181.17   -999.25     40.00     17.50     21.00      1.97      0.00      5.71
 1362.8000    221.57     45.31    168.34   2239.13   -999.25     40.00     17.50     15.39      1.09      0.00      9.41
 1363.0000    172.44     44.62    168.53   2164.27   -999.25   -999.25     17.50      6.75      1.81      0.00     13.12
 1363.2000    180.06     44.00    167.40   2216.01   -999.25   -999.25     17.50      4.67      2.70      0.00     16.83
 1363.4000    183.08     43.31    170.45   2214.69   -999.25   -999.25     17.50     10.61      3.60      0.00     20.54
 1363.6000    109.54     42.68    169.09   2216.79   -999.25   -999.25     17.50     16.55      4.49      0.00     24.24
 1363.8000    124.59     42.01    171.90   2184.36   -999.25   -999.25     17.50     21.00      5.39      0.00     27.95
 1364.0000    139.28     41.37    166.35   2210.93   -999.25   -999.25     17.50     21.00      6.28      0.00     31.66
 1364.2000    119.24     40.70    168.34   2212.14   -999.25   -999.25     17.50     21.00      7.18      0.00     35.37
 1364.4000    148.67     40.06    168.07   2232.70   -999.25   -999.25     17.50     21.00      8.07      0.00     39.07
 1364.6000    185.49     39.40    167.04   2191.08   -999.25   -999.25     17.50     21.00      8.97      0.00     37.72
 1364.8000    138.83     38.75    171.19   2204.61   -999.25   -999.25     17.68     18.76      9.87      0.00     34.68
 1365.0000    204.16     38.09    167.63   2213.82   -999.25   -999.25     18.28     11.31      9.46      0.00     31.64
 1365.2000    228.52     37.42    166.44   2184.57   -999.25   -999.25     18.89      3.86      8.83      0.00     28.61
 1365.4000    173.59     36.78    167.20   2199.61   -999.25   -999.25     19.49      2.00      8.19      0.00     25.57
 1365.6000    173.59     36.12    169.80   2224.07   -999.25   -999.25     20.09      2.00      7.56      0.00     22.53
