~Version Information
VERS.                       2.00: SCHLUMBERGER LAS - Version 2.00
WRAP.                         NO: One line per depth step
~Well Information
STRT.FT                1138.0000: Start Depth
STOP.FT                2257.0000: End Depth
STEP.FT                   0.2000:  
NULL.                    -999.25:  
COMP.                    BAPETCO: COMPANY
WELL.                BED 3 C18-M: WELL
FLD .                   BED AREA: FLD
SRVC.               Schlumberger: SERVICE COMPANY
LOC .                           : LOCATION
DATE.                  19-Sep-19: LOG DATE
UWI .                  19EGP0321: API NUMBER
~Curve Information
DEPT.FT                         : MWD Tool Measurement Depth
ROPI.FT/HR                      : Rate of Penetration (Time Based)
KPOSI.FT                         : Kelly Position (Raw)
HKL I.KLBF                       : Hook Load (Raw)
SPP I.PSI                        : Standpipe Pressure (Raw)
PSPD.FT/MIN                     : Instantaneous Pipe Speed
VIBC.CPS                        : Vibration Count
VIBXYH.                           : Vibration XY
VIBZH.                           : Vibration Z
SSS_H.                           : Stick Slip Percentage from HDS1
SSL_H.                           : Stick Slip Level from HDS1
RPM_H.                           : Average RPM from HDS1
#     DEPT      ROPI     KPOSI     HKL I     SPP I      PSPD      VIBC    VIBXYH     VIBZH     SSS_H     SSL_H     RPM_H
#       FT     FT/HR        FT      KLBF       PSI    FT/MIN       CPS                                                  
#
# Relog Number     0         0         0         0         0         0         0         0         0         0         0
#
~ASCII Data
# ...
 1285.4000    131.52     17.22    166.91   2226.22   -999.25     10.00      2.00      2.00     14.17      0.00    112.28
 1285.6000    192.10     16.57    166.25   2286.84   -999.25     10.00      2.00      2.00     15.04      0.00    111.66
 1285.8000    158.91     15.94    170.04   2297.07   -999.25     10.00      2.00      2.00     16.34      0.00    111.05
 1286.0000    220.69     15.26    169.32   2322.19   -999.25     10.00      2.00      2.00     17.64      0.00    110.43
 1286.2000    230.57     14.60    167.83   2280.01   -999.25     10.00      2.00      2.00     18.94      0.00    110.00
 1286.4000    212.37     13.94    168.43   2303.08   -999.25     10.00      2.00      2.00     20.24      0.00    110.00
 1286.6000    210.49     13.32    170.72   2278.50   -999.25     10.00      2.00      2.00     21.54      0.00    110.00
 1286.8000    211.94     12.63    168.77   2313.25   -999.25     10.00      2.00      2.00     21.56      0.00    110.00
 1287.0000    216.12     11.98    168.49   2271.05   -999.25     10.00      2.00      2.00     20.89      0.00    110.00
 1287.2000    219.64     11.33    167.83   2311.79   -999.25     10.00      2.00      2.00     20.21      0.00    110.00
 1287.4000    224.05     10.66    167.96   2304.90   -999.25     10.13      2.00      2.00     19.53      0.00    110.00
 1287.6000    211.37     10.01    167.42   2301.13   -999.25     10.49      2.00      2.00     18.86      0.00    110.00
 1287.8000    206.47      9.35    169.28   2297.83   -999.25     10.85      2.00      2.00     18.18      0.00    110.00
 1288.0000    215.91      8.69    168.32   2338.77   -999.25     11.22      2.00      2.00     17.51      0.00    110.00
 1288.2000    219.15      8.04    165.87   2298.94   -999.25     11.58      2.00      2.00     17.08      0.00    110.00
 1288.4000    199.35      7.38    164.86   2283.23   -999.25     11.95      2.00      2.00     17.42      0.00    110.00
 1288.6000    200.02      6.73    162.51   2322.79   -999.25     12.00      2.00      2.00     17.76      0.00    110.00
 1288.8000    194.93      6.07    160.74   2292.02   -999.25     12.00      2.00      2.00     18.09      0.00    110.00
 1289.0000    186.28      5.41    158.27   2290.44   -999.25     12.00      2.00      2.00     18.43      0.00    110.00
 1289.2000    184.62      4.79    157.04   2267.10   -999.25     12.00      2.00      2.00     18.76      0.00    110.00
 1289.4000     24.36      4.10    179.34   2329.12   -999.25     12.00      2.00      2.00     18.95      0.00    110.00
 1289.6000    260.42      3.44    175.68   2333.86   -999.25     12.00      2.00      2.00     18.79      0.00    110.00
 1289.8000    283.73      2.79    169.22   2290.65   -999.25     12.00      2.00      2.00     18.63      0.00    110.00
 1290.0000    216.80      2.13    167.58   2292.10   -999.25     11.48      2.00      2.00     18.47      0.00    110.00
 1290.2000    107.62      1.48    169.07   2250.52   -999.25     10.96      2.00      2.00     18.31      0.00    110.00
 1290.4000    199.03      0.82    167.81   2270.72   -999.25     10.44      2.00      2.00     18.15      0.00    110.00
 1290.6000    172.53      0.16    167.70   2322.16   -999.25     10.15      2.00      2.00     18.00      0.00    110.00
 1290.8000    181.77     -0.49    167.14   2325.91   -999.25     11.12      2.00      2.00   -999.25   -999.25    110.00
 1291.0000    184.55     92.95    179.55   2190.44   -999.25     12.09      2.00      2.00   -999.25   -999.25   -999.25
 1291.2000    200.07     92.29    175.15   2243.63   -999.25     13.05      2.00      2.00   -999.25   -999.25   -999.25
 1291.4000    287.99     91.61    169.31   2284.13   -999.25     14.02      2.00      2.00   -999.25   -999.25   -999.25
 1291.6000     89.72     90.98    173.61   2213.78   -999.25     14.99      2.00      2.00   -999.25   -999.25   -999.25
 1291.8000    229.73     90.29    171.23   2237.34   -999.25     15.96      2.00      2.00   -999.25   -999.25   -999.25
 1292.0000    233.28     89.67    167.20   2207.03   -999.25     16.93      2.00      2.00   -999.25   -999.25   -999.25
 1292.2000    168.85     89.01    168.68   2218.72   -999.25     17.90      2.00      2.00   -999.25   -999.25   -999.25
 1292.4000    190.05     88.32    166.20   2123.15   -999.25     18.00      2.00      2.00   -999.25   -999.25   -999.25
 1292.6000    174.15     87.69    166.23   1991.17   -999.25     18.00      2.00      2.00   -999.25   -999.25   -999.25
 1292.8000    171.82     87.04    167.23   1937.06   -999.25     18.00      2.00      2.00   -999.25   -999.25   -999.25
 1293.0000    201.85     86.35    170.43   1904.34   -999.25     18.00      2.00      2.00   -999.25   -999.25   -999.25
 1293.2000    216.40     85.70    169.02   1975.52   -999.25     18.00      2.00      2.00   -999.25   -999.25   -999.25
 1293.4000    218.92     85.07    168.85   1982.40   -999.25     18.00      2.00      2.00   -999.25   -999.25   -999.25
 1293.6000    156.00     84.38    168.72   1979.63   -999.25     18.00      2.00      2.00   -999.25   -999.25   -999.25
 1293.8000    189.07     83.75    168.33   1964.38   -999.25     18.00      2.00      2.00     51.00      1.00   -999.25
 1294.0000    238.46     83.10    171.69   2201.24   -999.25     18.00      2.00      2.00     45.48      0.85   -999.25
 1294.2000    215.40     82.41    169.53   2270.42   -999.25     16.53      2.00      2.00     39.00      0.67   -999.25
 1294.4000    219.62     81.78    166.31   2211.17   -999.25     14.42      2.00      2.00     32.51      0.49    128.00
 1294.6000    176.87     81.13    166.28   2190.81   -999.25     12.32      2.00      2.00     26.03      0.31    128.00
 1294.8000    207.62     80.46    168.15   2206.32   -999.25     10.21      2.00      2.00     19.54      0.13    128.00
 1295.0000    197.03     79.79    165.38   2261.01   -999.25     10.00      2.00      2.00     15.29      0.00    128.00
 1295.2000    181.34     79.14    168.94   2227.60   -999.25     10.00      2.00      2.00     16.26      0.00    128.00
 1295.4000    195.93     78.48    170.74   2270.43   -999.25     10.00      2.00      2.00     17.23      0.00    128.00
 1295.6000    223.43     77.83    165.93   2258.26   -999.25     10.69      2.00      2.00     18.19      0.00    128.00
 1295.8000     90.21     77.17    173.09   2193.01   -999.25     11.55      2.00      2.00     19.16      0.00    128.00
 1296.0000    226.36     76.51    169.38   2246.87   -999.25     12.41      2.00      2.00     20.13      0.00    128.00
 1296.2000    159.28     75.89    168.01   2256.48   -999.25     13.27      2.00      2.00     20.76      0.00    128.00
 1296.4000    197.90     75.21    170.45   2226.40   -999.25     14.00      2.00      2.00     18.30      0.00    128.00
 1296.6000    194.19     74.54    169.46   2281.94   -999.25     14.00      2.00      2.00     15.85      0.00    128.00
 1296.8000    151.06     73.92    167.16   2251.71   -999.25     14.00      2.00      2.00     13.40      0.00    128.00
 1297.0000    157.44     73.26    168.34   2239.68   -999.25     14.00      2.00      2.00     10.94      0.00    128.00
 1297.2000    220.50     72.61    165.75   2250.34   -999.25     14.00      2.00      2.00      8.49      0.00    128.00
 1297.4000    212.22     71.93    168.18   2213.11   -999.25     14.00      2.00      2.00      8.51      0.00    128.00
 1297.6000    216.76     71.26    168.50   2227.62   -999.25     14.00      2.00      2.00      9.14      0.00    128.00
 1297.8000    196.96     70.64    165.65   2242.27   -999.25     14.00      2.00      2.00      9.78      0.00    128.00
 1298.0000    154.85     69.98    169.32   2269.35   -999.25     14.00      2.00      2.00     10.41      0.00    128.00
 1298.2000    160.31     69.32    168.91   2178.75   -999.25     14.00      2.00      2.00     11.05      0.00    128.00
 1298.4000    197.98     68.67    168.31   2240.04   -999.25     14.00      2.00      2.00     11.68      0.00    128.00
 1298.6000    204.01     68.01    170.88   2243.06   -999.25     14.00      2.00      2.00     11.59      0.00    128.00
