~Version Information
VERS.                       2.00: SCHLUMBERGER LAS - Version 2.00
WRAP.                         NO: One line per depth step
~Well Information
STRT.FT                1138.0000: Start Depth
STOP.FT                2257.0000: End Depth
STEP.FT                   0.2000:  
NULL.                    -999.25:  
COMP.                    BAPETCO: COMPANY
WELL.                BED 3 C18-M: WELL
FLD .                   BED AREA: FLD
SRVC.               Schlumberger: SERVICE COMPANY
LOC .                           : LOCATION
DATE.                  19-Sep-19: LOG DATE
UWI .                  19EGP0321: API NUMBER
~Curve Information
DEPT.FT                         : MWD Tool Measurement Depth
ROPI.FT/HR                      : Rate of Penetration (Time Based)
KPOSI.FT                         : Kelly Position (Raw)
HKL I.KLBF                       : Hook Load (Raw)
SPP I.PSI                        : Standpipe Pressure (Raw)
PSPD.FT/MIN                     : Instantaneous Pipe Speed
VIBC.CPS                        : Vibration Count
VIBXYH.                           : Vibration XY
VIBZH.                           : Vibration Z
SSS_H.                           : Stick Slip Percentage from HDS1
SSL_H.                           : Stick Slip Level from HDS1
RPM_H.                           : Average RPM from HDS1
#     DEPT      ROPI     KPOSI     HKL I     SPP I      PSPD      VIBC    VIBXYH     VIBZH     SSS_H     SSL_H     RPM_H
#       FT     FT/HR        FT      KLBF       PSI    FT/MIN       CPS                                                  
#
# Relog Number     0         0         0         0         0         0         0         0         0         0         0
#
~ASCII Data
# ...
 1580.2000     82.45     92.13    179.15   2384.44   -999.25     54.00      2.00      2.00    105.05      3.00    105.58
 1580.4000    103.74     91.50    180.31   2411.24   -999.25     55.50      2.00      2.00    107.09      2.59    107.85
 1580.6000     35.77     90.81    180.69   2402.13   -999.25     60.00      2.00      2.00    129.29      3.00    109.86
 1580.8000     55.97     90.16    180.02   2396.58   -999.25     48.00      2.00      2.00    145.00      3.00    107.00
 1581.0000     52.34     89.50    177.98   2430.20   -999.25     56.16      2.00      2.00    128.13      3.00    104.14
 1581.2000      0.19     88.84    177.84   2410.93   -999.25     63.00      2.00      2.00    111.37      3.00    104.00
 1581.4000     62.27     88.21    179.03   2434.47   -999.25     67.00      2.00      2.00    105.87      3.00    104.00
 1581.6000     51.41     87.55    178.55   2414.61   -999.25     67.20      2.00      2.00    119.00      3.00    102.91
 1581.8000     57.31     86.88    182.96   2430.84   -999.25     56.00      2.00      2.00    115.35      3.00    127.75
 1582.0000    157.27     86.22    184.89   2393.73   -999.25     46.00      2.00      2.00    118.35      2.65    256.52
 1582.2000     57.16     85.56    177.37   2359.00   -999.25     58.30      2.00      2.00     99.00      2.00    358.20
 1582.4000    122.54     84.92    181.21   2386.27   -999.25     68.61      2.00      2.00     96.60      2.00    306.11
 1582.6000    231.70     84.25    181.83   1193.71   -999.25     72.00      2.00      2.00     78.86      1.29    254.03
 1582.8000     81.54     83.60    178.76   2346.05   -999.25     72.00      2.00      2.00     84.35      1.82    201.94
 1583.0000     59.98     82.97    180.98   2348.76   -999.25     82.00      2.00      2.00    102.00      3.00    149.86
 1583.2000     96.48     82.28    180.99   2319.27   -999.25     84.00      2.00      2.00    142.00      3.00    116.24
 1583.4000     78.36     81.63    183.20   2359.46   -999.25     81.22      2.00      2.00    137.56      3.00    116.93
 1583.6000     94.36     80.97    180.18   2403.84   -999.25     68.00      2.00      2.00    132.57      3.00    117.62
 1583.8000    140.26     80.32    180.40   2386.28   -999.25     66.00      2.00      2.00    149.00      3.00    118.29
 1584.0000    258.37     79.66    182.31   2386.82   -999.25     71.00      2.00      2.00    130.03      3.00    118.94
 1584.2000     62.01     79.00    181.48   2373.48   -999.25     91.00      2.00      2.00    112.85      3.00    119.58
 1584.4000     69.77     78.35    182.02   2391.43   -999.25     94.00      2.00      2.00    129.77      3.00    119.52
 1584.6000     72.09     77.71    180.64   2408.43   -999.25     92.47      2.00      2.00    145.38      3.00    118.14
 1584.8000     45.88     77.03    178.36   2401.25   -999.25     62.01      2.00      2.00    153.68      3.00    116.76
 1585.0000     75.84     76.38    179.55   2381.96   -999.25     62.00      2.00      2.00    145.94      3.00    116.30
 1585.2000     60.02     75.72    180.14   2380.95   -999.25     86.00      2.00      2.00    144.00      3.00    116.97
 1585.4000     95.97     75.07    177.74   2395.42   -999.25     86.00      2.00      2.00    141.41      3.00    117.63
 1585.6000    111.15     74.41    182.62   2404.46   -999.25     68.90      2.00      2.00    125.82      3.00    118.30
 1585.8000     74.41     73.75    180.02   2385.11   -999.25     68.24      2.00      2.00    142.06      3.00    118.95
 1586.0000    127.45     73.10    179.65   2366.85   -999.25     69.84      2.00      2.00    151.56      3.00    119.61
 1586.2000     80.89     72.44    180.29   2384.58   -999.25     70.00      2.00      2.00    152.81      3.00    120.60
 1586.4000    103.20     71.78    184.21   2389.71   -999.25     69.47      2.00      2.00    146.04      3.00    122.11
 1586.6000     11.13     71.16    180.81   2361.36   -999.25     68.93      2.00      2.00    137.84      3.00    123.62
 1586.8000     88.26     70.47    182.33   2389.49   -999.25     68.40      2.00      2.00    129.65      3.00    125.13
 1587.0000     30.48     69.82    181.93   2425.35   -999.25     68.00      2.00      2.00    121.46      3.00    126.64
 1587.2000     57.17     69.16    184.11   2464.89   -999.25     66.44      2.00      2.00    119.00      3.00    128.36
 1587.4000     77.27     68.50    181.73   2450.95   -999.25     66.00      2.00      2.00    115.11      3.00    131.93
 1587.6000     77.30     67.85    180.50   2377.69   -999.25     75.82      2.00      2.00    109.56      3.00    135.50
 1587.8000     85.21     67.19    184.96   2396.33   -999.25     78.00      2.00      2.00    120.36      3.00    137.23
 1588.0000     96.02     66.54    181.83   2440.62   -999.25     78.00      2.00      2.00    114.67      3.00    134.67
 1588.2000    107.85     65.88    181.01   2429.45   -999.25     81.00      2.00      2.00    108.00      3.00    132.10
 1588.4000     61.51     65.22    182.30   2411.46   -999.25     84.00      2.00      2.00    116.97      3.00    129.54
 1588.6000     56.43     64.57    180.98   2429.55   -999.25     84.00      2.00      2.00    138.73      3.00    126.67
 1588.8000     59.37     63.93    179.36   2409.13   -999.25     80.22      2.00      2.00    137.08      3.00    123.33
 1589.0000     45.85     63.25    181.26   2446.44   -999.25     80.00      2.00      2.00    131.29      3.00    120.00
 1589.2000     65.36     62.60    181.89   2456.64   -999.25     75.00      2.00      2.00    125.87      3.00    116.67
 1589.4000     29.26     61.94    180.45   2406.15   -999.25     68.00      2.00      2.00    120.65      3.00    116.94
 1589.6000     82.31     61.29    180.50   2423.74   -999.25     64.89      2.00      2.00    117.12      3.00    118.12
 1589.8000     72.24     60.63    181.31   2412.48   -999.25     56.00      2.00      2.00    121.82      3.00    119.29
 1590.0000     41.52     59.97    180.31   2404.75   -999.25     56.00      2.00      2.00    138.88      3.00    119.74
 1590.2000     33.16     59.33    182.02   2414.12   -999.25     56.00      2.00      2.00    143.20      3.00    119.08
 1590.4000     71.51     58.66    179.83   2454.90   -999.25     62.86      2.00      2.00    142.06      3.00    118.43
 1590.6000     67.47     58.01    182.78   2396.92   -999.25     64.00      2.00      2.00    133.36      3.00    119.91
 1590.8000     50.27     57.35    184.30   2458.47   -999.25     68.00      2.00      2.00    130.42      3.00    125.36
 1591.0000    101.72     56.69    181.38   2424.16   -999.25     68.00      2.00      2.00    128.56      3.00    130.82
 1591.2000     48.96     56.04    180.83   2462.82   -999.25     68.00      2.00      2.00    124.77      3.00    135.90
 1591.4000     78.12     55.38    180.60   2383.58   -999.25     75.06      2.00      2.00    120.06      3.00    133.90
 1591.6000     48.18     54.75    180.82   2420.76   -999.25     78.00      2.00      2.00    115.21      3.00    131.90
 1591.8000     39.80     54.07    181.08   2422.23   -999.25     78.00      2.00      2.00    122.00      3.00    130.05
 1592.0000     25.38     53.41    180.69   2420.44   -999.25     78.00      2.00      2.00    130.00      3.00    131.11
 1592.2000     43.67     52.76    179.74   2446.69   -999.25     78.00      2.00      2.00    127.58      3.00    132.16
 1592.4000     52.33     52.10    181.02   2441.33   -999.25     80.96      2.00      2.00    122.73      3.00    133.21
 1592.6000     44.42     51.44    182.02   2459.15   -999.25     82.00      2.00      2.00    122.00      3.00    134.18
 1592.8000     81.20     50.80    181.23   2436.68   -999.25     94.00      2.00      2.00    120.50      3.00    134.89
 1593.0000     60.84     50.13    177.84   2417.68   -999.25     94.00      2.00      2.00    117.64      3.00    135.61
 1593.2000     71.52     49.47    182.21   2411.90   -999.25     78.80      2.00      2.00    113.13      3.00    137.20
 1593.4000     69.01     48.82    185.86   2464.69   -999.25     67.88      2.00      2.00    109.06      2.82    139.87
