~Version Information
VERS.                       2.00: SCHLUMBERGER LAS - Version 2.00
WRAP.                         NO: One line per depth step
~Well Information
STRT.FT                1138.0000: Start Depth
STOP.FT                2257.0000: End Depth
STEP.FT                   0.2000:  
NULL.                    -999.25:  
COMP.                    BAPETCO: COMPANY
WELL.                BED 3 C18-M: WELL
FLD .                   BED AREA: FLD
SRVC.               Schlumberger: SERVICE COMPANY
LOC .                           : LOCATION
DATE.                  19-Sep-19: LOG DATE
UWI .                  19EGP0321: API NUMBER
~Curve Information
DEPT.FT                         : MWD Tool Measurement Depth
ROPI.FT/HR                      : Rate of Penetration (Time Based)
KPOSI.FT                         : Kelly Position (Raw)
HKL I.KLBF                       : Hook Load (Raw)
SPP I.PSI                        : Standpipe Pressure (Raw)
PSPD.FT/MIN                     : Instantaneous Pipe Speed
VIBC.CPS                        : Vibration Count
VIBXYH.                           : Vibration XY
VIBZH.                           : Vibration Z
SSS_H.                           : Stick Slip Percentage from HDS1
SSL_H.                           : Stick Slip Level from HDS1
RPM_H.                           : Average RPM from HDS1
#     DEPT      ROPI     KPOSI     HKL I     SPP I      PSPD      VIBC    VIBXYH     VIBZH     SSS_H     SSL_H     RPM_H
#       FT     FT/HR        FT      KLBF       PSI    FT/MIN       CPS                                                  
#
# Relog Number     0         0         0         0         0         0         0         0         0         0         0
#
~ASCII Data
# ...
 1647.2000    108.42     62.59    180.63   1801.89   -999.25     22.84      2.00      2.00    145.00      3.00    106.29
 1647.4000    103.03     61.92    181.43   1797.27   -999.25     22.00      2.00      2.00    145.00      3.00    106.35
 1647.6000    116.03     61.29    179.27   1826.70   -999.25     22.00      2.00      2.00    141.76      3.00    107.51
 1647.8000     91.03     60.62    178.13   1821.07   -999.25     28.74      2.00      2.00    133.65      3.00    108.67
 1648.0000    145.33     59.97    177.55   1808.22   -999.25     36.00      2.00      2.00    129.12      3.00    109.83
 1648.2000     62.34     59.32    185.15   1778.00   -999.25     32.80      2.00      2.00    129.86      3.00    111.73
 1648.4000     58.23     58.66    180.03   1769.81   -999.25     30.00      2.00      2.00    136.07      3.00    113.76
 1648.6000    104.62     58.01    180.78   1854.68   -999.25     28.09      2.00      2.00    151.73      3.00    115.80
 1648.8000     89.97     57.35    179.22   1782.07   -999.25     26.00      2.00      2.00    163.00      3.00    113.00
 1649.0000    140.14     56.69    181.73   1816.60   -999.25     30.23      2.00      2.00    163.00      3.00    109.67
 1649.2000     81.99     56.01    180.41   1806.39   -999.25     32.00      2.00      2.00    156.85      3.00    107.70
 1649.4000     42.41     55.38    179.27   1848.77   -999.25     32.00      2.00      2.00    150.58      3.00    107.09
 1649.6000    107.26     54.72    179.74   1779.94   -999.25     30.71      2.00      2.00    144.26      3.00    106.48
 1649.8000     90.87     54.06    181.19   1830.51   -999.25     30.00      2.00      2.00    140.24      3.00    106.85
 1650.0000    136.39     53.38    181.54   1842.87   -999.25     31.25      2.00      2.00    138.00      3.00    111.09
 1650.2000    120.36     52.76    178.89   1836.68   -999.25     12.00      2.00      2.00    138.00      3.00    115.33
 1650.4000     37.18     52.10    182.07   1825.73   -999.25     32.00      2.00      2.00    147.53      3.00    119.57
 1650.6000     63.58     51.43    180.12   1803.95   -999.25     32.50      2.00      2.00    172.00      3.00    118.78
 1650.8000    114.49     50.79    177.51   1827.21   -999.25     34.00      2.00      2.00    172.00      3.00    117.42
 1651.0000     33.16     50.13    181.07   1832.92   -999.25     31.89      2.00      2.00    159.24      3.00    116.07
 1651.2000     68.35     49.47    181.50   1799.67   -999.25     26.00      2.00      2.00    147.61      3.00    114.42
 1651.4000     27.78     48.82    180.50   1821.93   -999.25     31.78      2.00      2.00    163.00      3.00    112.75
 1651.6000    166.94     48.16    187.15   1811.72   -999.25     35.85      2.00      2.00    132.24      2.68    114.79
 1651.8000     78.21     47.47    181.16   1815.69   -999.25     58.00      2.00      2.00     37.37      0.37    119.86
 1652.0000     74.18     46.85    181.64   1845.50   -999.25     52.74      2.00      2.00    126.54      2.87    124.93
 1652.2000     58.29     46.19    181.64   1825.95   -999.25     48.00      2.00      2.00    131.00      3.00    130.00
 1652.4000     92.31     45.54    179.68   1801.18   -999.25     48.00      2.00      2.00    131.00      3.00    130.85
 1652.6000     68.80     44.88    179.74   1821.82   -999.25     53.45      2.00      2.00    131.15      3.00    131.70
 1652.8000     67.73     44.23    183.06   1810.34   -999.25     54.60      2.00      2.00    130.50      3.00    133.06
 1653.0000    125.02     43.57    182.45   1794.72   -999.25     56.00      2.00      2.00    120.50      3.00    134.69
 1653.2000     79.53     42.90    181.26   1806.38   -999.25     52.00      2.00      2.00    125.78      3.00    135.59
 1653.4000     25.36     42.26    184.39   1858.48   -999.25     48.00      2.00      2.00    125.60      3.00    133.52
 1653.6000     65.65     41.60    180.83   1827.70   -999.25     39.16      2.00      2.00    109.60      3.00    131.45
 1653.8000     87.48     40.93    181.02   1838.06   -999.25     36.00      2.00      2.00    122.21      3.00    130.00
 1654.0000     84.69     40.29    181.69   1838.53   -999.25     40.00      2.00      2.00    123.00      3.00    130.00
 1654.2000    132.38     39.61    181.15   1808.05   -999.25     54.00      2.00      2.00    110.48      2.48    130.00
 1654.4000    123.48     38.97    181.35   1810.48   -999.25     95.99      2.00      2.00    119.34      2.39    134.05
 1654.6000    151.35     38.32    183.47   1821.47   -999.25     96.00      2.00      2.00    137.39      2.77    138.81
 1654.8000     44.32     37.66    180.78   1819.26   -999.25     86.45      2.00      2.00     92.01      2.00    138.00
 1655.0000    184.16     36.99    182.56   1842.00   -999.25     66.00      2.00      2.00    111.15      2.43    135.33
 1655.2000    236.87     36.35    182.49   1850.26   -999.25     66.00      2.00      2.00    130.30      2.85    132.67
 1655.4000    131.21     35.70    183.85   1808.08   -999.25     55.62      2.00      2.00    134.83      3.00    130.00
 1655.6000     82.22     35.04    185.06   1794.74   -999.25     36.00      2.00      2.00    132.00      3.00    130.33
 1655.8000    107.42     34.38    181.29   1824.97   -999.25     36.00      2.00      2.00    132.00      3.00    130.66
 1656.0000     53.44     33.73    181.48   1832.04   -999.25     36.00      2.00      2.00    135.29      3.00    130.99
 1656.2000    152.99     33.07    179.68   1801.10   -999.25     36.00      2.00      2.00    139.68      3.00    131.32
 1656.4000    165.84     32.41    181.69   1809.34   -999.25     36.00      2.00      2.00    144.36      3.00    131.65
 1656.6000     90.11     31.76    178.60   1829.43   -999.25     36.00      2.00      2.00    149.16      3.00    131.98
 1656.8000    134.89     31.10    181.90   1836.47   -999.25     36.32      2.00      2.00    153.00      3.00    129.08
 1657.0000     47.72     30.45    179.93   1834.85   -999.25     39.52      2.00      2.00    153.00      3.00    126.00
 1657.2000     62.78     29.77    181.61   1798.50   -999.25     40.00      2.00      2.00    153.00      3.00    122.92
 1657.4000     35.76     29.13    181.07   1843.47   -999.25     40.77      2.00      2.00    151.18      3.00    119.85
 1657.6000     71.43     28.48    182.50   1828.07   -999.25     48.52      2.00      2.00    146.64      3.00    119.05
 1657.8000     36.33     27.82    180.79   1806.18   -999.25     52.00      2.00      2.00    142.91      3.00    121.69
 1658.0000     80.16     27.17    179.07   1835.71   -999.25     50.25      2.00      2.00    142.48      3.00    124.33
 1658.2000     92.27     26.51    180.07   1839.12   -999.25     45.25      2.00      2.00    142.04      3.00    126.97
 1658.4000     80.74     25.85    179.74   1858.89   -999.25     44.00      2.00      2.00    152.16      3.00    129.60
 1658.6000     98.03     25.20    179.17   1836.39   -999.25     44.00      2.00      2.00    163.44      3.00    128.55
 1658.8000    103.01     24.54    182.49   1830.43   -999.25     43.89      2.00      2.00    164.00      3.00    126.85
 1659.0000    133.80     23.88    180.98   1799.88   -999.25     42.84      2.00      2.00    164.00      3.00    125.15
 1659.2000    128.55     23.23    178.11   1842.12   -999.25     42.00      2.00      2.00    163.38      3.00    123.45
 1659.4000     51.87     22.57    180.66   1818.41   -999.25     42.00      2.00      2.00    162.43      3.00    121.72
 1659.6000    131.32     21.89    181.22   1800.91   -999.25     46.00      2.00      2.00    163.83      3.00    119.89
 1659.8000     67.96     21.23    180.50   1838.93   -999.25     50.00      2.00      2.00    167.17      3.00    118.05
 1660.0000    123.88     20.60    180.08   1811.54   -999.25     50.00      2.00      2.00    168.96      3.00    116.21
 1660.2000    109.34     19.95    180.54   1826.00   -999.25     50.00      2.00      2.00    162.00      3.00    114.37
 1660.4000    128.15     19.29    179.63   1824.46   -999.25     49.77      2.00      2.00    155.05      3.00    115.02
