~Version Information
VERS.                       2.00: SCHLUMBERGER LAS - Version 2.00
WRAP.                         NO: One line per depth step
~Well Information
STRT.FT                2257.0000: Start Depth
STOP.FT                3002.0000: End Depth
STEP.FT                   0.2000:  
NULL.                    -999.25:  
COMP.                    BAPETCO: COMPANY
WELL.                BED 3 C18-M: WELL
FLD .                   BED AREA: FLD
SRVC.               Schlumberger: SERVICE COMPANY
LOC .                           : LOCATION
DATE.                  21-Sep-19: LOG DATE
UWI .                  19EGP0321: API NUMBER
~Curve Information
DEPT.FT                         : MWD Tool Measurement Depth
ROPI.FT/HR                      : Rate of Penetration (Time Based)
KPOSI.FT                         : Kelly Position (Raw)
HKL I.KLBF                       : Hook Load (Raw)
SPP I.PSI                        : Standpipe Pressure (Raw)
PSPD.FT/MIN                     : Instantaneous Pipe Speed
VIBC.CPS                        : Vibration Count
VIBXYH.                           : Vibration XY
VIBZH.                           : Vibration Z
SSS_H.                           : Stick Slip Percentage from HDS1
SSL_H.                           : Stick Slip Level from HDS1
RPM_H.                           : Average RPM from HDS1
#     DEPT      ROPI     KPOSI     HKL I     SPP I      PSPD      VIBC    VIBXYH     VIBZH     SSS_H     SSL_H     RPM_H
#       FT     FT/HR        FT      KLBF       PSI    FT/MIN       CPS                                                  
#
# Relog Number     0         0         0         0         0         0         0         0         0         0         0
#
~ASCII Data
# ...
 2793.0000     57.67     48.39    207.48   2472.39   -999.25      6.53      2.00      2.00     31.89      0.00    138.00
 2793.2000    114.24     47.74    206.10   2470.01   -999.25      4.00      2.00      2.00     31.13      0.00    138.00
 2793.4000     86.15     47.08    203.77   2471.42   -999.25      4.00      2.00      2.00     30.38      0.00    138.00
 2793.6000     48.73     46.42    204.37   2495.04   -999.25      5.24      2.00      2.00     31.46      0.00    138.00
 2793.8000     49.99     45.77    205.99   2460.76   -999.25      6.00      2.00      2.00     34.39      0.00    138.00
 2794.0000     81.32     45.11    205.20   2475.19   -999.25      6.00      2.00      2.00     34.12      0.00    138.00
 2794.2000    103.19     44.46    206.43   2487.41   -999.25      6.00      2.00      2.00     29.96      0.00    138.00
 2794.4000     67.82     43.80    205.23   2462.44   -999.25      6.00      2.00      2.00     26.42      0.02    138.48
 2794.6000     42.08     43.14    203.77   2479.85   -999.25      6.00      2.00      2.00     34.67      0.46    138.95
 2794.8000     66.60     42.49    201.14   2432.55   -999.25      6.00      2.00      2.12     42.93      0.89    139.43
 2795.0000     38.06     41.86    200.64   2463.87   -999.25     10.08      2.00      3.29     36.36      0.55    139.90
 2795.2000     82.81     41.17    200.51   2478.58   -999.25     16.00      2.00      3.06     26.38      0.00    124.43
 2795.4000     13.49     40.52    202.34   2470.29   -999.25     14.55      2.00      2.00     30.21      0.00    104.95
 2795.6000     98.40     39.86    200.03   2487.25   -999.25      7.27      2.00      2.00     34.04      0.00     85.48
 2795.8000    114.72     39.21    203.58   2434.81   -999.25      4.00      2.00      2.00     74.79      0.98     66.00
 2796.0000    171.86     38.55    203.46   2463.46   -999.25      4.00      2.00      2.00    127.81      2.28     77.24
 2796.2000     78.20     37.89    205.39   2472.76   -999.25      4.00      2.00      2.00    157.00      3.00     88.48
 2796.4000    100.08     37.24    206.19   2456.15   -999.25      4.00      2.00      2.00    133.13      2.53     99.72
 2796.6000     71.49     36.58    205.26   2477.03   -999.25      4.00      2.00      2.00     89.73      1.68    110.96
 2796.8000     49.57     35.93    204.16   2462.65   -999.25      4.00      2.00      2.00     56.08      1.00    122.20
 2797.0000     86.51     35.27    205.75   2454.30   -999.25      4.00      2.00      2.00     61.49      1.00    133.44
 2797.2000     68.59     34.61    206.69   2455.36   -999.25      4.00      2.00      2.00     62.16      1.00    134.99
 2797.4000     87.05     33.96    205.12   2473.77   -999.25      4.55      2.00      2.00     54.07      1.00    136.03
 2797.6000    146.70     33.30    206.54   2482.55   -999.25      5.76      2.00      2.00     46.13      0.88    137.06
 2797.8000     47.95     32.64    206.67   2474.06   -999.25      6.00      2.00      2.00     38.62      0.37    137.95
 2798.0000    181.89     31.99    204.59   2455.09   -999.25      6.00      2.00      2.00     34.43      0.12    137.47
 2798.2000     77.31     31.33    206.06   2498.37   -999.25      5.60      2.00      2.00     40.14      0.60    136.99
 2798.4000    132.82     30.68    204.16   2455.74   -999.25      4.27      2.00      2.00     45.65      1.00    136.51
 2798.6000     89.15     30.02    205.27   2512.08   -999.25      4.00      2.00      2.00     49.97      1.00    136.02
 2798.8000    106.08     29.36    206.53   2453.17   -999.25      5.27      2.00      2.00     53.00      1.00    136.00
 2799.0000     65.17     28.71    205.58   2482.64   -999.25      8.00      2.00      2.00     53.00      1.00    136.00
 2799.2000     38.13     28.05    209.76   2480.59   -999.25      8.00      2.00      2.00     53.32      1.00    136.00
 2799.4000     48.48     27.39    207.77   2484.75   -999.25      5.92      2.00      2.00     55.42      1.00    136.11
 2799.6000     55.43     26.74    207.81   2443.11   -999.25      4.00      2.00      2.00     55.86      1.00    137.19
 2799.8000     81.26     26.08    207.67   2503.12   -999.25      4.47      2.00      2.00     51.32      1.00    138.27
 2800.0000    119.96     25.43    206.15   2464.01   -999.25      5.80      2.00      2.00     47.00      1.00    139.35
 2800.2000     92.28     24.77    207.96   2444.79   -999.25      6.00      2.00      2.00     47.00      1.00    140.00
 2800.4000    120.68     24.11    205.58   2461.18   -999.25      6.00      2.00      2.00     47.00      1.00    140.00
 2800.6000     41.54     23.46    202.82   2501.88   -999.25      6.00      2.00      2.00     42.13      0.65    140.00
 2800.8000     76.54     22.80    202.45   2452.42   -999.25      6.76      2.00      2.00     36.04      0.22    140.00
 2801.0000     81.51     22.15    200.20   2468.19   -999.25      7.94      2.00      2.00     35.16      0.20    140.00
 2801.2000     77.47     21.49    202.00   2455.09   -999.25      8.00      2.00      2.00     39.47      0.59    140.00
 2801.4000    114.12     20.83    201.70   2431.12   -999.25      7.56      2.00      2.00     43.79      0.98    140.00
 2801.6000     81.66     20.18    207.18   2473.01   -999.25      4.59      2.00      2.00     44.00      1.00    140.00
 2801.8000    101.50     19.52    206.46   2429.48   -999.25      4.00      2.00      2.00     44.00      1.00    140.00
 2802.0000    118.92     18.86    206.68   2487.51   -999.25      4.00      2.00      2.00     43.24      0.90    140.00
 2802.2000    100.06     18.21    205.93   2460.93   -999.25      4.00      2.00      2.00     39.43      0.43    140.00
 2802.4000     69.62     17.55    207.35   2433.16   -999.25      4.00      2.00      2.00     36.00      0.00    140.00
 2802.6000    158.19     16.90    206.91   2483.06   -999.25      4.00      2.00      2.00     36.00      0.00    140.00
 2802.8000    156.11     16.24    210.29   2489.96   -999.25      4.00      2.00      2.00     36.00      0.00    140.00
 2803.0000    260.52     15.58    207.01   2482.83   -999.25      4.00      2.00      2.00     33.58      0.00    139.04
 2803.2000    296.22     14.93    203.92   2443.36   -999.25      2.75      2.00      2.00     30.36      0.00    137.29
 2803.4000    250.16     14.27    199.99   2476.46   -999.25      2.00      2.00      2.00     27.13      0.00    135.54
 2803.6000    108.68     13.62    197.67   2484.39   -999.25      2.00      2.00      2.00     36.39      0.00    133.79
 2803.8000    140.53     12.96    196.62   2461.61   -999.25      2.08      2.00      2.00     44.00      0.29    132.04
 2804.0000     39.79     12.30    199.36   2478.14   -999.25      3.71      2.00      2.00     50.67      0.60    130.29
 2804.2000    116.71     11.65    200.15   2478.09   -999.25      5.35      2.00      2.00     57.33      0.92    128.54
 2804.4000    109.92     10.99    199.98   2440.37   -999.25      6.00      2.00      2.00     59.00      1.00    126.79
 2804.6000    153.16     10.33    201.10   2438.49   -999.25      6.00      2.00      2.00     59.00      1.00    118.82
 2804.8000    120.39      9.68    200.07   2452.78   -999.25      7.19      2.00      2.00     78.07      1.58    105.77
 2805.0000    127.07      9.02    200.67   2490.35   -999.25      8.00      2.00      2.00    107.39      2.47     92.71
 2805.2000    135.49      8.37    201.87   2495.14   -999.25      8.00      2.00      2.00    127.09      3.00     79.66
 2805.4000    156.05      7.73    201.27   2455.45   -999.25      7.54      2.00      2.00    132.32      3.00     66.61
 2805.6000    134.95      7.05    200.74   2456.12   -999.25      6.51      2.00      2.00    137.55      3.00     69.53
 2805.8000     80.37      6.40    200.64   2476.39   -999.25      6.00      2.00      2.00    139.13      2.94     76.45
 2806.0000    139.89      5.74    203.26   2476.54   -999.25      6.00      2.00      2.00    119.96      2.52     83.36
 2806.2000    106.44      5.09    200.07   2446.95   -999.25      7.44      2.00      2.00    100.79      2.10     90.27
