~Version Information
VERS.                       2.00: SCHLUMBERGER LAS - Version 2.00
WRAP.                         NO: One line per depth step
~Well Information
STRT.FT                2257.0000: Start Depth
STOP.FT                3002.0000: End Depth
STEP.FT                   0.2000:  
NULL.                    -999.25:  
COMP.                    BAPETCO: COMPANY
WELL.                BED 3 C18-M: WELL
FLD .                   BED AREA: FLD
SRVC.               Schlumberger: SERVICE COMPANY
LOC .                           : LOCATION
DATE.                  21-Sep-19: LOG DATE
UWI .                  19EGP0321: API NUMBER
~Curve Information
DEPT.FT                         : MWD Tool Measurement Depth
ROPI.FT/HR                      : Rate of Penetration (Time Based)
KPOSI.FT                         : Kelly Position (Raw)
HKL I.KLBF                       : Hook Load (Raw)
SPP I.PSI                        : Standpipe Pressure (Raw)
PSPD.FT/MIN                     : Instantaneous Pipe Speed
VIBC.CPS                        : Vibration Count
VIBXYH.                           : Vibration XY
VIBZH.                           : Vibration Z
SSS_H.                           : Stick Slip Percentage from HDS1
SSL_H.                           : Stick Slip Level from HDS1
RPM_H.                           : Average RPM from HDS1
#     DEPT      ROPI     KPOSI     HKL I     SPP I      PSPD      VIBC    VIBXYH     VIBZH     SSS_H     SSL_H     RPM_H
#       FT     FT/HR        FT      KLBF       PSI    FT/MIN       CPS                                                  
#
# Relog Number     0         0         0         0         0         0         0         0         0         0         0
#
~ASCII Data
# ...
 2846.6000    144.79     62.70    202.16   2635.24   -999.25     43.69      2.00      2.00     80.19      1.96    116.78
 2846.8000     79.46     62.05    203.43   2613.73   -999.25     46.00      2.00      2.00     58.07      1.18    122.44
 2847.0000    194.57     61.39    207.86   2583.56   -999.25     29.34      2.00      2.00     80.74      1.62    128.10
 2847.2000     80.64     60.73    208.37   2592.83   -999.25      7.11      2.00      2.00     94.35      1.82    133.75
 2847.4000    114.78     60.08    209.93   2607.97   -999.25      6.00      2.00      2.00     56.78      0.61    138.14
 2847.6000     96.95     59.42    209.28   2617.75   -999.25      6.00      2.00      2.00     38.64      0.21    138.70
 2847.8000     83.26     58.76    209.25   2652.67   -999.25      9.08      2.00      2.00     39.92      0.64    139.27
 2848.0000     99.63     58.10    208.69   2612.43   -999.25     14.00      2.00      2.00     41.39      1.00    139.83
 2848.2000    166.10     57.45    206.34   2573.10   -999.25     14.00      2.00      2.00     43.97      1.00    140.00
 2848.4000     89.30     56.79    206.50   2586.94   -999.25     15.25      2.00      2.00     42.73      0.68    140.00
 2848.6000    139.21     56.14    206.88   2599.43   -999.25     13.90      2.00      2.00     38.94      0.13    140.00
 2848.8000    234.14     55.48    211.15   2450.63   -999.25     18.49      2.00      2.00     39.01      0.14    139.62
 2849.0000    202.81     54.82    209.57   2460.90   -999.25     23.08      2.00      2.00     40.36      0.34    138.92
 2849.2000    221.95     54.17    206.81   2455.14   -999.25     20.89      2.00      2.00     41.70      0.53    138.23
 2849.4000    249.18     53.51    205.22   2479.36   -999.25     17.01      2.00      2.00     43.05      0.72    137.54
 2849.6000    248.79     52.85    204.42   2471.74   -999.25     13.13      2.00      2.00     44.39      0.91    136.84
 2849.8000    214.15     52.20    207.65   2613.97   -999.25      9.24      2.00      2.00     45.00      1.00    136.15
 2850.0000    252.02     51.54    204.91   2661.04   -999.25      5.36      2.00      2.00     45.00      1.00    135.46
 2850.2000    219.73     50.89    203.68   2645.28   -999.25      4.00      2.00      2.00     45.00      1.00    134.76
 2850.4000    269.83     50.23    201.75   2651.76   -999.25      4.00      2.00      2.00     45.00      1.00    134.07
 2850.6000    243.29     49.57    201.90   2600.62   -999.25      4.00      2.00      2.00     45.00      1.00    134.00
 2850.8000    182.58     48.92    200.11   2634.36   -999.25      4.08      2.00      2.00     45.00      1.00    134.00
 2851.0000    235.12     48.26    202.77   2634.82   -999.25      5.68      2.00      2.00     41.41      0.84    134.00
 2851.2000    206.97     47.60    201.99   2617.85   -999.25      7.28      2.00      2.00     37.18      0.64    134.00
 2851.4000    213.67     46.95    201.69   2644.34   -999.25      8.00      2.00      2.00     32.94      0.45    134.00
 2851.6000    134.93     46.29    203.51   2633.44   -999.25      8.00      2.00      2.00     28.71      0.26    134.00
 2851.8000    162.17     45.64    203.34   2628.43   -999.25      8.00      2.00      2.00     24.48      0.07    134.00
 2852.0000    189.16     44.98    204.32   2677.80   -999.25      8.00      2.00      2.00     22.78      0.00    134.00
 2852.2000    130.90     44.32    205.53   2667.84   -999.25      8.00      2.00      2.00     22.44      0.00    134.00
 2852.4000    195.63     43.67    202.54   2657.62   -999.25      8.00      2.00      2.00     22.09      0.00    134.00
 2852.6000    161.96     43.01    202.34   2636.49   -999.25      8.00      2.00      2.00     21.75      0.00    133.83
 2852.8000    283.70     42.36    202.45   2639.40   -999.25      8.00      2.00      2.00     21.41      0.00    133.26
 2853.0000    164.94     41.70    200.87   2674.83   -999.25      7.64      2.00      2.00     21.07      0.00    132.70
 2853.2000    248.21     41.04    202.30   2660.43   -999.25      5.82      2.00      2.00     27.26      0.23    132.13
 2853.4000     58.38     40.39    205.47   2670.67   -999.25      4.00      2.00      2.00     35.09      0.52    131.56
 2853.6000    199.10     39.73    201.96   2652.46   -999.25      4.00      2.00      2.00     42.91      0.81    130.99
 2853.8000    136.49     39.07    201.93   2644.84   -999.25      4.96      2.00      2.00     63.75      1.50    130.43
 2854.0000    128.70     38.42    201.54   2687.57   -999.25     14.56      2.00      2.00    108.75      2.93    127.89
 2854.2000    108.42     37.76    202.40   2671.31   -999.25     16.00      2.00      2.00    117.93      3.00    119.48
 2854.4000    164.33     37.13    202.92   2668.10   -999.25     22.00      2.00      2.00    134.75      3.00    113.11
 2854.6000    138.54     36.45    201.13   2696.86   -999.25     13.12      2.00      2.00    139.57      3.00    110.55
 2854.8000     56.87     35.79    202.83   2691.41   -999.25     12.00      2.00      2.00    140.00      3.00    108.00
 2855.0000    116.35     35.14    204.11   2712.94   -999.25     12.00      2.00      2.00    144.15      3.00    107.02
 2855.2000    192.84     34.48    204.75   2719.77   -999.25     14.40      2.00      2.00    148.30      3.00    106.05
 2855.4000    144.58     33.83    202.16   2712.54   -999.25     17.40      2.00      2.00    148.55      3.00    105.07
 2855.6000    189.04     33.17    202.92   2719.08   -999.25     18.00      2.00      2.00    141.55      3.00    104.10
 2855.8000    125.19     32.51    203.47   2698.89   -999.25     18.00      2.00      2.00    134.55      3.00    107.00
 2856.0000    191.68     31.86    204.89   2724.60   -999.25     18.00      2.00      2.00    128.78      3.00    110.33
 2856.2000    219.64     31.20    202.79   2705.14   -999.25     17.53      2.00      2.00    125.29      3.00    113.67
 2856.4000    161.69     30.54    202.13   2681.49   -999.25     12.82      2.00      2.00    121.79      3.00    117.00
 2856.6000    214.84     29.89    202.80   2727.36   -999.25     10.00      2.00      2.00    119.29      3.00    120.33
 2856.8000    184.02     29.23    205.03   2727.06   -999.25     10.00      2.00      2.00    119.82      3.00    120.78
 2857.0000    125.15     28.58    203.17   2713.93   -999.25     10.00      2.00      2.00    119.46      3.00    118.34
 2857.2000    160.95     27.94    205.56   2730.48   -999.25     10.00      2.00      2.00    119.11      3.00    115.90
 2857.4000    103.37     27.27    202.69   2699.88   -999.25     10.00      2.00      2.00    121.27      3.00    113.46
 2857.6000    145.98     26.62    200.21   2708.78   -999.25     10.00      2.00      2.00    124.52      3.00    111.56
 2857.8000    153.52     25.95    203.09   2717.44   -999.25     22.00      2.00      2.00    125.68      3.00    110.44
 2858.0000    179.07     25.30    205.29   2738.80   -999.25     22.00      2.00      2.00    126.57      3.00    109.33
 2858.2000    144.02     24.64    202.86   2721.37   -999.25     19.89      2.00      2.00    127.51      3.00    108.22
 2858.4000    199.47     23.98    202.45   2689.89   -999.25     14.60      2.00      2.00    128.45      3.00    110.16
 2858.6000    277.11     23.33    203.44   2740.67   -999.25      9.32      2.00      2.00    129.39      3.00    112.87
 2858.8000    280.64     22.67    201.22   2717.36   -999.25      8.00      2.00      2.00    128.18      3.00    115.57
 2859.0000    120.53     22.01    202.54   2763.51   -999.25      8.00      2.00      2.00    122.98      3.00    118.27
 2859.2000    107.00     21.36    202.33   2729.87   -999.25      7.97      2.00      2.00    117.78      3.00    120.97
 2859.4000    159.49     20.70    205.37   2732.09   -999.25      7.46      2.00      2.00    112.58      3.00    123.68
 2859.6000    214.27     20.06    205.91   2728.58   -999.25      6.95      2.00      2.00    107.38      3.00    126.38
 2859.8000    225.19     19.39    205.20   2734.59   -999.25      6.44      2.00      2.00     98.68      2.78    129.08
