~Version Information
VERS.                       2.00: SCHLUMBERGER LAS - Version 2.00
WRAP.                         NO: One line per depth step
~Well Information
STRT.FT                1138.0000: Start Depth
STOP.FT                2257.0000: End Depth
STEP.FT                   0.2000:  
NULL.                    -999.25:  
COMP.                    BAPETCO: COMPANY
WELL.                BED 3 C18-M: WELL
FLD .                   BED AREA: FLD
SRVC.               Schlumberger: SERVICE COMPANY
LOC .                           : LOCATION
DATE.                  19-Sep-19: LOG DATE
UWI .                  19EGP0321: API NUMBER
~Curve Information
DEPT.FT                         : MWD Tool Measurement Depth
ROPI.FT/HR                      : Rate of Penetration (Time Based)
KPOSI.FT                         : Kelly Position (Raw)
HKL I.KLBF                       : Hook Load (Raw)
SPP I.PSI                        : Standpipe Pressure (Raw)
PSPD.FT/MIN                     : Instantaneous Pipe Speed
VIBC.CPS                        : Vibration Count
VIBXYH.                           : Vibration XY
VIBZH.                           : Vibration Z
SSS_H.                           : Stick Slip Percentage from HDS1
SSL_H.                           : Stick Slip Level from HDS1
RPM_H.                           : Average RPM from HDS1
#     DEPT      ROPI     KPOSI     HKL I     SPP I      PSPD      VIBC    VIBXYH     VIBZH     SSS_H     SSL_H     RPM_H
#       FT     FT/HR        FT      KLBF       PSI    FT/MIN       CPS                                                  
#
# Relog Number     0         0         0         0         0         0         0         0         0         0         0
#
~ASCII Data
# ...
 1727.6000     44.44     86.22    186.67   2249.11   -999.25    476.00      9.50      4.00     15.58      0.00    116.00
 1727.8000     51.99     85.55    186.45   2249.51   -999.25    476.00      9.50      4.00     12.78      0.00    116.00
 1728.0000     79.68     84.90    182.31   2255.18   -999.25    476.00      9.50      4.00      9.98      0.00    116.00
 1728.2000     70.04     84.24    183.21   2260.68   -999.25    476.00      9.50      4.00      9.54      0.00    116.00
 1728.4000    108.00     83.60    183.24   2274.78   -999.25    476.00      9.50      4.00     10.37      0.00    116.18
 1728.6000     79.12     82.94    182.86   2248.67   -999.25    479.84      9.50      4.00     12.17      0.00    116.69
 1728.8000     45.07     82.27    184.63   2265.47   -999.25    495.23      9.50      4.00     16.85      0.00    117.21
 1729.0000     32.87     81.63    183.16   2268.54   -999.25    496.00      9.50      4.00     21.53      0.00    117.72
 1729.2000    113.32     80.97    186.41   2242.04   -999.25    496.00      9.50      4.00     15.81      0.00    116.77
 1729.4000     38.66     80.28    184.68   2224.07   -999.25    470.29      9.50      4.00     11.79      0.00    114.03
 1729.6000     91.71     79.66    183.56   2268.10   -999.25    442.00      9.50      4.00     14.42      0.00    111.29
 1729.8000     51.51     79.00    184.36   2259.26   -999.25    446.36      9.50      4.00     14.81      0.00    108.55
 1730.0000     40.95     78.32    183.98   2219.08   -999.25    466.00      9.50      4.00     12.00      0.00    108.00
 1730.2000     54.44     77.69    182.40   2236.23   -999.25    466.00      9.50      4.00     12.00      0.00    108.00
 1730.4000     48.63     77.03    182.73   2244.07   -999.25    464.88      9.50      4.00     20.94      0.00    108.00
 1730.6000     48.45     76.35    185.06   2296.00   -999.25    462.00      9.50      4.00     26.55      0.00    108.00
 1730.8000    120.65     75.69    186.23   2260.59   -999.25    462.00      9.50      4.00     20.74      0.00    109.49
 1731.0000     58.82     75.07    184.89   2258.05   -999.25    467.71      9.50      4.00     19.00      0.00    111.62
 1731.2000     97.84     74.41    183.16   2264.06   -999.25    470.00      9.50      4.00     19.00      0.00    113.74
 1731.4000    122.16     73.75    181.09   2251.29   -999.25    470.00      9.50      4.00     18.81      0.00    115.87
 1731.6000    100.35     73.10    185.25   2287.39   -999.25    480.00      9.50      4.00     15.09      0.00    118.00
 1731.8000    138.03     72.44    182.97   2210.71   -999.25    501.01      9.50      4.00     11.37      0.00    118.00
 1732.0000     88.72     71.78    184.52   2253.83   -999.25    495.27      9.50      4.00     10.32      0.00    118.00
 1732.2000     58.16     71.13    182.68   2256.25   -999.25    488.72      9.50      4.00      9.57      0.00    118.00
 1732.4000     56.54     70.47    182.16   2292.09   -999.25    484.62      8.70      4.00     10.98      0.00    118.00
 1732.6000     91.41     69.82    178.79   2242.21   -999.25    484.00      7.48      4.00     18.88      0.00    118.00
 1732.8000     34.15     69.16    191.08   2220.14   -999.25    488.32      8.00      4.00     22.91      0.00    114.92
 1733.0000    115.92     68.49    189.51   2269.13   -999.25    510.00      7.25      4.00      9.00      0.00    111.08
 1733.2000     93.70     67.83    186.96   2264.97   -999.25    502.56      6.50      4.00      9.00      0.00    107.23
 1733.4000     46.21     67.16    184.55   2229.29   -999.25    483.96      6.62      4.00      9.00      0.00    103.39
 1733.6000     82.08     66.52    183.95   2272.02   -999.25    470.00      7.88      4.00      8.58      0.00     99.54
 1733.8000    109.67     65.86    181.23   2239.55   -999.25    470.00      9.13      4.00      8.13      0.00     98.00
 1734.0000    154.85     65.22    184.68   2232.03   -999.25    470.00      9.50      4.00     18.37      0.26     98.00
 1734.2000    108.24     64.57    183.60   2264.87   -999.25    459.44      9.50      4.00     33.18      0.63     98.00
 1734.4000     60.10     63.89    183.02   2221.69   -999.25    438.33      9.11      4.00     48.00      1.00     98.00
 1734.6000     21.35     63.25    185.06   2285.88   -999.25    432.00      7.18      4.00     26.18      0.39     98.00
 1734.8000     74.01     62.57    181.99   2290.81   -999.25    433.80      6.50      4.00     12.00      0.00     98.00
 1735.0000    168.11     61.91    182.35   2260.09   -999.25    434.00      6.50      4.00     11.66      0.00     98.00
 1735.2000     87.45     61.29    182.65   2296.74   -999.25    433.19      6.50      4.00     11.26      0.00     98.00
 1735.4000     77.78     60.63    183.03   2255.44   -999.25    432.24      6.50      4.00     10.83      0.00     98.00
 1735.6000     51.35     59.97    183.73   2270.83   -999.25    432.00      6.50      4.00     10.34      0.00     98.00
 1735.8000     33.65     59.32    183.59   2227.47   -999.25    432.00      6.50      4.00     10.16      0.00     98.00
 1736.0000     57.67     58.66    182.35   2286.73   -999.25    433.09      6.50      4.00     10.68      0.00     98.00
 1736.2000     66.00     58.01    181.00   2284.75   -999.25    434.00      6.50      4.00     12.33      0.00     98.00
 1736.4000    121.92     57.35    183.66   2278.27   -999.25    434.00      6.50      4.00     15.00      0.00     98.00
 1736.6000     46.46     56.69    180.24   2238.31   -999.25    434.00      6.50      4.00     15.00      0.00     98.00
 1736.8000     85.74     56.04    182.05   2277.79   -999.25    434.00      6.50      4.00     13.93      0.00     98.00
 1737.0000     91.41     55.38    181.26   2251.62   -999.25    440.00      7.00      4.42     10.36      0.00     98.00
 1737.2000     89.07     54.69    183.39   2235.58   -999.25    496.00      8.05      5.29     14.26      0.00     98.00
 1737.4000     53.04     54.04    181.64   2251.71   -999.25    496.00      6.86      4.00     19.00      0.00     98.00
 1737.6000     45.21     53.40    184.61   2246.91   -999.25    469.74      8.68      4.00     12.55      0.00     98.11
 1737.8000     10.03     52.76    184.10   2215.60   -999.25    454.00      9.50      4.00     10.09      0.00     98.67
 1738.0000    122.84     52.10    179.98   2258.16   -999.25    446.89      7.17      4.00     12.51      0.00     99.22
 1738.2000     73.42     51.43    182.68   2270.02   -999.25    430.00      8.10      4.00     11.93      0.00     99.78
 1738.4000     89.01     50.79    182.37   2264.03   -999.25    430.00      8.37      4.94     10.65      0.00    100.00
 1738.6000     71.39     50.13    181.31   2245.27   -999.25    412.67      6.50      4.00     25.55      0.27    100.00
 1738.8000      0.76     49.48    180.88   2304.82   -999.25    406.00      6.50      4.00     60.10      0.88    100.00
 1739.0000     86.51     48.80    180.25   2253.68   -999.25    414.55      6.50      4.00     33.81      0.41    100.00
 1739.2000     99.98     48.13    182.02   2250.15   -999.25    428.00      6.50      4.00     23.41      0.31    100.00
 1739.4000     26.54     47.51    182.31   2226.20   -999.25    430.80      6.50      4.00     51.00      1.00    100.00
 1739.6000     10.41     46.85    181.93   2251.63   -999.25    432.00      6.50      4.00     10.00      0.00    100.00
 1739.8000     83.53     46.19    182.84   2261.09   -999.25    413.54      6.50      4.00     20.00      0.00    100.00
 1740.0000     68.92     45.51    180.88   2243.43   -999.25    374.00      6.50      4.00     18.31      0.00    100.00
 1740.2000    195.23     44.86    186.38   2272.68   -999.25    440.86      8.67      4.00     16.89      0.00    104.75
 1740.4000     51.67     44.19    181.93   2238.13   -999.25    482.00      9.50      4.00     19.80      0.00    109.75
 1740.6000    108.90     43.56    181.51   2211.41   -999.25    482.00      9.50      4.00     22.71      0.00    114.75
 1740.8000     96.84     42.88    180.12   2245.49   -999.25    481.42      9.50      4.00     19.73      0.00    119.75
