~Version Information
VERS.                       2.00: SCHLUMBERGER LAS - Version 2.00
WRAP.                         NO: One line per depth step
~Well Information
STRT.FT                2257.0000: Start Depth
STOP.FT                3002.0000: End Depth
STEP.FT                   0.2000:  
NULL.                    -999.25:  
COMP.                    BAPETCO: COMPANY
WELL.                BED 3 C18-M: WELL
FLD .                   BED AREA: FLD
SRVC.               Schlumberger: SERVICE COMPANY
LOC .                           : LOCATION
DATE.                  21-Sep-19: LOG DATE
UWI .                  19EGP0321: API NUMBER
~Curve Information
DEPT.FT                         : MWD Tool Measurement Depth
ROPI.FT/HR                      : Rate of Penetration (Time Based)
KPOSI.FT                         : Kelly Position (Raw)
HKL I.KLBF                       : Hook Load (Raw)
SPP I.PSI                        : Standpipe Pressure (Raw)
PSPD.FT/MIN                     : Instantaneous Pipe Speed
VIBC.CPS                        : Vibration Count
VIBXYH.                           : Vibration XY
VIBZH.                           : Vibration Z
SSS_H.                           : Stick Slip Percentage from HDS1
SSL_H.                           : Stick Slip Level from HDS1
RPM_H.                           : Average RPM from HDS1
#     DEPT      ROPI     KPOSI     HKL I     SPP I      PSPD      VIBC    VIBXYH     VIBZH     SSS_H     SSL_H     RPM_H
#       FT     FT/HR        FT      KLBF       PSI    FT/MIN       CPS                                                  
#
# Relog Number     0         0         0         0         0         0         0         0         0         0         0
#
~ASCII Data
# ...
 2458.0000    273.47     10.50    199.86   1989.77   -999.25      8.00      2.00      2.00    161.86      3.00     96.95
 2458.2000    113.62      9.84    198.93   1990.52   -999.25      8.00      2.00      2.00    162.38      3.00     97.82
 2458.4000    123.83      9.19    199.37   1983.69   -999.25      7.87      2.00      2.00    162.90      3.00    103.88
 2458.6000     51.32      8.50    199.66   2001.06   -999.25      5.37      2.00      2.00    155.33      3.00    109.94
 2458.8000    169.38      7.87    200.07   1996.41   -999.25      4.00      2.00      2.00    145.74      3.00    116.00
 2459.0000    173.13      7.22    198.51   2002.59   -999.25      4.00      2.00      2.00    136.15      3.00    122.06
 2459.2000     92.28      6.56    199.60   1979.83   -999.25      4.00      2.00      2.00    122.75      2.87    128.12
 2459.4000   -506.82      5.89    208.30   1945.61   -999.25      7.63      2.00      2.00     87.86      2.02    134.18
 2459.6000     91.54      5.25    198.48   1967.96   -999.25      6.15      2.00      2.00     52.96      1.17    137.05
 2459.8000    268.27     75.99    203.11   1998.55   -999.25      6.29      2.00      2.00     54.24      0.62    138.55
 2460.0000    262.62     99.23    199.44   2045.72   -999.25      7.24      2.00      2.00    118.37      2.69    140.05
 2460.2000    125.30     98.56    199.91   2009.68   -999.25      8.00      2.00      2.00     68.51      1.04    141.55
 2460.4000    151.34     97.93    198.76   1974.40   -999.25      9.12      2.00      2.00     35.63      0.00    141.50
 2460.6000    118.06     97.28    199.40   2011.18   -999.25     10.00      2.00      2.00     33.12      0.00    140.79
 2460.8000    111.99     96.61    196.56   2038.79   -999.25     10.00      2.00      2.00     38.74      0.35    140.07
 2461.0000    154.33     95.96    197.45   2000.66   -999.25     10.00      2.00      2.00     51.00      1.00    139.64
 2461.2000    101.49     95.28    198.84   2020.46   -999.25     10.00      2.00      2.00     62.32      1.38    139.23
 2461.4000    102.74     94.62    199.53   1997.64   -999.25      9.27      2.00      2.00     73.64      1.75    138.83
 2461.6000    122.81     93.96    198.54   2061.06   -999.25      8.29      2.00      2.00     78.17      1.85    138.42
 2461.8000    148.45     93.31    198.53   2038.27   -999.25      8.00      2.00      2.00     70.09      1.43    138.02
 2462.0000    118.23     92.65    199.02   2001.25   -999.25      9.60      2.00      2.00     62.00      1.00    135.41
 2462.2000     62.29     91.99    199.97   2069.33   -999.25     16.00      2.00      2.00     95.84      2.54    132.68
 2462.4000    179.36     91.34    203.43   2071.86   -999.25     16.00      2.00      2.00    109.35      3.00    129.95
 2462.6000    159.08     90.68    201.02   2088.04   -999.25     16.00      2.00      2.00    114.14      3.00    127.23
 2462.8000     93.08     90.04    201.31   2042.84   -999.25     16.00      2.00      2.00    118.93      3.00    125.82
 2463.0000     58.82     89.37    199.79   2083.36   -999.25     13.71      2.00      2.00    123.22      3.00    125.50
 2463.2000    121.54     88.75    199.22   2053.43   -999.25      9.14      2.00      2.00    124.69      3.00    125.18
 2463.4000    116.61     88.06    198.82   2101.58   -999.25      8.00      2.00      2.00    126.16      3.00    124.85
 2463.6000    118.14     87.41    199.31   2091.11   -999.25      8.00      2.00      2.00    127.63      3.00    124.53
 2463.8000    130.27     86.75    199.03   2039.05   -999.25      9.60      2.00      2.00    128.00      3.00    124.21
 2464.0000     85.93     86.09    197.79   2082.74   -999.25     14.17      2.00      2.00    128.00      3.00    123.91
 2464.2000     44.42     85.43    198.84   2081.74   -999.25     16.00      2.00      2.00    127.40      3.00    123.64
 2464.4000    116.73     84.78    197.03   2090.41   -999.25     16.00      2.00      2.00    125.00      3.00    123.37
 2464.6000    107.76     84.14    199.45   2077.59   -999.25     16.00      2.00      2.00    126.80      3.00    123.10
 2464.8000    163.02     83.50    201.45   2105.79   -999.25     13.42      2.00      2.00    128.59      3.00    122.83
 2465.0000    147.85     82.82    200.39   2069.28   -999.25     10.71      2.00      2.00    130.39      3.00    122.56
 2465.2000    133.19     82.17    199.60   2112.37   -999.25      8.00      2.00      2.00    131.39      3.00    122.30
 2465.4000    118.63     81.50    197.66   2084.35   -999.25      8.00      2.00      2.00    125.26      3.00    122.03
 2465.6000    213.17     80.87    198.93   2096.75   -999.25      8.00      2.00      2.00    119.14      3.00    125.51
 2465.8000    226.60     80.22    197.51   2080.86   -999.25     10.52      2.00      2.00     95.33      2.42    129.42
 2466.0000     64.59     79.54    197.39   2115.42   -999.25     14.00      2.00      2.00     62.01      1.53    133.32
 2466.2000    120.90     78.89    199.50   2101.16   -999.25     14.00      2.00      2.00     43.11      1.00    137.22
 2466.4000     58.06     78.21    200.45   2104.87   -999.25     12.40      2.00      2.00     45.89      1.00    137.63
 2466.6000    112.99     77.56    198.55   2079.29   -999.25     11.94      2.00      2.00     47.00      1.00    137.16
 2466.8000     63.22     76.94    199.50   2112.23   -999.25     10.76      2.00      2.00     47.00      1.00    136.70
 2467.0000    207.55     76.25    202.92   2145.94   -999.25     10.00      2.00      2.00     41.00      0.68    136.23
 2467.2000    119.00     75.61    200.09   2121.41   -999.25     10.00      2.00      2.00     34.33      0.33    134.85
 2467.4000    103.91     74.96    197.77   2073.21   -999.25     10.00      2.00      2.00     29.48      0.06    132.54
 2467.6000    100.93     74.28    200.31   2125.57   -999.25     10.00      2.00      2.00     58.74      1.17    130.23
 2467.8000     44.52     73.65    200.16   2120.32   -999.25     12.90      2.00      2.00     87.99      2.28    127.92
 2468.0000    145.00     72.98    198.79   2117.44   -999.25     16.00      2.00      2.00    112.80      3.00    125.61
 2468.2000     40.48     72.31    200.83   2065.38   -999.25     16.00      2.00      2.00    129.35      3.00    124.94
 2468.4000     50.27     71.69    199.40   2087.20   -999.25     16.00      2.00      2.00     91.40      1.97    128.05
 2468.6000     44.75     71.02    200.83   2080.53   -999.25     16.00      2.00      2.00     52.97      0.95    131.17
 2468.8000    154.95     70.34    196.06   2145.47   -999.25     16.00      2.00      2.00     46.07      0.60    134.29
 2469.0000    185.12     69.69    196.08   2059.71   -999.25     16.00      2.00      2.00     39.17      0.26    136.41
 2469.2000     73.05     69.03    196.88   2102.63   -999.25     18.57      2.00      2.00     32.47      0.00    137.32
 2469.4000    121.77     68.38    200.18   2088.29   -999.25     22.00      2.00      2.00     26.36      0.00    138.23
 2469.6000    111.09     67.73    198.93   2096.22   -999.25     22.00      2.00      2.00     28.75      0.25    139.14
 2469.8000    140.44     67.07    198.55   2084.87   -999.25     18.57      2.00      2.00     41.52      0.81    139.96
 2470.0000    182.43     66.40    199.29   2074.19   -999.25     16.00      2.00      2.00     47.47      1.00    139.18
 2470.2000    213.25     65.75    199.42   2116.93   -999.25     15.73      2.00      2.00     49.74      1.00    138.41
 2470.4000     73.39     65.12    201.68   2015.32   -999.25     13.91      2.00      2.00     52.00      1.00    137.63
 2470.6000    159.26     64.44    198.75   2061.30   -999.25     12.09      2.00      2.00     52.00      1.00    136.85
 2470.8000    125.38     63.78    199.10   2034.49   -999.25     12.00      2.00      2.00     52.00      1.00    136.08
 2471.0000    125.72     63.16    199.22   2031.19   -999.25     12.00      2.00      2.00     52.00      1.00    133.75
 2471.2000    196.50     62.47    199.17   2036.16   -999.25     12.00      2.00      2.00     58.35      1.00    131.25
