~Version Information
VERS.                       2.00: SCHLUMBERGER LAS - Version 2.00
WRAP.                         NO: One line per depth step
~Well Information
STRT.FT                2257.0000: Start Depth
STOP.FT                3002.0000: End Depth
STEP.FT                   0.2000:  
NULL.                    -999.25:  
COMP.                    BAPETCO: COMPANY
WELL.                BED 3 C18-M: WELL
FLD .                   BED AREA: FLD
SRVC.               Schlumberger: SERVICE COMPANY
LOC .                           : LOCATION
DATE.                  21-Sep-19: LOG DATE
UWI .                  19EGP0321: API NUMBER
~Curve Information
DEPT.FT                         : MWD Tool Measurement Depth
ROPI.FT/HR                      : Rate of Penetration (Time Based)
KPOSI.FT                         : Kelly Position (Raw)
HKL I.KLBF                       : Hook Load (Raw)
SPP I.PSI                        : Standpipe Pressure (Raw)
PSPD.FT/MIN                     : Instantaneous Pipe Speed
VIBC.CPS                        : Vibration Count
VIBXYH.                           : Vibration XY
VIBZH.                           : Vibration Z
SSS_H.                           : Stick Slip Percentage from HDS1
SSL_H.                           : Stick Slip Level from HDS1
RPM_H.                           : Average RPM from HDS1
#     DEPT      ROPI     KPOSI     HKL I     SPP I      PSPD      VIBC    VIBXYH     VIBZH     SSS_H     SSL_H     RPM_H
#       FT     FT/HR        FT      KLBF       PSI    FT/MIN       CPS                                                  
#
# Relog Number     0         0         0         0         0         0         0         0         0         0         0
#
~ASCII Data
# ...
 2605.4000    118.83     97.70    203.78   2162.21   -999.25      9.65      2.00      2.00     92.87      1.55    137.03
 2605.6000    101.31     97.05    205.34   2184.47   -999.25      4.94      2.00      2.00     55.53      0.55    138.00
 2605.8000     85.98     96.41    209.19   2214.78   -999.25      4.00      2.00      2.00     34.29      0.00    138.00
 2606.0000     62.72     95.73    209.61   2171.06   -999.25      5.26      2.00      2.00     32.71      0.00    138.00
 2606.2000      0.11     95.08    208.34   2200.63   -999.25      6.00      2.00      2.00     30.94      0.00    138.00
 2606.4000     75.46     94.42    208.57   2160.35   -999.25      6.00      2.00      2.00     29.00      0.00    138.38
 2606.6000     92.19     93.77    207.48   2156.05   -999.25      6.00      2.00      2.00     29.00      0.00    138.79
 2606.8000     20.38     93.11    208.34   2173.39   -999.25      6.00      2.00      2.00     29.00      0.00    139.19
 2607.0000     88.81     92.48    207.07   2217.61   -999.25      6.00      2.00      2.00     30.76      0.00    139.60
 2607.2000    187.96     91.80    205.41   2177.59   -999.25      6.00      2.00      2.00     32.72      0.00    140.00
 2607.4000    115.93     91.14    207.95   2179.82   -999.25      6.00      2.00      2.00     34.27      0.00    139.38
 2607.6000    226.30     90.51    204.52   2251.58   -999.25      6.00      2.00      2.00     35.05      0.00    138.77
 2607.8000    165.16     89.86    202.06   2203.68   -999.25      6.00      2.00      2.00     35.83      0.00    138.15
 2608.0000     38.64     89.17    207.48   2228.15   -999.25      6.00      2.00      2.00     36.61      0.00    137.54
 2608.2000    110.74     88.52    206.59   2206.23   -999.25      6.00      2.00      2.00     35.67      0.00    136.92
 2608.4000     78.36     87.86    205.04   2230.77   -999.25      6.00      2.00      2.00     33.00      0.00    136.31
 2608.6000     26.75     87.24    207.09   2206.78   -999.25      6.00      2.00      2.00     30.33      0.00    136.36
 2608.8000    111.84     86.57    205.35   2180.49   -999.25      5.14      2.00      2.00     29.33      0.00    137.09
 2609.0000     66.09     85.92    206.07   2232.79   -999.25      4.00      2.00      2.00     29.98      0.00    137.82
 2609.2000     98.08     85.25    206.15   2220.43   -999.25      4.00      2.00      2.00     30.64      0.00    138.55
 2609.4000     75.70     84.59    206.43   2242.04   -999.25      4.00      2.00      2.00     33.93      0.20    139.27
 2609.6000    127.29     83.92    205.68   2176.23   -999.25      4.00      2.00      2.00     40.46      0.63    140.00
 2609.8000     44.21     83.30    207.29   2226.80   -999.25      4.00      2.00      2.00     45.46      1.00    139.65
 2610.0000    140.14     82.64    205.49   2235.84   -999.25      4.00      2.00      2.00     41.89      1.00    139.29
 2610.2000     51.98     81.96    208.62   2245.99   -999.25      4.00      2.00      2.00     43.14      1.00    138.94
 2610.4000     55.99     81.30    208.43   2256.11   -999.25      4.00      2.00      2.00     46.00      1.00    138.58
 2610.6000     61.42     80.68    207.24   2216.17   -999.25      4.00      2.00      2.00     40.29      0.58    138.23
 2610.8000     34.60     79.99    209.29   2225.51   -999.25      4.00      2.00      2.00     31.05      0.00    137.74
 2611.0000     84.39     79.33    208.02   2226.83   -999.25      4.00      2.00      2.00     31.59      0.00    137.00
 2611.2000     32.71     78.71    209.38   2265.28   -999.25      4.00      2.00      2.00     32.58      0.00    136.26
 2611.4000     45.92     78.02    207.96   2202.47   -999.25      8.00      2.00      2.00     34.89      0.00    136.40
 2611.6000     53.43     77.36    208.34   2255.48   -999.25      8.00      2.00      2.00     37.88      0.00    137.02
 2611.8000     71.38     76.71    208.68   2251.63   -999.25      8.00      2.00      2.00     39.40      0.00    137.63
 2612.0000     62.86     76.08    207.96   2251.61   -999.25      8.00      2.00      2.00     37.40      0.00    138.00
 2612.2000     61.07     75.42    209.50   2214.52   -999.25      8.00      2.00      2.00     36.64      0.00    138.00
 2612.4000     71.72     74.74    208.21   2220.32   -999.25      6.85      2.00      2.00     36.20      0.00    138.00
 2612.6000     20.38     74.11    208.24   2209.27   -999.25      6.00      2.00      2.00     38.54      0.28    138.00
 2612.8000     61.69     73.46    208.38   2279.99   -999.25      6.00      2.00      2.00     43.16      0.80    137.78
 2613.0000     68.05     72.80    208.21   2245.24   -999.25      7.33      2.00      2.00     45.00      1.00    137.30
 2613.2000     77.74     72.13    208.18   2219.68   -999.25      8.00      2.00      2.00     45.00      1.00    136.82
 2613.4000     83.52     71.47    207.67   2251.52   -999.25      8.00      2.00      2.00     45.17      1.00    136.34
 2613.6000     77.83     70.83    207.54   2228.84   -999.25      8.00      2.00      2.00     45.74      1.00    136.00
 2613.8000     64.59     70.14    207.58   2284.29   -999.25      5.90      2.00      2.00     46.48      1.00    136.00
 2614.0000     72.95     69.50    205.63   2233.66   -999.25      6.31      2.00      2.00     47.35      1.00    136.00
 2614.2000     64.47     68.83    202.35   2206.23   -999.25     10.00      2.00      2.00     48.00      1.00    136.00
 2614.4000    167.46     68.18    200.74   2254.70   -999.25     10.00      2.00      2.00     48.00      1.00    133.83
 2614.6000     75.06     67.52    200.04   2270.27   -999.25     10.87      2.00      2.00     41.53      0.41    130.50
 2614.8000     26.03     66.86    201.49   2273.22   -999.25     13.37      2.00      2.00     49.70      0.42    127.17
 2615.0000     69.40     66.24    201.56   2203.31   -999.25     14.00      2.00      2.00     92.03      1.81    124.17
 2615.2000     91.64     65.55    205.77   2235.99   -999.25     14.00      2.00      2.00    127.65      3.00    127.57
 2615.4000    118.53     64.89    207.22   2248.86   -999.25     14.00      2.00      2.00    125.29      3.00    130.98
 2615.6000     94.72     64.27    206.87   2232.24   -999.25     11.08      2.00      2.00    122.94      3.00    134.38
 2615.8000     90.54     63.58    207.20   2215.72   -999.25      8.00      2.00      2.00    100.92      2.41    137.79
 2616.0000      0.00     62.93    209.00   2236.63   -999.25      8.00      2.00      2.00     65.81      1.44    140.00
 2616.2000      0.00     62.29    208.93   2209.80   -999.25      4.00      2.00      2.00     45.19      1.00    140.00
 2616.4000     92.79     61.61    208.02   2262.86   -999.25      4.23      2.00      2.00     37.33      0.59    140.00
 2616.6000     79.28     60.97    209.09   2227.43   -999.25      5.41      2.00      2.00     29.76      0.05    140.00
 2616.8000     68.67     60.30    208.19   2282.71   -999.25      6.00      2.00      2.00     39.00      0.50    140.00
 2617.0000      6.34     59.65    207.76   2248.21   -999.25      6.00      2.00      2.00     49.17      1.00    139.05
 2617.2000     92.70     59.02    207.50   2288.38   -999.25      6.00      2.00      2.00     50.83      1.00    137.70
 2617.4000     42.10     58.33    207.76   2273.44   -999.25      6.00      2.00      2.00     49.29      0.81    136.34
 2617.6000     72.60     57.68    208.81   2230.10   -999.25      6.00      2.00      2.00     40.26      0.16    136.00
 2617.8000     63.98     57.03    208.31   2243.02   -999.25      6.00      2.00      2.00     45.97      0.47    136.00
 2618.0000     50.17     56.36    208.19   2237.65   -999.25      6.00      2.00      2.00     54.69      1.00    136.00
 2618.2000      1.76     55.74    207.67   2188.40   -999.25      6.00      2.00      2.00     52.62      1.00    136.24
 2618.4000     71.54     55.08    208.15   2248.81   -999.25      6.00      2.00      2.00     53.44      1.00    136.84
 2618.6000     33.00     54.41    206.91   2287.22   -999.25      7.08      2.00      2.00     55.49      1.00    137.43
