~Version Information
VERS.                       2.00: SCHLUMBERGER LAS - Version 2.00
WRAP.                         NO: One line per depth step
~Well Information
STRT.FT                2257.0000: Start Depth
STOP.FT                3002.0000: End Depth
STEP.FT                   0.2000:  
NULL.                    -999.25:  
COMP.                    BAPETCO: COMPANY
WELL.                BED 3 C18-M: WELL
FLD .                   BED AREA: FLD
SRVC.               Schlumberger: SERVICE COMPANY
LOC .                           : LOCATION
DATE.                  21-Sep-19: LOG DATE
UWI .                  19EGP0321: API NUMBER
~Curve Information
DEPT.FT                         : MWD Tool Measurement Depth
ROPI.FT/HR                      : Rate of Penetration (Time Based)
KPOSI.FT                         : Kelly Position (Raw)
HKL I.KLBF                       : Hook Load (Raw)
SPP I.PSI                        : Standpipe Pressure (Raw)
PSPD.FT/MIN                     : Instantaneous Pipe Speed
VIBC.CPS                        : Vibration Count
VIBXYH.                           : Vibration XY
VIBZH.                           : Vibration Z
SSS_H.                           : Stick Slip Percentage from HDS1
SSL_H.                           : Stick Slip Level from HDS1
RPM_H.                           : Average RPM from HDS1
#     DEPT      ROPI     KPOSI     HKL I     SPP I      PSPD      VIBC    VIBXYH     VIBZH     SSS_H     SSL_H     RPM_H
#       FT     FT/HR        FT      KLBF       PSI    FT/MIN       CPS                                                  
#
# Relog Number     0         0         0         0         0         0         0         0         0         0         0
#
~ASCII Data
# ...
 2940.4000    192.94     39.21    209.57   2534.80   -999.25      5.68      2.00      2.00     50.00      1.00    134.00
 2940.6000    173.92     38.56    208.76   2532.42   -999.25      5.09      2.00      2.00     50.00      1.00    134.00
 2940.8000    137.07     37.89    209.56   2542.91   -999.25      4.50      2.00      2.00     50.00      1.00    134.00
 2941.0000    141.22     37.25    209.42   2530.61   -999.25      4.00      2.00      2.00     43.31      0.72    134.00
 2941.2000    105.05     36.61    209.97   2555.51   -999.25      4.00      2.00      2.00     35.44      0.39    134.05
 2941.4000    161.04     35.93    208.29   2529.47   -999.25      4.00      2.00      2.00     27.57      0.07    135.02
 2941.6000    147.05     35.27    207.15   2532.70   -999.25     12.00      2.00      2.00     26.82      0.00    136.00
 2941.8000      0.20     34.61    206.43   2532.10   -999.25     16.00      2.00      3.67     27.85      0.00    136.98
 2942.0000     91.35     33.96    206.25   2515.67   -999.25     25.33      2.00      4.00     22.73      0.00    137.95
 2942.2000     70.01     33.30    205.82   2542.15   -999.25     33.65      2.00      2.00     18.27      0.00    137.19
 2942.4000    111.29     32.64    205.67   2569.10   -999.25     18.00      2.00      2.00     20.00      0.00    136.34
 2942.6000    122.63     31.99    207.81   2519.44   -999.25     18.00      2.00      2.00     29.99      0.00    133.83
 2942.8000    186.17     31.33    207.54   2533.68   -999.25     18.00      2.00      2.00     60.88      1.02    130.22
 2943.0000    112.65     30.68    206.75   2530.07   -999.25     17.03      2.00      3.03     94.10      2.15    126.61
 2943.2000     20.79     30.02    207.83   2524.89   -999.25     15.10      2.00      3.90    119.00      3.00    123.00
 2943.4000    118.21     29.36    206.40   2553.33   -999.25     13.16      2.00      3.52    119.00      3.00    119.39
 2943.6000    250.27     28.71    206.62   2552.74   -999.25     12.00      2.00      3.14    119.00      3.00    115.78
 2943.8000    276.22     28.05    205.87   2544.05   -999.25     12.00      2.00      2.76    119.00      3.00    112.17
 2944.0000     11.71     27.40    207.57   2553.55   -999.25     12.00      2.00      2.38    119.00      3.00    105.79
 2944.2000    309.23     26.74    206.26   2549.87   -999.25     11.88      2.00      2.00    119.00      3.00     95.29
 2944.4000    155.10     26.08    205.62   2520.40   -999.25      9.48      2.00      2.00    108.17      2.68     84.78
 2944.6000    190.95     25.43    206.72   2550.02   -999.25      7.08      2.00      2.00     81.06      1.90     74.27
 2944.8000    255.36     24.77    204.68   2550.76   -999.25      6.00      2.00      2.00     53.96      1.11     63.77
 2945.0000     17.30     24.11    205.49   2572.16   -999.25      6.00      2.00      2.00     26.85      0.32     53.26
 2945.2000     94.53     23.46    209.47   2515.69   -999.25      7.33      2.00      2.00    211.00      3.00     57.82
 2945.4000     47.27     22.80    206.91   2536.92   -999.25     10.00      2.00      2.00    211.00      3.00     77.47
 2945.6000     45.13     22.15    206.82   2530.20   -999.25      9.53      2.00      2.00    174.47      3.00     97.13
 2945.8000    117.29     21.49    208.74   2504.77   -999.25      6.00      2.00      2.00    137.40      3.00    106.89
 2946.0000     39.79     20.83    208.43   2561.89   -999.25     12.00      2.00      2.00    133.00      3.00    111.33
 2946.2000     61.33     20.19    210.60   2532.06   -999.25     10.91      2.00      2.00    126.60      3.00    111.17
 2946.4000    145.39     19.52    210.11   2517.65   -999.25      7.27      2.00      2.00    125.00      3.00    110.20
 2946.6000     84.16     18.89    210.00   2580.19   -999.25      6.00      2.00      2.00    125.00      3.00    109.22
 2946.8000     81.40     18.21    207.50   2594.70   -999.25      6.00      2.00      2.00    125.00      3.00    108.24
 2947.0000    201.96     17.55    208.77   2588.50   -999.25      6.00      2.00      2.00    117.84      2.77    107.27
 2947.2000      0.05     16.90    210.04   2569.79   -999.25      6.00      2.00      2.00    105.92      2.38    106.29
 2947.4000     16.56     16.24    209.29   2540.78   -999.25      6.00      2.00      2.00     94.00      2.00    107.58
 2947.6000    116.14     15.58    208.65   2587.92   -999.25      7.78      2.00      2.00    103.34      2.67    109.83
 2947.8000     44.61     14.94    209.45   2576.00   -999.25     12.00      2.00      2.00    108.00      3.00    112.08
 2948.0000     25.81     14.30    207.24   2588.34   -999.25     12.00      2.00      2.00    108.00      3.00    113.58
 2948.2000     30.30     13.62    203.32   2590.02   -999.25     12.00      2.00      2.00    114.00      3.00    110.81
 2948.4000     15.06     12.96    201.97   2584.07   -999.25      7.35      2.00      2.00    120.00      3.00    108.03
 2948.6000     68.65     12.31    204.39   2587.28   -999.25      4.00      2.00      2.00    120.00      3.00    105.25
 2948.8000      1.44     11.68    205.96   2598.02   -999.25      4.00      2.00      2.00    120.00      3.00    104.79
 2949.0000     25.87     10.99    206.12   2619.26   -999.25     11.16      2.00      2.00    131.11      3.00    106.21
 2949.2000    124.28     10.35    206.61   2573.09   -999.25     13.85      2.00      2.00    132.16      3.00    107.64
 2949.4000      6.28      9.68    206.91   2576.67   -999.25     23.84      2.00      2.00     92.19      1.91    120.00
 2949.6000     89.28      9.02    207.67   2628.98   -999.25     22.00      2.00      2.00     42.99      0.25    135.99
 2949.8000     85.11      8.37    209.47   2605.32   -999.25     20.50      2.00      2.00     72.83      1.36    122.91
 2950.0000      0.00      7.71    209.48   2608.44   -999.25     10.50      2.00      2.00    117.72      3.00    109.82
 2950.2000     86.15      7.09    207.99   2617.26   -999.25      8.00      2.00      2.00    124.86      3.00    103.22
 2950.4000    172.15      6.42    209.81   2601.57   -999.25      8.75      2.00      2.00    132.00      3.00    116.08
 2950.6000     16.94      5.74    210.12   2608.79   -999.25     12.50      2.00      2.00    124.22      3.00    128.93
 2950.8000    334.88     99.61    210.34   2635.10   -999.25     14.00      2.00      2.00    116.45      3.00    128.76
 2951.0000    266.28     98.95    206.27   2601.42   -999.25     14.00      2.00      2.00    108.67      3.00    112.67
 2951.2000    100.72     98.32    211.74   2537.44   -999.25     11.42      2.00      2.00    111.70      3.00     96.58
 2951.4000    259.85     97.64    208.62   2585.35   -999.25      4.97      2.00      2.00    130.98      3.00     80.49
 2951.6000    294.35     96.98    205.29   2568.77   -999.25      4.00      2.00      2.00    150.26      3.00     64.40
 2951.8000     43.94     96.33    208.62   2599.99   -999.25      4.00      2.00      2.00    169.54      3.00     71.31
 2952.0000     84.20     95.68    207.86   2573.05   -999.25      4.00      2.00      2.00    170.39      2.80     82.25
 2952.2000      0.00     95.05    210.14   2605.98   -999.25      4.00      2.00      2.00    115.99      2.00     93.19
 2952.4000    222.53     94.36    208.99   2548.40   -999.25      4.83      2.00      2.00     61.59      1.20    104.14
 2952.6000    149.92     93.70    209.83   2560.54   -999.25      5.70      2.00      2.00     49.05      1.00    115.08
 2952.8000     91.83     93.08    209.85   2559.68   -999.25      6.00      2.00      2.00     50.46      1.00    119.69
 2953.0000    459.71     92.39    206.74   2599.24   -999.25      6.53      2.00      2.00     51.86      1.00    119.14
 2953.2000    271.03     91.73    208.96   2545.75   -999.25      8.00      2.00      2.00    114.54      2.90    118.58
 2953.4000    113.85     91.09    208.10   2571.80   -999.25      8.00      2.00      2.00    122.17      3.00    118.03
 2953.6000     85.81     90.42    206.65   2604.98   -999.25      8.00      2.00      2.00    126.56      3.00    107.14
