~Version Information
VERS.                       2.00: SCHLUMBERGER LAS - Version 2.00
WRAP.                         NO: One line per depth step
~Well Information
STRT.FT                2257.0000: Start Depth
STOP.FT                3002.0000: End Depth
STEP.FT                   0.2000:  
NULL.                    -999.25:  
COMP.                    BAPETCO: COMPANY
WELL.                BED 3 C18-M: WELL
FLD .                   BED AREA: FLD
SRVC.               Schlumberger: SERVICE COMPANY
LOC .                           : LOCATION
DATE.                  21-Sep-19: LOG DATE
UWI .                  19EGP0321: API NUMBER
~Curve Information
DEPT.FT                         : MWD Tool Measurement Depth
ROPI.FT/HR                      : Rate of Penetration (Time Based)
KPOSI.FT                         : Kelly Position (Raw)
HKL I.KLBF                       : Hook Load (Raw)
SPP I.PSI                        : Standpipe Pressure (Raw)
PSPD.FT/MIN                     : Instantaneous Pipe Speed
VIBC.CPS                        : Vibration Count
VIBXYH.                           : Vibration XY
VIBZH.                           : Vibration Z
SSS_H.                           : Stick Slip Percentage from HDS1
SSL_H.                           : Stick Slip Level from HDS1
RPM_H.                           : Average RPM from HDS1
#     DEPT      ROPI     KPOSI     HKL I     SPP I      PSPD      VIBC    VIBXYH     VIBZH     SSS_H     SSL_H     RPM_H
#       FT     FT/HR        FT      KLBF       PSI    FT/MIN       CPS                                                  
#
# Relog Number     0         0         0         0         0         0         0         0         0         0         0
#
~ASCII Data
# ...
 2310.6000    151.12     25.19    188.03   2051.35   -999.25     15.00      2.00      2.00    157.00      3.00     88.00
 2310.8000     54.85     24.51    189.48   2070.85   -999.25     16.00      2.00      2.00    157.00      3.00     88.00
 2311.0000     30.57     23.88    188.76   2095.75   -999.25     15.08      2.00      2.00    156.20      3.00     88.00
 2311.2000     62.44     23.21    188.10   2103.95   -999.25     12.00      2.00      2.00    155.58      3.00     88.36
 2311.4000     41.46     22.56    189.25   2059.13   -999.25     12.62      2.00      2.00    161.37      3.00     88.96
 2311.6000     63.54     21.89    188.54   2111.98   -999.25     18.77      2.00      2.00    165.36      3.00     89.55
 2311.8000     55.92     21.26    187.35   2044.10   -999.25     20.00      2.00      2.00    162.13      3.00     90.15
 2312.0000     62.28     20.60    186.58   2074.61   -999.25     20.00      2.00      2.00    162.15      3.00     90.76
 2312.2000     46.96     19.93    188.00   2064.91   -999.25     16.14      2.00      2.00    163.91      3.00     91.36
 2312.4000     98.13     19.29    187.82   2089.32   -999.25     14.00      2.00      2.00    159.66      3.00     91.97
 2312.6000     74.57     18.64    187.28   2053.82   -999.25     14.00      2.00      2.00    156.00      3.00     92.00
 2312.8000     94.14     17.98    188.01   2121.00   -999.25     14.00      2.00      2.00    156.00      3.00     92.00
 2313.0000     95.30     17.30    187.62   2094.33   -999.25     14.00      2.00      2.00    155.51      3.00     92.00
 2313.2000     67.25     16.63    188.04   2045.81   -999.25     14.00      2.00      2.00    153.89      3.00     92.00
 2313.4000     82.41     16.01    189.14   2075.41   -999.25     14.00      2.00      2.00    151.62      3.00     92.00
 2313.6000     90.46     15.35    187.53   2082.70   -999.25     13.13      2.00      2.00    148.54      3.00     92.00
 2313.8000     86.47     14.67    185.06   2087.62   -999.25     12.00      2.00      2.00    147.29      3.00     92.00
 2314.0000     59.98     14.04    186.51   2083.37   -999.25     12.00      2.00      2.00    147.86      3.00     92.58
 2314.2000     19.00     13.39    184.09   2068.12   -999.25     12.00      2.00      2.00    147.58      3.00     93.63
 2314.4000     54.84     12.73    183.63   2076.65   -999.25     13.17      2.00      2.00    147.03      3.00     94.68
 2314.6000     44.96     12.04    185.16   2091.87   -999.25     14.00      2.00      2.00    151.62      3.00     95.74
 2314.8000     41.85     11.42    188.51   2075.41   -999.25     14.00      2.00      2.00    156.05      3.00     95.17
 2315.0000     36.62     10.73    189.71   2126.01   -999.25     14.00      2.00      2.00    156.58      3.00     94.06
 2315.2000     71.52     10.07    189.90   2107.82   -999.25     14.00      2.00      2.00    155.94      3.00     92.94
 2315.4000     39.19      9.42    188.49   2096.46   -999.25     14.00      2.00      2.00    150.65      3.00     91.84
 2315.6000     40.14      8.76    188.63   2100.81   -999.25     12.00      2.00      2.00    150.11      3.00     90.74
 2315.8000     47.56      8.12    188.38   2083.28   -999.25     12.00      2.00      2.00    155.42      3.00     89.64
 2316.0000     55.75      7.47    188.16   2095.61   -999.25     12.00      2.00      2.00    161.08      3.00     88.55
 2316.2000    133.06      6.79    189.08   2097.26   -999.25     12.00      2.00      2.00    161.88      3.00     88.00
 2316.4000     22.98      6.17    188.69   2109.44   -999.25     12.00      2.00      2.00    162.00      3.00     88.00
 2316.6000    100.24      5.51    186.72   2081.15   -999.25      3.44      2.00      2.00    162.00      3.00     88.00
 2316.8000     45.17      4.82    185.30   2135.64   -999.25     18.00      2.00      2.00    165.20      3.00     88.00
 2317.0000    189.16     98.69    192.85   2123.36   -999.25     20.06      2.00      2.00    170.76      3.00     77.18
 2317.2000   -526.81     97.17    187.34   2138.81   -999.25     22.00      2.00      2.00    176.70      3.00     97.55
 2317.4000     96.43     97.36    186.25   2142.00   -999.25     29.78      2.00      2.00    149.48      3.00    117.93
 2317.6000    140.00     95.57    188.29   2133.24   -999.25     36.00      2.00      2.00    135.00      3.00    121.25
 2317.8000     86.50     94.91    189.14   2141.08   -999.25     34.59      2.00      2.00    135.00      3.00    120.31
 2318.0000     49.02     94.26    188.76   2101.19   -999.25     25.18      2.00      2.00    135.00      3.00    119.36
 2318.2000    113.54     93.60    187.82   2178.92   -999.25     20.00      2.00      2.00    128.67      3.00    118.42
 2318.4000     57.03     92.95    188.13   2131.53   -999.25     19.37      2.00      2.00    124.66      3.00    117.55
 2318.6000     87.92     92.29    187.48   2119.70   -999.25     16.00      2.00      2.00    135.78      3.00    116.73
 2318.8000    109.77     91.61    190.79   2101.10   -999.25     16.40      2.00      2.00    143.00      3.00    116.12
 2319.0000     78.43     90.98    188.76   2067.91   -999.25     20.00      2.00      2.00    143.00      3.00    117.37
 2319.2000     17.67     90.32    189.14   2083.33   -999.25     20.00      2.00      2.00    137.61      3.00    118.62
 2319.4000     47.70     89.67    188.15   2072.11   -999.25     17.94      2.00      2.00    131.27      3.00    119.87
 2319.6000     88.70     89.01    187.93   2098.10   -999.25     16.00      2.00      2.00    128.00      3.00    121.13
 2319.8000      0.25     88.35    187.62   2078.87   -999.25     16.00      2.00      2.00    125.50      3.00    121.71
 2320.0000    115.92     87.70    186.68   2128.49   -999.25     16.00      2.00      2.00    125.00      3.00    120.76
 2320.2000     67.22     87.04    188.84   2096.27   -999.25     14.89      2.00      2.00    125.00      3.00    119.81
 2320.4000     42.51     86.36    187.66   2076.41   -999.25     12.67      2.00      2.00    125.34      3.00    118.86
 2320.6000     91.04     85.73    186.74   2046.55   -999.25     12.00      2.00      2.00    128.67      3.00    118.00
 2320.8000     61.75     85.04    187.82   2020.08   -999.25     15.15      2.00      2.00    129.00      3.00    118.00
 2321.0000     78.43     84.42    187.91   2031.84   -999.25     18.00      2.00      2.00    127.33      3.00    118.00
 2321.2000     73.41     83.76    188.45   1967.19   -999.25     18.00      2.00      2.00    127.62      3.00    118.00
 2321.4000     73.68     83.10    186.96   1916.28   -999.25     18.00      2.00      2.00    135.73      3.00    117.84
 2321.6000     99.93     82.45    187.53   1931.27   -999.25     19.20      2.00      2.00    142.29      3.00    116.76
 2321.8000     17.43     81.79    187.72   1917.86   -999.25     20.00      2.00      2.00    145.97      3.00    115.68
 2322.0000     59.40     81.14    185.37   1982.48   -999.25     20.00      2.00      2.00    148.00      3.00    114.60
 2322.2000     75.19     80.48    186.83   2006.43   -999.25     23.20      2.00      2.00    148.00      3.00    115.11
 2322.4000     49.60     79.82    191.80   1998.47   -999.25     24.00      2.00      2.00    127.23      3.00    117.59
 2322.6000     73.44     79.17    188.19   2006.68   -999.25     23.24      2.00      2.00    128.38      3.00    120.06
 2322.8000     91.59     78.51    187.91   2000.53   -999.25     19.43      2.00      2.00    129.54      3.00    122.54
 2323.0000     31.72     77.85    188.86   2078.67   -999.25     16.00      2.00      2.00    129.16      3.00    125.01
 2323.2000    133.64     77.20    186.36   2010.65   -999.25     16.00      2.00      2.00    127.77      3.00    124.82
 2323.4000     80.81     76.54    187.64   2051.49   -999.25     16.00      2.00      2.00    127.00      3.00    122.84
 2323.6000     74.19     75.89    187.91   2074.09   -999.25     16.00      2.00      2.00    127.00      3.00    120.86
 2323.8000     63.54     75.23    189.93   2105.02   -999.25     16.14      2.00      2.00    130.53      3.00    118.89
