~Version Information
VERS.                       2.00: SCHLUMBERGER LAS - Version 2.00
WRAP.                         NO: One line per depth step
~Well Information
STRT.FT                2257.0000: Start Depth
STOP.FT                3002.0000: End Depth
STEP.FT                   0.2000:  
NULL.                    -999.25:  
COMP.                    BAPETCO: COMPANY
WELL.                BED 3 C18-M: WELL
FLD .                   BED AREA: FLD
SRVC.               Schlumberger: SERVICE COMPANY
LOC .                           : LOCATION
DATE.                  21-Sep-19: LOG DATE
UWI .                  19EGP0321: API NUMBER
~Curve Information
DEPT.FT                         : MWD Tool Measurement Depth
ROPI.FT/HR                      : Rate of Penetration (Time Based)
KPOSI.FT                         : Kelly Position (Raw)
HKL I.KLBF                       : Hook Load (Raw)
SPP I.PSI                        : Standpipe Pressure (Raw)
PSPD.FT/MIN                     : Instantaneous Pipe Speed
VIBC.CPS                        : Vibration Count
VIBXYH.                           : Vibration XY
VIBZH.                           : Vibration Z
SSS_H.                           : Stick Slip Percentage from HDS1
SSL_H.                           : Stick Slip Level from HDS1
RPM_H.                           : Average RPM from HDS1
#     DEPT      ROPI     KPOSI     HKL I     SPP I      PSPD      VIBC    VIBXYH     VIBZH     SSS_H     SSL_H     RPM_H
#       FT     FT/HR        FT      KLBF       PSI    FT/MIN       CPS                                                  
#
# Relog Number     0         0         0         0         0         0         0         0         0         0         0
#
~ASCII Data
# ...
 2994.0000    182.07     52.66    209.21   2589.54   -999.25     12.00      2.00      2.00    108.10      2.16    117.93
 2994.2000    134.00     52.00    205.75   2573.26   -999.25     12.00      2.00      2.00    142.00      3.00    114.48
 2994.4000      0.35     51.31    209.57   2560.74   -999.25     13.53      2.00      2.00    140.59      3.00    111.03
 2994.6000     72.91     50.66    210.00   2571.20   -999.25     19.46      2.00      2.00    121.32      3.00    111.71
 2994.8000     83.50     50.03    208.43   2612.86   -999.25     24.00      2.00      2.00    124.69      3.00    114.16
 2995.0000     89.39     49.38    207.96   2541.00   -999.25     24.00      2.00      2.00    130.29      3.00    114.50
 2995.2000    160.30     48.70    208.64   2557.91   -999.25     18.11      2.00      2.00    132.89      3.00    108.50
 2995.4000     67.55     48.06    208.59   2567.29   -999.25     10.00      2.00      2.00    128.47      3.00    105.89
 2995.6000     92.04     47.41    208.62   2581.74   -999.25      6.00      2.00      2.00    130.00      3.00    113.46
 2995.8000    141.93     46.75    209.08   2565.46   -999.25      4.00      2.00      2.00    129.47      3.00    115.87
 2996.0000    121.69     46.08    209.28   2529.73   -999.25     14.00      2.00      2.00    128.13      3.00    110.53
 2996.2000     79.05     45.44    209.85   2551.26   -999.25     14.00      2.00      2.00    126.00      3.00    107.49
 2996.4000     60.36     44.75    206.39   2582.91   -999.25      9.71      2.00      2.00    122.52      3.00    104.70
 2996.6000    188.94     44.12    211.01   2568.39   -999.25     14.00      2.00      2.00    127.20      3.00    112.00
 2996.8000     77.24     43.47    212.51   2582.85   -999.25     14.00      2.00      2.00    122.57      3.00    120.30
 2997.0000     35.18     42.78    211.09   2519.63   -999.25     14.00      2.00      2.00    119.43      3.00    121.51
 2997.2000     79.29     42.15    210.30   2561.20   -999.25     12.42      2.00      2.00    125.00      3.00    123.23
 2997.4000    164.71     41.47    209.74   2583.95   -999.25     20.00      2.00      2.00    131.67      3.00    125.28
 2997.6000     40.19     40.82    211.11   2525.06   -999.25     18.40      2.00      2.00    137.00      3.00    121.95
 2997.8000     77.99     40.19    210.61   2514.75   -999.25     12.00      2.00      2.00    130.00      3.00    115.73
 2998.0000    143.37     39.53    209.46   2550.76   -999.25     13.88      2.00      2.00    126.72      3.00    113.82
 2998.2000    156.37     38.88    210.42   2548.57   -999.25     13.57      2.00      2.00    125.34      3.00    118.36
 2998.4000     38.51     38.22    210.69   2532.56   -999.25     12.00      2.00      2.00    125.00      3.00    121.00
 2998.6000    140.19     37.57    208.84   2565.76   -999.25     12.00      2.00      2.00    125.30      3.00    116.00
 2998.8000    168.05     36.89    210.02   2563.74   -999.25      8.00      2.00      2.00    125.91      3.00    111.00
 2999.0000    123.42     36.22    209.85   2584.27   -999.25      6.00      2.00      2.00    126.00      3.00    106.00
 2999.2000     63.76     35.60    209.67   2577.51   -999.25     14.57      2.00      2.00    123.60      3.00    106.75
 2999.4000     36.39     34.94    211.74   2571.25   -999.25     18.00      2.00      2.00    120.83      3.00    107.51
 2999.6000     78.52     34.28    210.02   2569.50   -999.25     16.00      2.00      2.00    127.92      3.00    109.40
 2999.8000    155.45     33.63    208.34   2569.54   -999.25     14.11      2.00      2.00    131.63      3.00    113.40
 3000.0000     70.55     32.96    210.11   2582.77   -999.25     14.00      2.00      2.00    134.84      3.00    115.49
 3000.2000     66.64     32.32    211.82   2553.08   -999.25     13.20      2.00      2.00    135.00      3.00    114.04
 3000.4000     94.58     31.66    209.86   2594.09   -999.25     12.00      2.00      2.00    131.72      3.00    112.58
 3000.6000    115.99     31.00    210.97   2586.11   -999.25     12.00      2.00      2.00    128.00      3.00    110.22
 3000.8000    111.08     30.33    210.02   2562.75   -999.25      9.00      2.00      2.00    128.00      3.00    107.26
 3001.0000    189.16     29.69    209.66   2589.71   -999.25      8.00      2.00      2.00    128.00      3.00    104.30
 3001.2000    111.71     29.01    208.49   2566.91   -999.25      8.00      2.00      2.00    125.50      3.00    101.33
 3001.4000     72.29     28.36    208.58   2572.16   -999.25      8.00      2.00      2.00    123.44      3.00    102.89
 3001.6000    142.42     27.71    211.44   2773.45   -999.25      8.00      2.00      2.00    134.42      3.00    108.16
 3001.8000    111.23     27.07    209.32   2786.93   -999.25      8.00      2.00      2.00    125.47      3.00    108.82
 3002.0000     76.41     26.39    208.81   2765.08   -999.25      8.00      2.00      2.00    120.17      3.00    107.00
