~Version Information
VERS.                       2.00: SCHLUMBERGER LAS - Version 2.00
WRAP.                         NO: One line per depth step
~Well Information
STRT.FT                1138.0000: Start Depth
STOP.FT                2257.0000: End Depth
STEP.FT                   0.2000:  
NULL.                    -999.25:  
COMP.                    BAPETCO: COMPANY
WELL.                BED 3 C18-M: WELL
FLD .                   BED AREA: FLD
SRVC.               Schlumberger: SERVICE COMPANY
LOC .                           : LOCATION
DATE.                  19-Sep-19: LOG DATE
UWI .                  19EGP0321: API NUMBER
~Curve Information
DEPT.FT                         : MWD Tool Measurement Depth
ROPI.FT/HR                      : Rate of Penetration (Time Based)
KPOSI.FT                         : Kelly Position (Raw)
HKL I.KLBF                       : Hook Load (Raw)
SPP I.PSI                        : Standpipe Pressure (Raw)
PSPD.FT/MIN                     : Instantaneous Pipe Speed
VIBC.CPS                        : Vibration Count
VIBXYH.                           : Vibration XY
VIBZH.                           : Vibration Z
SSS_H.                           : Stick Slip Percentage from HDS1
SSL_H.                           : Stick Slip Level from HDS1
RPM_H.                           : Average RPM from HDS1
#     DEPT      ROPI     KPOSI     HKL I     SPP I      PSPD      VIBC    VIBXYH     VIBZH     SSS_H     SSL_H     RPM_H
#       FT     FT/HR        FT      KLBF       PSI    FT/MIN       CPS                                                  
#
# Relog Number     0         0         0         0         0         0         0         0         0         0         0
#
~ASCII Data
# ...
 1205.0000    226.79     22.68    178.98   2013.25   -999.25    157.87      4.00      2.01     10.75      0.00   -999.25
 1205.2000    401.05     92.42    170.52   2003.99   -999.25    155.25      4.00      2.18     12.64      0.00   -999.25
 1205.4000    232.11     91.77    168.29   2060.95   -999.25    152.64      4.00      2.34     14.53      0.00   -999.25
 1205.6000    294.94     91.12    167.46   2035.06   -999.25    150.02      4.00      2.51     16.41      0.00   -999.25
 1205.8000    174.22     90.45    177.85   2006.30   -999.25    147.40      4.00      2.68     18.30      0.00   -999.25
 1206.0000    284.97     89.83    176.63   1948.04   -999.25    144.79      4.00      2.84     20.19      0.00   -999.25
 1206.2000    140.47     89.17    172.71   1962.72   -999.25    144.00      4.00      3.01     22.08      0.00   -999.25
 1206.4000    218.93     88.49    171.10   1971.71   -999.25    144.00      4.00      3.17     23.96      0.00   -999.25
 1206.6000    267.14     87.84    169.53   2007.01   -999.25    144.00      4.00      3.34     25.85      0.00   -999.25
 1206.8000    261.40     87.18    167.60   2007.53   -999.25    144.00      4.00      3.51     27.74      0.00   -999.25
 1207.0000    311.97     86.53    164.86   1983.17   -999.25    144.00      4.00      3.67     29.62      0.00   -999.25
 1207.2000    306.24     85.87    162.42   1991.38   -999.25    144.00      4.00      3.84     31.51      0.00   -999.25
 1207.4000    246.27     85.20    161.50   2007.42   -999.25    144.00      3.99      3.99     33.40      0.00   -999.25
 1207.6000    259.95     84.57    162.67   1977.30   -999.25    144.00      3.72      3.72     34.46      0.00   -999.25
 1207.8000    260.51     83.89    161.67   2019.41   -999.25    144.00      3.45      3.45     30.85      0.00   -999.25
 1208.0000    258.17     83.24    162.17   2070.36   -999.25    138.76      3.18      3.18     27.24      0.00   -999.25
 1208.2000    251.60     82.61    161.51   2044.16   -999.25    128.27      2.91      2.91     23.62      0.00   -999.25
 1208.4000    246.41     81.94    162.94   2022.10   -999.25    117.79      2.64      2.64     20.01      0.00    100.00
 1208.6000    239.67     81.30    161.46   1987.11   -999.25    107.30      2.36      2.36     16.40      0.00    100.00
 1208.8000    223.98     80.62    159.13   2005.86   -999.25     96.82      2.09      2.09     12.79      0.00    100.00
 1209.0000    176.19     79.99    162.74   1968.40   -999.25     90.00      2.00      2.00      9.18      0.00    100.00
 1209.2000    233.52     79.30    165.06   2024.96   -999.25     90.00      2.00      2.00      9.53      0.00    100.00
 1209.4000    177.17     78.64    164.86   1993.74   -999.25     90.00      2.25      2.00     10.08      0.00    100.00
 1209.6000     59.87     77.99    174.67   2051.77   -999.25     99.45      2.89      2.00     10.64      0.00    100.00
 1209.8000    205.81     77.33    167.79   2061.47   -999.25    112.95      3.52      2.00     11.19      0.00    100.00
 1210.0000    244.02     76.69    161.68   2013.68   -999.25    126.45      3.90      2.00     11.75      0.00    100.00
 1210.2000    201.10     76.05    161.48   2071.17   -999.25    139.95      3.50      2.00     11.57      0.00    100.00
 1210.4000    127.00     75.39    163.89   2054.67   -999.25    144.00      3.11      2.00     10.80      0.00    100.00
 1210.6000    133.12     74.70    166.97   2056.44   -999.25    144.00      2.71      2.00     10.02      0.00    100.00
 1210.8000    139.68     74.05    166.06   2032.25   -999.25    144.00      2.32      2.00      9.24      0.00    101.08
 1211.0000    228.69     73.39    162.97   2023.87   -999.25    144.00      2.20      2.00      8.47      0.00    102.43
 1211.2000    162.50     72.74    162.21   2026.19   -999.25    144.00      3.17      2.00      8.00      0.00    103.79
 1211.4000    174.72     72.08    167.96   2007.33   -999.25    144.00      4.00      2.00      8.00      0.00    105.14
 1211.6000    141.86     71.42    167.51   2043.45   -999.25    144.27      4.00      2.00      8.00      0.00    106.49
 1211.8000    141.95     70.80    166.08   2080.38   -999.25    149.63      4.00      2.00      8.00      0.00    107.85
 1212.0000     83.43     70.11    165.36   2018.04   -999.25    155.00      4.00      2.00      8.00      0.00    109.20
 1212.2000    184.77     69.49    161.69   2018.75   -999.25    160.37      4.00      2.00      7.97      0.00    110.55
 1212.4000    181.12     68.81    163.77   2033.92   -999.25    165.73      4.00      2.00      7.78      0.00    111.90
 1212.6000    234.86     68.14    166.76   2061.02   -999.25    166.00      4.00      2.00      7.59      0.00    113.26
 1212.8000    181.83     67.50    166.72   1999.27   -999.25    166.00      4.00      2.00      7.39      0.00    114.00
 1213.0000    245.82     66.86    161.00   2029.53   -999.25    166.00      4.00      2.00      7.20      0.00    114.00
 1213.2000    206.29     66.17    161.36   1982.23   -999.25    156.90      3.40      2.00      7.01      0.00    114.00
 1213.4000    169.94     65.52    159.60   2073.55   -999.25    134.13      2.40      2.00      7.21      0.00    114.00
 1213.6000    166.68     64.89    162.21   1986.67   -999.25    111.37      2.00      2.00      7.44      0.00    114.00
 1213.8000    195.15     64.22    168.83   2064.68   -999.25    100.00      2.00      2.00      7.66      0.00    114.00
 1214.0000    223.28     63.55    165.36   2034.74   -999.25    100.00      2.00      2.00      7.89      0.00    114.00
 1214.2000     28.69     62.91    181.26   2227.93   -999.25    100.00      2.31      2.00      8.00      0.00    114.00
 1214.4000    284.67     62.24    173.84   2238.84   -999.25    100.55      2.78      2.00      8.00      0.00    114.00
 1214.6000    257.55     61.61    168.47   2212.24   -999.25    106.07      3.25      2.00      8.00      0.00    114.00
 1214.8000    232.11     60.96    164.44   2201.51   -999.25    111.59      3.72      2.00      8.00      0.00    114.00
 1215.0000    183.75     60.30    159.49   2158.65   -999.25    116.00      4.00      2.00      8.00      0.00    114.00
 1215.2000    139.39     59.62    161.89   2163.25   -999.25    116.00      4.00      2.00      8.13      0.00    114.00
 1215.4000    126.65     58.96    163.59   2191.79   -999.25    116.00      4.00      2.00      8.32      0.00    114.00
 1215.6000    143.29     58.30    165.74   2224.50   -999.25    114.79      4.00      2.00      8.51      0.00    114.00
 1215.8000    155.56     57.64    164.83   2234.48   -999.25    111.33      4.00      2.00      8.70      0.00    114.00
 1216.0000    161.19     57.02    165.65   2229.12   -999.25    107.88      4.00      2.00      8.89      0.00    114.00
 1216.2000    174.00     56.34    167.39   2226.43   -999.25    104.42      3.61      2.00      8.84      0.00    114.00
 1216.4000    235.80     55.70    163.15   2212.86   -999.25    102.00      3.17      2.00      8.43      0.00    114.00
 1216.6000    164.19     55.02    160.63   2254.21   -999.25    102.00      2.74      2.00      8.02      0.00    114.00
 1216.8000    110.94     54.36    168.11   2198.42   -999.25    102.00      2.30      2.00      7.61      0.00    114.00
 1217.0000    173.59     53.71    162.64   2247.59   -999.25    102.00      2.00      2.00      7.20      0.00    114.00
 1217.2000    130.31     53.08    165.36   2226.30   -999.25    102.00      2.00      2.00      7.00      0.00    114.00
 1217.4000    148.43     52.42    165.46   2238.98   -999.25    102.00      2.00      2.00      7.00      0.00    114.00
 1217.6000    137.64     51.77    163.81   2235.76   -999.25    101.36      2.00      2.00      7.00      0.00    114.00
 1217.8000    141.01     51.08    166.02   2249.24   -999.25     99.23      2.00      2.00      7.00      0.00    114.00
 1218.0000    148.21     50.43    162.35   2255.12   -999.25     97.09      2.02      2.00      7.00      0.00    114.00
 1218.2000    177.78     49.78    163.75   2294.58   -999.25     94.96      2.49      2.00      6.86      0.00    114.00
