~Version Information
VERS.                       2.00: SCHLUMBERGER LAS - Version 2.00
WRAP.                         NO: One line per depth step
~Well Information
STRT.FT                2257.0000: Start Depth
STOP.FT                3002.0000: End Depth
STEP.FT                   0.2000:  
NULL.                    -999.25:  
COMP.                    BAPETCO: COMPANY
WELL.                BED 3 C18-M: WELL
FLD .                   BED AREA: FLD
SRVC.               Schlumberger: SERVICE COMPANY
LOC .                           : LOCATION
DATE.                  21-Sep-19: LOG DATE
UWI .                  19EGP0321: API NUMBER
~Curve Information
DEPT.FT                         : MWD Tool Measurement Depth
ROPI.FT/HR                      : Rate of Penetration (Time Based)
KPOSI.FT                         : Kelly Position (Raw)
HKL I.KLBF                       : Hook Load (Raw)
SPP I.PSI                        : Standpipe Pressure (Raw)
PSPD.FT/MIN                     : Instantaneous Pipe Speed
VIBC.CPS                        : Vibration Count
VIBXYH.                           : Vibration XY
VIBZH.                           : Vibration Z
SSS_H.                           : Stick Slip Percentage from HDS1
SSL_H.                           : Stick Slip Level from HDS1
RPM_H.                           : Average RPM from HDS1
#     DEPT      ROPI     KPOSI     HKL I     SPP I      PSPD      VIBC    VIBXYH     VIBZH     SSS_H     SSL_H     RPM_H
#       FT     FT/HR        FT      KLBF       PSI    FT/MIN       CPS                                                  
#
# Relog Number     0         0         0         0         0         0         0         0         0         0         0
#
~ASCII Data
# ...
 2699.2000     26.46     71.88    208.04   2456.56   -999.25     10.00      2.00      2.00    117.00      3.00    133.50
 2699.4000     74.87     71.19    205.40   2447.61   -999.25     14.00      2.00      2.00    117.00      3.00    136.83
 2699.6000     24.27     70.55    207.04   2473.44   -999.25     18.00      2.00      2.00     83.31      1.82    139.88
 2699.8000     84.44     69.89    204.44   2452.95   -999.25     18.00      2.00      2.00     62.03      1.00    137.46
 2700.0000     76.89     69.25    204.98   2445.79   -999.25     16.28      2.00      2.00     65.71      1.00    135.03
 2700.2000     38.85     68.57    209.00   2498.68   -999.25     14.00      2.00      2.00     67.00      1.00    132.61
 2700.4000     33.64     67.94    208.72   2447.81   -999.25     13.00      2.00      2.00     66.66      1.00    132.95
 2700.6000     57.51     67.27    209.48   2468.16   -999.25      8.00      2.00      2.00     60.00      1.00    134.21
 2700.8000     83.07     66.63    208.48   2510.43   -999.25      7.64      2.00      2.00     45.50      0.50    135.47
 2701.0000     30.85     65.98    210.28   2472.61   -999.25      6.62      2.00      2.00     31.00      0.00    136.74
 2701.2000    112.71     65.29    208.78   2506.76   -999.25      6.00      2.00      2.00     34.33      0.00    138.00
 2701.4000    104.43     64.63    206.91   2475.32   -999.25      6.00      2.00      2.00     37.67      0.00    137.53
 2701.6000     34.60     64.01    209.81   2487.59   -999.25      6.00      2.00      2.00     37.05      0.00    137.07
 2701.8000    114.74     63.32    209.95   2530.54   -999.25      6.00      2.00      2.00     33.79      0.00    136.60
 2702.0000    114.04     62.70    206.91   2508.65   -999.25      6.00      2.00      2.00     34.00      0.00    136.14
 2702.2000    128.58     62.01    204.53   2507.63   -999.25      6.20      2.00      2.00     38.72      0.06    136.00
 2702.4000    105.95     61.35    203.39   2477.05   -999.25      8.00      2.00      2.00     45.94      0.61    136.00
 2702.6000     32.79     60.70    204.59   2491.84   -999.25      8.00      2.00      2.00     51.00      1.00    136.00
 2702.8000     46.92     60.07    203.30   2449.39   -999.25     11.24      2.00      2.00     51.00      1.00    135.17
 2703.0000     65.74     59.40    203.25   2506.37   -999.25     12.00      2.00      2.00     99.38      2.17    131.00
 2703.2000     44.65     58.74    205.20   2523.44   -999.25     12.00      2.00      2.00    129.59      3.00    126.83
 2703.4000     70.21     58.10    204.13   2502.37   -999.25     12.00      2.00      2.00    120.76      3.00    128.91
 2703.6000     40.91     57.42    205.20   2479.31   -999.25     11.48      2.00      2.00    111.00      3.00    132.55
 2703.8000     42.12     56.76    205.67   2523.73   -999.25      8.00      2.00      2.00     91.32      2.48    136.18
 2704.0000     49.60     56.10    205.01   2519.15   -999.25      8.00      2.00      2.00     57.13      1.19    138.30
 2704.2000     49.63     55.48    207.00   2496.62   -999.25      8.00      2.00      2.00     47.37      1.00    138.91
 2704.4000     46.72     54.79    208.90   2529.00   -999.25      8.00      2.00      2.00     43.23      1.00    139.52
 2704.6000     55.37     54.17    208.23   2484.21   -999.25      8.00      2.00      2.00     44.37      1.00    139.80
 2704.8000     48.49     53.51    207.86   2558.69   -999.25      6.90      2.00      2.00     42.69      0.77    138.80
 2705.0000     67.76     52.85    208.19   2516.33   -999.25      6.00      2.00      2.00     37.57      0.26    137.80
 2705.2000     87.68     52.17    206.41   2540.75   -999.25      6.00      2.00      2.00     36.02      0.00    136.80
 2705.4000     41.12     51.51    206.34   2476.82   -999.25      7.41      2.00      2.00     38.08      0.00    136.12
 2705.6000     57.28     50.89    206.85   2517.29   -999.25      8.00      2.00      2.00     39.00      0.00    136.74
 2705.8000     62.88     50.23    207.77   2512.01   -999.25      8.88      2.00      2.00     39.00      0.00    137.35
 2706.0000     73.05     49.56    209.10   2495.81   -999.25     10.00      2.00      2.00     31.80      0.00    137.97
 2706.2000     56.93     48.92    209.19   2541.04   -999.25      8.91      2.00      2.00     31.62      0.00    137.57
 2706.4000     57.43     48.24    209.47   2513.10   -999.25      6.00      2.00      2.00     32.00      0.00    137.11
 2706.6000     51.07     47.58    207.10   2508.30   -999.25      6.00      2.00      2.00     32.00      0.00    136.66
 2706.8000     34.13     46.92    208.62   2554.12   -999.25      5.63      2.00      2.00     30.82      0.00    136.20
 2707.0000     91.70     46.29    207.10   2504.80   -999.25      4.15      2.00      2.00     29.24      0.00    136.28
 2707.2000     63.11     45.63    208.72   2504.88   -999.25      4.00      2.00      2.00     29.39      0.00    136.79
 2707.4000     55.75     44.95    207.17   2484.41   -999.25      4.00      2.00      2.00     29.84      0.00    137.29
 2707.6000     62.88     44.31    208.10   2488.13   -999.25      4.00      2.00      2.00     30.34      0.00    137.80
 2707.8000     64.59     43.64    209.48   2505.63   -999.25      4.00      2.00      2.00     30.87      0.00    137.71
 2708.0000     89.97     43.01    207.96   2489.92   -999.25      4.00      2.00      2.00     30.67      0.00    137.22
 2708.2000     75.82     42.34    207.81   2478.27   -999.25      4.00      2.00      2.00     30.22      0.00    136.73
 2708.4000     67.86     41.67    206.06   2452.48   -999.25      4.00      2.00      2.00     29.74      0.00    136.24
 2708.6000     51.19     41.01    206.13   2496.08   -999.25      4.00      2.00      2.00     29.21      0.00    136.00
 2708.8000     61.54     40.37    205.06   2491.16   -999.25      5.08      2.00      2.00     34.31      0.23    136.00
 2709.0000    101.50     39.73    203.96   2499.76   -999.25      6.00      2.00      2.00     43.16      0.62    136.00
 2709.2000     75.63     39.04    204.25   2466.28   -999.25      6.00      2.00      2.00     52.00      1.00    136.00
 2709.4000    108.75     38.39    203.06   2474.94   -999.25      6.00      2.00      2.00     52.00      1.00    136.00
 2709.6000     46.41     37.73    208.24   2468.13   -999.25      6.00      2.00      2.00     52.00      1.00    135.73
 2709.8000     83.26     37.08    206.34   2475.17   -999.25      6.33      2.00      2.00     52.00      1.00    135.07
 2710.0000     81.70     36.43    206.69   2507.32   -999.25      7.67      2.00      2.00     52.80      1.00    134.40
 2710.2000     83.36     35.76    206.39   2464.43   -999.25      8.00      2.00      2.00     54.80      1.00    134.66
 2710.4000     40.45     35.10    205.10   2447.14   -999.25      8.00      2.00      2.00     56.00      1.00    136.30
 2710.6000     57.21     34.45    205.25   2458.51   -999.25      8.00      2.00      2.00     56.00      1.00    137.94
 2710.8000     27.11     33.79    210.04   2479.34   -999.25      8.00      2.00      2.00     52.94      1.00    139.59
 2711.0000     58.82     33.17    208.15   2461.76   -999.25      8.00      2.00      2.00     47.39      1.00    139.63
 2711.2000     37.96     32.48    207.11   2447.36   -999.25      4.00      2.00      2.00     45.61      1.00    139.13
 2711.4000     83.92     31.86    207.24   2467.32   -999.25      4.00      2.00      2.00     45.08      1.00    138.62
 2711.6000     80.89     31.17    206.72   2405.81   -999.25      4.00      2.00      2.00     38.57      0.54    138.12
 2711.8000     97.81     30.53    206.09   2414.22   -999.25      4.18      2.00      2.00     31.00      0.00    138.68
 2712.0000    133.22     29.88    202.92   2425.82   -999.25      6.00      2.00      2.00     42.55      0.44    139.59
 2712.2000     94.61     29.20    205.05   2438.58   -999.25      6.00      2.00      2.00     54.11      0.89    140.50
 2712.4000     84.47     28.58    206.77   2465.70   -999.25      5.39      2.00      2.00     63.72      1.00    141.41
