~Version Information
VERS.                       2.00: SCHLUMBERGER LAS - Version 2.00
WRAP.                         NO: One line per depth step
~Well Information
STRT.FT                1138.0000: Start Depth
STOP.FT                2257.0000: End Depth
STEP.FT                   0.2000:  
NULL.                    -999.25:  
COMP.                    BAPETCO: COMPANY
WELL.                BED 3 C18-M: WELL
FLD .                   BED AREA: FLD
SRVC.               Schlumberger: SERVICE COMPANY
LOC .                           : LOCATION
DATE.                  19-Sep-19: LOG DATE
UWI .                  19EGP0321: API NUMBER
~Curve Information
DEPT.FT                         : MWD Tool Measurement Depth
ROPI.FT/HR                      : Rate of Penetration (Time Based)
KPOSI.FT                         : Kelly Position (Raw)
HKL I.KLBF                       : Hook Load (Raw)
SPP I.PSI                        : Standpipe Pressure (Raw)
PSPD.FT/MIN                     : Instantaneous Pipe Speed
VIBC.CPS                        : Vibration Count
VIBXYH.                           : Vibration XY
VIBZH.                           : Vibration Z
SSS_H.                           : Stick Slip Percentage from HDS1
SSL_H.                           : Stick Slip Level from HDS1
RPM_H.                           : Average RPM from HDS1
#     DEPT      ROPI     KPOSI     HKL I     SPP I      PSPD      VIBC    VIBXYH     VIBZH     SSS_H     SSL_H     RPM_H
#       FT     FT/HR        FT      KLBF       PSI    FT/MIN       CPS                                                  
#
# Relog Number     0         0         0         0         0         0         0         0         0         0         0
#
~ASCII Data
 1138.0000    293.65     33.86    183.10   1354.67   -999.25   -999.25   -999.25   -999.25    150.67      3.00   -999.25
 1138.2000    304.30     33.20    184.54   1315.67   -999.25   -999.25   -999.25   -999.25    148.26      3.00   -999.25
 1138.4000    295.56     32.55    184.87   1345.31   -999.25   -999.25      2.00      2.00    145.84      3.00   -999.25
 1138.6000    289.02     31.89    185.14   1364.06   -999.25   -999.25      2.00      2.00    143.43      3.00   -999.25
 1138.8000    295.28     31.23    184.36   1373.92   -999.25      8.00      2.00      2.00    141.02      3.00   -999.25
 1139.0000    299.37     30.58    185.08   1365.21   -999.25     10.89      2.00      2.00    138.60      3.00   -999.25
 1139.2000    285.11     29.95    184.89   1366.82   -999.25     13.78      2.00      2.00    136.19      3.00   -999.25
 1139.4000    273.36     29.27    182.90   1345.14   -999.25     16.67      2.00      2.00    133.78      3.00   -999.25
 1139.6000    239.39     28.61    177.50   1357.44   -999.25     19.57      2.00      2.00    131.36      3.00   -999.25
 1139.8000     66.93     27.97    180.37   1344.39   -999.25     20.00      2.00      2.00    123.03      3.00     74.00
 1140.0000     65.17     27.32    176.10   1332.08   -999.25     20.00      2.00      2.00    107.75      2.73     74.00
 1140.2000     56.85     26.65    175.75   1302.03   -999.25     19.50      2.00      2.00     74.78      1.65     74.00
 1140.4000     75.53     25.98    174.61   1338.74   -999.25     16.17      2.00      2.00     59.27      1.00     74.00
 1140.6000     65.75     25.33    174.89   1308.17   -999.25     15.73      2.00      2.00     69.93      1.00     73.51
 1140.8000     52.38     24.68    175.31   1320.92   -999.25     14.00      2.00      2.00     75.91      1.00     72.69
 1141.0000     69.42     24.02    175.94   1289.48   -999.25     14.00      2.00      2.00     55.19      1.00     66.82
 1141.2000    144.52     23.39    177.17   1329.74   -999.25      6.00      2.00      2.00     99.50      2.00     32.35
 1141.4000     94.84     22.70    179.45   1307.73   -999.25      6.00      2.00      2.00    147.50      3.00     34.25
 1141.6000    146.46     22.06    175.05   1312.58   -999.25      4.88      2.00      2.00    129.63      2.89     51.75
 1141.8000     76.64     21.39    173.95   1285.04   -999.25      4.00      2.00      2.00     85.99      1.80     69.25
 1142.0000     75.55     20.75    173.00   1280.24   -999.25      4.00      2.00      2.00     42.36      0.71     77.80
 1142.2000     58.54     20.08    173.26   1265.42   -999.25      4.00      2.00      2.00     13.18      0.00     77.39
 1142.4000     47.61     19.42    173.94   1293.05   -999.25      4.26      2.00      2.00     10.82      0.00     76.98
 1142.6000     69.00     18.77    172.43   1301.65   -999.25      5.32      2.00      2.00      8.47      0.00     76.57
 1142.8000     55.00     18.11    173.08   1274.06   -999.25      6.00      2.00      2.00      8.36      0.00     76.16
 1143.0000     90.11     17.45    171.90   1309.06   -999.25      6.00      2.00      2.00      8.82      0.00     76.18
 1143.2000     80.24     16.83    173.03   1287.10   -999.25      4.22      2.00      2.00      7.76      0.00     76.48
 1143.4000    102.35     16.14    171.57   1306.79   -999.25      4.00      2.00      2.00      6.17      0.00     76.79
 1143.6000     73.34     15.50    171.44   1287.64   -999.25      4.00      2.00      2.00      7.33      0.00     77.09
 1143.8000    100.12     14.83    171.57   1280.27   -999.25      4.00      2.00      2.00      8.48      0.00     77.39
 1144.0000     79.49     14.18    172.74   1294.78   -999.25      4.00      2.00      2.00      9.00      0.00     77.70
 1144.2000    102.20     13.52    172.42   1287.60   -999.25      4.00      2.00      2.00      9.00      0.00     78.00
 1144.4000     71.83     12.86    173.66   1280.43   -999.25      4.00      2.00      2.00      9.00      0.00     78.00
 1144.6000     80.31     12.22    172.98   1283.60   -999.25      4.00      2.00      2.00      9.00      0.00     78.00
 1144.8000     75.56     11.55    172.23   1287.87   -999.25      4.00      2.00      2.00      9.00      0.00     78.00
 1145.0000     83.62     10.89    172.17   1290.77   -999.25      4.00      2.00      2.00      9.00      0.00     78.00
 1145.2000     57.31     10.24    173.06   1272.72   -999.25      4.00      2.00      2.00      8.35      0.00     78.00
 1145.4000     65.26      9.58    172.87   1254.39   -999.25      4.00      2.00      2.00      7.53      0.00     78.00
 1145.6000     80.16      8.96    172.99   1234.86   -999.25      3.24      2.00      2.00      7.00      0.00     78.00
 1145.8000    104.43      8.27    172.28   1300.89   -999.25      2.00      2.00      2.00      7.00      0.00     78.00
 1146.0000    121.69      7.61    173.09   1270.01   -999.25      2.00      2.00      2.00      7.00      0.00     78.00
 1146.2000     87.27      6.98    172.26   1288.19   -999.25      2.00      2.00      2.00      7.00      0.00     78.00
 1146.4000    100.68      6.30    172.17   1301.89   -999.25      2.00      2.00      2.00      7.00      0.00     78.00
 1146.6000     93.16      5.64    172.24   1272.40   -999.25      2.00      2.00      2.00      7.00      0.00     77.73
 1146.8000     72.03      4.99    174.56   1275.60   -999.25      2.00      2.00      2.00      6.83      0.00     77.37
 1147.0000    105.42      4.33    171.00   1285.37   -999.25      2.00      2.00      2.00      6.52      0.00     77.02
 1147.2000     90.27      3.67    172.42   1288.74   -999.25      2.00      2.00      2.00      6.20      0.00     76.66
 1147.4000     91.14      3.05    173.47   1266.61   -999.25      2.00      2.00      2.00      6.49      0.00     76.30
 1147.6000     57.11      2.36    172.33   1282.29   -999.25      2.00      2.00      2.00      7.88      0.00     76.08
 1147.8000     61.33      1.71    172.80   1247.54   -999.25      2.00      2.00      2.00      9.16      0.00     76.58
 1148.0000     59.69      1.05    173.09   1285.71   -999.25      2.08      2.00      2.00      9.98      0.00     77.08
 1148.2000     42.39      0.43    173.76   1263.90   -999.25      3.75      2.00      2.00     10.80      0.00     77.58
 1148.4000    155.56     34.86    175.75   1495.13   -999.25      5.42      2.00      2.00     12.70      0.00     78.27
 1148.6000    138.61     92.68    173.06   1854.33   -999.25      7.08      2.00      2.00     14.97      0.00     80.10
 1148.8000    148.87     92.03    175.41   1832.48   -999.25      8.75      2.00      2.00     17.24      0.00     81.93
 1149.0000    108.79     91.37    176.32   1857.55   -999.25     10.42      2.00      2.00     19.51      0.00     83.76
 1149.2000     90.11     90.72    175.07   1868.86   -999.25     12.00      2.00      2.00     21.77      0.00     85.58
 1149.4000     54.66     90.03    171.38   1844.40   -999.25     12.00      2.00      2.00     24.04      0.00     87.41
 1149.6000     79.45     89.40    172.54   1825.47   -999.25     12.00      2.00      2.00     26.31      0.00     89.24
 1149.8000    283.69     88.75    174.21   1925.06   -999.25     12.00      2.00      2.00     28.58      0.00     91.07
 1150.0000    209.83     88.09    165.59   1898.86   -999.25     12.00      2.00      2.00     30.85      0.00     92.89
 1150.2000     92.99     87.43    176.11   1883.81   -999.25     11.54      2.00      2.00     32.34      0.00     94.72
 1150.4000    109.22     86.78    180.76   1910.45   -999.25      6.92      2.00      2.00     19.22      0.00     96.00
 1150.6000     22.82     86.12    180.97   1933.52   -999.25      6.89      2.00      2.00     22.50      0.00     96.00
 1150.8000    204.97     85.47    172.54   1904.61   -999.25     11.33      2.00      2.00     29.00      0.20     96.00
 1151.0000    157.03     84.81    170.47   1953.22   -999.25     14.00      2.00      2.00     32.53      0.44     96.00
 1151.2000    145.62     84.15    167.20   1882.96   -999.25     14.00      2.00      2.00     36.06      0.67     96.00
