~Version Information
VERS.                       2.00: SCHLUMBERGER LAS - Version 2.00
WRAP.                         NO: One line per depth step
~Well Information
STRT.FT                1138.0000: Start Depth
STOP.FT                2257.0000: End Depth
STEP.FT                   0.2000:  
NULL.                    -999.25:  
COMP.                    BAPETCO: COMPANY
WELL.                BED 3 C18-M: WELL
FLD .                   BED AREA: FLD
SRVC.               Schlumberger: SERVICE COMPANY
LOC .                           : LOCATION
DATE.                  19-Sep-19: LOG DATE
UWI .                  19EGP0321: API NUMBER
~Curve Information
DEPT.FT                         : MWD Tool Measurement Depth
ROPI.FT/HR                      : Rate of Penetration (Time Based)
KPOSI.FT                         : Kelly Position (Raw)
HKL I.KLBF                       : Hook Load (Raw)
SPP I.PSI                        : Standpipe Pressure (Raw)
PSPD.FT/MIN                     : Instantaneous Pipe Speed
VIBC.CPS                        : Vibration Count
VIBXYH.                           : Vibration XY
VIBZH.                           : Vibration Z
SSS_H.                           : Stick Slip Percentage from HDS1
SSL_H.                           : Stick Slip Level from HDS1
RPM_H.                           : Average RPM from HDS1
#     DEPT      ROPI     KPOSI     HKL I     SPP I      PSPD      VIBC    VIBXYH     VIBZH     SSS_H     SSL_H     RPM_H
#       FT     FT/HR        FT      KLBF       PSI    FT/MIN       CPS                                                  
#
# Relog Number     0         0         0         0         0         0         0         0         0         0         0
#
~ASCII Data
# ...
 2250.2000     21.37     75.49    189.34   2580.88   -999.25     46.00      2.00      2.00    144.24      3.00     95.53
 2250.4000     27.20     74.84    190.38   2584.49   -999.25     28.34      2.00      2.00    148.70      3.00     93.66
 2250.6000     48.79     74.17    188.81   2579.30   -999.25     28.67      2.00      2.00    155.92      3.00     91.78
 2250.8000     24.23     73.52    189.81   2589.06   -999.25     30.00      2.00      2.00    155.18      3.00     90.10
 2251.0000     18.45     72.83    189.43   2594.22   -999.25     31.47      2.00      2.00    156.32      3.00     92.07
 2251.2000     50.18     72.21    187.82   2559.69   -999.25     32.00      2.00      2.00    161.48      3.00     94.03
 2251.4000     31.61     71.52    186.68   2625.98   -999.25     30.70      2.00      2.00    166.00      3.00     96.00
 2251.6000     69.61     70.90    190.04   2602.05   -999.25     30.00      2.00      2.00    168.00      3.00     96.77
 2251.8000     48.49     70.24    190.28   2611.49   -999.25     30.00      2.00      2.00    159.48      3.00     97.54
 2252.0000     32.01     69.59    188.24   2594.28   -999.25     37.91      2.00      2.00    148.12      3.00     96.86
 2252.2000     54.73     68.93    187.63   2611.38   -999.25     40.00      2.00      2.00    151.25      3.00     94.00
 2252.4000     32.98     68.27    188.57   2591.64   -999.25     38.89      2.00      2.00    166.25      3.00     91.14
 2252.6000     57.96     67.59    188.28   2568.27   -999.25     35.91      2.00      2.00    170.00      3.00     88.29
 2252.8000     61.09     66.96    190.09   2588.31   -999.25     32.00      2.00      2.00    169.06      3.00     90.57
 2253.0000     57.67     66.27    192.75   2613.08   -999.25     33.57      2.00      2.00    165.94      3.00     93.43
 2253.2000     32.87     65.63    190.04   2607.63   -999.25     36.26      2.00      2.00    158.39      3.00     96.28
 2253.4000     68.03     64.96    188.22   2618.85   -999.25     38.00      2.00      2.00    148.94      3.00     97.05
 2253.6000     73.42     64.30    190.29   2560.44   -999.25     40.44      2.00      2.00    176.60      3.00     94.67
 2253.8000     34.62     63.68    189.15   2608.96   -999.25     37.72      2.00      2.00    168.60      3.00     92.29
 2254.0000     49.02     63.01    189.59   2599.75   -999.25     29.95      2.00      2.00    161.71      3.00     89.90
 2254.2000     27.71     62.34    189.81   2611.58   -999.25     28.00      2.00      2.00    175.82      3.00     88.20
 2254.4000     32.82     61.71    188.88   2534.72   -999.25     31.48      2.00      2.00    185.48      3.00     89.19
 2254.6000     51.60     61.06    189.01   2630.38   -999.25     34.19      2.00      2.00    186.84      3.00     90.17
 2254.8000     45.55     60.40    187.82   2699.31   -999.25     29.03      2.00      2.00    185.44      3.00     91.16
 2255.0000     52.19     59.71    188.24   2722.69   -999.25     28.00      2.00      2.00    168.39      3.00     92.00
 2255.2000     58.86     59.07    189.39   2732.92   -999.25     28.00      2.00      2.00    161.54      3.00     92.00
 2255.4000     46.78     58.40    189.34   2752.31   -999.25     33.33      2.00      2.00    167.18      3.00     92.00
 2255.6000     27.70     57.74    190.29   2678.19   -999.25     43.99      2.00      2.00    172.19      3.00     92.00
 2255.8000     26.55     57.09    190.57   2709.45   -999.25     44.00      2.00      2.00    176.56      3.00     92.00
 2256.0000     49.02     56.45    191.24   2652.98   -999.25     57.09      2.00      2.00    173.80      3.00     92.00
 2256.2000     38.36     55.81    188.34   2654.71   -999.25     62.82      2.00      2.00    170.24      3.00     92.00
 2256.4000     38.72     55.15    188.02   2631.30   -999.25     66.00      2.86      2.00    182.33      3.00     92.00
 2256.6000     38.69     54.50    188.30   2607.86   -999.25     66.00      3.95      2.00    202.83      3.00     89.04
 2256.8000     61.74     53.83    188.55   2385.22   -999.25     52.40      2.00      2.00    212.05      3.00     84.11
 2257.0000     34.60     53.15    188.20   2325.30   -999.25     50.00      3.20      2.00    215.21      3.00     79.18
